n,time,dt,vx,vy,vz,roll,pitch,yaw,x,y,z,detected,battery
0,679805.45,679805.45,0.0027283320426940917,0.0010763932466506959,0,0.005585053606381855,-0.005113814708343385,1.2671264902404031,0,0,0.242,0,76
1,679970.916,NaN,0,0,0,0.00003490658503988659,0,1.2670217704852835,0,0,0.242,0,76
2,680035.949,NaN,0,0,0,-0.00003490658503988659,0,1.2670217704852835,0,0,0.242,0,76
3,680106.475,NaN,0,0,0,-0.000017453292519943296,0.000017453292519943296,1.2669868639002437,0,0,0.242,0,76
4,680171.661,NaN,0,0,0,0.000017453292519943296,0,1.2670043171927634,0,0,0.242,0,76
5,680236.816,NaN,0,0,0,0.00003490658503988659,-0.00013962634015954637,1.2669519573152037,0,0,0.242,0,76
6,680301.788,NaN,0,0,0,0.00015707963267948963,-0.00019198621771937622,1.2669345040226838,0,0,0.242,0,76
7,680367.187,65.3990000000922,0,0,0,0.00031415926535897925,-0.00038397243543875244,1.2671788501179628,0,0,0.242,0,76
8,680432.22,65.0329999999376,0,0,0,0.00019198621771937622,-0.0006632251157578452,1.2673359297506424,0,0,0.242,0,76
9,680497.375,65.15500000002794,0,0,0,0.00020943951023931956,-0.0011693705988362008,1.267423196213242,0,0,0.242,0,76
10,680562.805,65.43000000005122,0,0,0,0.00013962634015954637,-0.0011344640137963143,1.267423196213242,0,0,0.242,0,76
11,680627.777,64.97199999995064,0,0,0,0.0002443460952792061,-0.001291543646475804,1.2675977291384417,0,0,0.242,0,76
12,680692.932,65.15500000002794,0,0,0,0.00013962634015954637,-0.0013439035240356337,1.2676849956010412,0,0,0.242,0,76
13,680758.239,65.30699999991339,0,0,0,0.00012217304763960306,-0.0013264502315156904,1.2675977291384417,0,0,0.242,0,76
14,680823.608,65.36900000006426,0,0,0,0.00003490658503988659,-0.0014486232791552935,1.2676326357234813,0,0,0.242,0,76
15,680888.488,64.88000000000466,0,0,0,0.000017453292519943296,-0.0016755160819145565,1.2676675423085215,0,0,0.242,0,76
16,681018.768,65.06400000001304,0,0,0,-0.0002443460952792061,-0.0017453292519943296,1.2678944351112806,0,0,0.242,0,76
17,681084.106,65.33799999998882,0,0,0,-0.00022689280275926284,-0.0020943951023931952,1.267510462675842,0,0,0.242,0,76
18,681149.139,65.0329999999376,0,0,0,-0.00015707963267948963,-0.0021991148575128553,1.2676500890160014,0,0,0.242,0,76
19,681214.324,65.18500000005588,0,0,0,-0.0004188790204786391,-0.0023911010752322315,1.2675453692608818,0,0,0.242,0,76
20,681279.541,65.21699999994598,0,0,0,-0.00008726646259971648,-0.0028099800957108703,1.2666901579274044,0,0,0.242,0,76
21,681344.696,65.15500000002794,0,0,0,-0.00020943951023931956,-0.0026529004630313807,1.2671439435329233,0,0,0.242,0,76
22,681409.82,65.1239999999525,0,0,0,-0.00020943951023931956,-0.0030717794835100195,1.2664283585396054,0,0,0.242,0,76
23,681474.975,65.15500000002794,0,0,0,-0.0002443460952792061,-0.0030717794835100195,1.2666377980498447,0,0,0.242,0,76
24,681540.191,65.2160000000149,0,0,0,-0.0003665191429188092,-0.002967059728390361,1.2667250645124446,0,0,0.242,0,76
25,681605.529,65.33799999998882,0,0,0,-0.00019198621771937622,-0.00322885911618951,1.2669519573152037,0,0,0.242,0,76
26,681670.532,65.00300000002608,0,0,0,-0.00010471975511965978,-0.003106686068549906,1.2664458118321253,0,0,0.242,0,76
27,681735.687,65.15500000002794,0,0,0,0.00022689280275926284,-0.0023911010752322315,1.2674930093833219,0,0,0.242,0,76
28,681800.903,65.2160000000149,0,0,0,0.00034906585039886593,-0.0031415926535897933,1.268418033886879,0,0,0.242,0,76
29,681866.149,65.24599999992643,0,0,0,0.00022689280275926284,-0.00322885911618951,1.2698492038735145,0,0,0.242,0,76
30,681931.396,65.24699999997392,0,0,0,0.0002617993877991494,-0.0035953782591083183,1.271803972635748,0,0,0.242,0,76
31,681996.52,65.12400000006892,0,0,0,0.0004188790204786391,-0.0027401669256310974,1.2751026449220173,0,0,0.242,0,76
32,682061.676,65.15599999995902,0,0,0,0.00017453292519943296,-0.0037350045992678655,1.2762196556432936,0,0,0.242,0,76
33,682126.953,65.27700000000186,0,0,0,0.0005235987755982988,-0.004642575810304917,1.2776857322149688,0,0,0.242,0,76
34,682192.108,65.15500000002794,0,0,0,0.001553343034274953,-0.004921828490624009,1.2794659680520033,0,0,0.242,0,76
35,682257.049,64.94099999999162,0,0,0,0.004276056667386107,-0.0063006385996995295,1.2800070201201212,0,0,0.242,0,76
36,682322.631,65.58200000005309,0,0,0,0.011362093430483087,-0.008936085770210968,1.2811763907189575,0,0,0.243,0,76
37,682387.756,65.125,0,0,0,0.02605776573227534,-0.00853466004225227,1.2819792421748748,0,0,0.242,0,76
38,682452.667,64.91099999996368,0,0,0,0.03677408733952053,-0.015550883635269476,1.2836198516717496,0,0,0.242,0,76
39,682517.883,65.2160000000149,0,0,0,0.04646066468808906,-0.023404865269243957,1.285016115073345,0,0,0.245,0,76
40,682582.916,65.0329999999376,0,0,0,0.03954916085019151,-0.029932396671702756,1.280740058405959,0,0,0.245,0,76
41,682648.223,65.3070000000298,0,0,0,0.026249751949994717,-0.030787608005179972,1.2756960568676954,0,0,0.242,0,76
42,682713.317,65.09400000004098,0,0,0,0.013648474750595656,-0.028379053637427796,1.2761672957657337,0,0,0.242,0,76
43,682778.472,65.15499999991152,0,0,0,0.004590215932745087,-0.026773350725593018,1.2758531365003747,0,0,0.242,0,76
44,682843.627,65.15500000002794,0,0,0,0.0038397243543875246,-0.020664698343612863,1.2751550047995772,0,0,0.242,0,76
45,682908.813,65.18599999998696,0,0,0,0.01022762941668677,-0.0055152404363020815,1.2744394198062594,0,0,0.241,0,76
46,682974.365,65.55200000002515,0,0,0,0.0038222710618675813,0.00450294947014537,1.2738809144456211,0,0,0.245,0,76
47,683039.367,65.00199999997858,-0.0010655890703201293,0.004950592517852783,0,-0.0026354471705114374,0.003298672286269283,1.2078725621351958,0,0,0.255,0,76
48,683104.461,65.09400000004098,-0.03929385375976562,0.0005452110767364502,0,-0.012164944886400474,0.0008552113334772215,1.2097400644348295,0,0,0.299,0,76
49,683170.44,65.97899999993388,-0.0397961540222168,-0.025568607330322266,0,-0.011746065865921838,-0.0015184364492350666,1.2112235942990246,0,0,0.36,0,76
50,683234.924,64.48400000005495,-0.004231446266174317,-0.1150723648071289,0,-0.013910274138394806,-0.002879793265790644,1.2133179894014179,0,0,0.397,0,76
51,683300.109,65.18500000005588,0.015013896942138671,-0.10005453491210937,0,-0.012444197566719568,-0.007382742735936014,1.2153076647486916,0,0,0.476,0,76
52,683365.234,65.125,0.048204174041748045,-0.09206460571289063,0,-0.004572762640225143,-0.004031710572106902,1.2159359832794094,0,0,0.511,0,76
53,683430.419,65.18499999993946,0.042818195343017576,-0.0813139190673828,0,0.001780235837034216,0.003961897402027128,1.2165119419325676,0,0,0.578,0,76
54,683495.727,65.30799999996088,0.0453726921081543,-0.07366372680664063,0,0.004241150082346221,0.011711159280881954,1.2184318041097615,0,0,0.64,1,76
55,683560.821,65.09400000004098,0.04653795623779297,-0.05879192733764648,0,0.005864306286700947,0.011222467090323538,1.2187110567900805,0,0,0.672,1,76
56,683625.915,65.09400000004098,0.03703512954711914,-0.05236238861083985,0,0.0053058009260627615,0.009145525280450286,1.2191299358105592,0,0,0.727,1,76
57,683691.284,65.36899999994785,0.011194393157958985,-0.0585065803527832,0,0.005253441048502931,0.011222467090323538,1.2192870154432387,0,0,0.775,1,76
58,683756.256,64.97200000006706,-0.024648555755615233,-0.0321024055480957,0,0.01090830782496456,0.016755160819145562,1.2195313615385177,0,0,0.791,1,76
59,683821.655,65.39899999997579,-0.04676236724853516,-0.016418506622314453,0,0.016859880574265223,0.01738347934986352,1.2193568286133183,0,0,0.804,1,76
60,683886.657,65.00199999997858,-0.08726931762695313,0.0061418137550354,0,0.017575465567582896,0.011414453308042916,1.2179780185042428,0,0,0.811,1,76
61,683951.873,65.2160000000149,-0.09220693969726562,0.018722724914550782,0,0.011100294042683936,-0.0007155849933176752,1.2171053538782457,0,0,0.802,1,76
62,684017.15,65.27700000000186,-0.10500187683105469,0.02229671287536621,0,0.003159045946109736,-0.012426744274199625,1.2159883431569694,0,0,0.789,1,76
63,684082.427,65.27700000000186,-0.09240882873535156,0.019320758819580078,0,-0.003525565089028546,-0.02415535684760152,1.215115678530972,0,0,0.779,1,76
64,684147.399,64.97199999995064,-0.08097201538085938,0.013279985427856446,0,-0.008569566627292158,-0.030421088862261168,1.2134052558640176,0,0,0.765,1,76
65,684212.677,65.27800000004936,-0.07446634674072265,-0.008693578720092774,0,-0.011658799403322121,-0.030473448739820993,1.2109967014962657,0,0,0.747,1,76
66,684277.557,64.88000000000466,-0.03732498168945313,-0.0400086669921875,0,-0.010297442586766544,-0.023369958684204068,1.2097575177273494,0,0,0.741,1,76
67,684342.956,65.39899999997579,-0.03439887619018555,-0.06026267623901367,0,-0.00926769832808989,-0.021310470166850764,1.208099454937955,0,0,0.731,0,76
68,684407.836,64.88000000000466,-0.01620884895324707,-0.08063031005859375,0,-0.004991641660703782,-0.01754055898254301,1.2048182359442057,0,0,0.724,0,76
69,684473.388,65.55200000002515,-0.012822582244873046,-0.09242799377441406,0,-0.0006806784082777885,-0.015550883635269476,1.2013973906102966,0,0,0.717,1,76
70,684538.574,65.18599999998696,-0.004639201164245606,-0.0922671127319336,0,-0.00034906585039886593,-0.013578661580515882,1.198569957222066,0,0,0.717,1,76
71,684603.393,64.8190000000177,0.004613546848297119,-0.11230095672607422,0,0.003193952531149623,-0.011397000015522971,1.196440655534633,0,0,0.717,1,76
72,684668.792,65.39899999997579,-0.0023410758972167967,-0.1161598892211914,0,0.0077492618788548235,-0.00830776723949301,1.1937703017790815,0,0,0.718,0,76
73,684733.917,65.125,-0.0018932991027832032,-0.11081844329833984,0,0.021013764194011724,-0.002303834612632515,1.1955330843235958,0,0,0.718,1,76
74,684799.163,65.24599999992643,-0.011510890007019043,-0.10854109954833985,0,0.03230604445441504,-0.000890117918517108,1.1971562405279503,0,0,0.721,1,76
75,684864.318,65.15500000002794,-0.019859128952026368,-0.09173793792724609,0,0.043249258864419486,0.001064650843716541,1.19738313333071,0,0,0.723,1,76
76,684929.473,65.15500000002794,-0.01610574722290039,-0.0658664779663086,0,0.054122660104344154,0.0009075712110370514,1.1967548147999918,0,0,0.722,1,76
77,684994.659,65.18599999998696,-0.016189558029174805,-0.03468544387817383,0,0.054646258879942455,-0.003298672286269283,1.1955679909086359,0,0,0.724,0,76
78,685059.936,65.27700000000186,-0.0069559144973754886,0.0011764905452728272,0,0.04267330021126135,-0.012287117934040078,1.1939797412893207,0,0,0.724,0,76
79,685125.091,65.15500000002794,0.0029031195640563967,0.023646053314208985,0,0.025289820861397836,-0.019547687622336492,1.1917282665542481,0,0,0.723,0,76
80,685190.185,65.09400000004098,0.007827484607696533,0.027822620391845704,0,0.012426744274199625,-0.017243853009703977,1.1916235467991285,0,0,0.722,0,76
81,685255.584,65.39899999997579,0.006388248920440674,0.013109574317932129,0,0.014538592669112763,-0.008587019919812101,1.192391491670006,0,0,0.721,1,76
82,685320.648,65.06400000001304,-0.005453039169311524,0.023108049392700194,0,0.022165681500327987,-0.0023387411976724015,1.1925311180101656,0,0,0.721,0,76
83,685385.833,65.18499999993946,-0.005789618492126464,0.03500909423828125,0,0.02584832622203602,-0.00434586983746588,1.1934910490987625,0,0,0.721,0,76
84,685450.958,65.125,0.0005551586747169495,0.04589128875732422,0,0.02790781473938933,-0.009930923443847734,1.1931245299558435,0,0,0.72,0,76
85,685516.174,65.2160000000149,0.005222957134246826,0.07674188232421875,0,0.025499260371637158,-0.01207767842380076,1.19425899396964,0,0,0.72,0,76
86,685581.42,65.24600000004284,0.015885961532592772,0.08172407531738281,0,0.014713125594312197,-0.01007054978400728,1.1963010291944733,0,0,0.718,0,76
87,685646.636,65.2160000000149,0.009692344665527344,0.09529670715332031,0,0.0018325957145940458,-0.005811946409141117,1.1967024549224319,0,0,0.72,0,76
88,685711.639,65.00299999990966,-0.0013565990924835204,0.09726616668701171,0,-0.009180431865490174,-0.002303834612632515,1.1978718255212681,0,0,0.721,0,76
89,685776.885,65.24600000004284,0.004282776832580566,0.07223417663574219,0,-0.01741838593490341,-0.0018325957145940458,1.20045491281422,0,0,0.721,0,76
90,685841.949,65.06400000001304,-0.013169562339782715,0.06374093246459961,0,-0.008255407361933179,0.007243116395776467,1.203753585100489,0,0,0.72,0,76
91,685907.196,65.24699999997392,-0.03891060256958008,0.05310158920288086,0,0.00900589894029074,0.01377064779823526,1.207732935795036,0,0,0.722,0,76
92,685972.229,65.03300000005402,-0.05241330718994141,0.07099692535400391,0,0.023369958684204068,0.004433136300065597,1.2104905560131871,0,0,0.721,0,76
93,686037.445,65.21599999989849,-0.05858338928222656,0.09104753112792968,0,0.03574434308084387,-0.005916666164260778,1.2124802313604608,0,0,0.719,1,76
94,686102.661,65.2160000000149,-0.057487197875976566,0.10410308837890625,0,0.044052110320336874,-0.015830136315588567,1.2146793462179737,0,0,0.721,0,76
95,686167.877,65.2160000000149,-0.0411888542175293,0.140733154296875,0,0.040020399748229976,-0.028082347664588763,1.217297340095965,0,0,0.722,0,76
96,686232.818,64.94099999999162,-0.022954523086547853,0.1772543182373047,0,0.029688050576423545,-0.029216811678385076,1.2190077627629194,0,0,0.728,0,76
97,686298.248,65.43000000005122,0.009094964981079102,0.18893975830078125,0,0.018901915799098588,-0.024085543677521744,1.2229696601649467,0,0,0.742,0,76
98,686363.098,64.84999999997672,-0.007768518447875976,0.2021543426513672,0,0.01096066770252439,-0.02298598624876532,1.2253433079476588,0,0,0.735,0,76
99,686428.344,65.24600000004284,0.0015668796300888062,0.21984487915039064,0,0.0057246799465414016,-0.025918139392115794,1.2266523048866547,0,0,0.745,0,76
100,686493.438,65.09399999992456,0.005216209888458252,0.2286060028076172,0,0.005864306286700947,-0.027157323161031765,1.2288688730366877,0,0,0.761,0,76
101,686558.624,65.18599999998696,0.02936174201965332,0.23280799865722657,0,0.006352998477259359,-0.021886428820008894,1.2319755591052373,0,0,0.761,0,76
102,686623.962,65.33800000010524,0.036094615936279294,0.24616656494140626,0,-0.006387905062299246,-0.019146261894377795,1.2330925698265136,0,0,0.768,0,76
103,686689.147,65.18499999993946,0.047524139404296874,0.257663330078125,0,-0.0226543736908864,-0.015865042900628457,1.2322373584930366,0,0,0.776,0,76
104,686754.15,65.00300000002608,0.052223331451416014,0.24088212585449217,0,-0.036791540632040466,-0.011711159280881954,1.231818479472558,0,0,0.783,0,76
105,686819.458,65.30799999996088,0.05214229202270508,0.2407124938964844,0,-0.05031784233499652,-0.008482300164692442,1.2303873094859223,0,0,0.801,0,76
106,686884.49,65.03200000000652,0.049375396728515625,0.23053013610839843,0,-0.06021385919380437,-0.0037699111843077517,1.2300033370504837,0,0,0.797,1,76
107,686949.645,65.15500000002794,0.021700222015380858,0.19609349060058595,0,-0.05836381018669038,0.005916666164260778,1.2291306724244866,0,0,0.806,0,76
108,687014.801,65.15599999995902,0.022399139404296876,0.1829007568359375,0,-0.05691518690753509,0.009040805525330627,1.226879197689414,0,0,0.825,0,76
109,687080.2,65.39899999997579,0.016643844604492187,0.15525872802734375,0,-0.05799729104377156,-0.0015184364492350666,1.2288339664516477,0,0,0.795,0,76
110,687145.507,65.3070000000298,0.003569108009338379,0.12891886901855468,0,-0.056793013859895485,-0.009948376736367677,1.22804856828825,0,0,0.804,0,76
111,687210.54,65.03300000005402,-0.012921245574951171,0.08458897399902343,0,-0.03209660494417572,-0.015934856070708228,1.2272631701248524,0,0,0.801,0,76
112,687275.634,65.09399999992456,-0.008216246604919434,0.023086196899414064,0,-0.003089232776029963,-0.015812683023068628,1.2263905054988553,0,0,0.845,0,76
113,687340.942,65.3080000000773,0.029331626892089843,-0.012820069313049316,0,0.01546361717266976,-0.0038048177693476384,1.2228125805322672,0,0,0.831,0,76
114,687405.975,65.0329999999376,0.081427734375,-0.014490856170654296,0,0.008970992355250854,0.00731292956585624,1.219147389103079,0,0,0.84,0,76
115,687471.191,65.2160000000149,0.07071112060546875,-0.01537303352355957,0,-0.0016929693744344998,0.018133970928221083,1.2181350981369223,0,0,0.891,1,76
116,687536.346,65.15500000002794,0.05913200378417969,-0.014707038879394532,0,-0.013962634015954637,0.02506292805863857,1.220124773484196,0,0,0.898,0,76
117,687601.531,65.18499999993946,0.037182357788085936,0.0975939712524414,0,-0.020804324683772406,0.029304078140984794,1.2195139082459978,0,0,0.945,0,76
118,687667.083,65.55200000002515,0.0012513599395751953,0.12547911071777343,0,-0.029932396671702756,0.027244589623631483,1.2202469465318355,0,0,0.983,0,76
119,687731.964,64.88100000005215,-0.012218449592590332,0.10997383117675781,0,-0.04290019301402062,0.021956241990088665,1.2200026004365563,0,0,1,0,76
120,687797.149,65.18499999993946,-0.03786300659179687,0.11724565124511718,0,-0.051557026103912496,0.022689280275926284,1.2215908500558712,0,0,1.03,0,76
121,687862.426,65.27700000000186,-0.06664320373535157,0.08055023956298828,0,-0.05836381018669038,0.023806290997202655,1.2227253140696674,0,0,1.066,0,76
122,687927.429,65.00300000002608,-0.08912751007080078,0.05682099914550781,0,-0.06803293424273897,0.019093902016817967,1.2260414396484567,0,0,1.087,1,76
123,687992.675,65.24600000004284,-0.10629734802246094,0.028514245986938476,0,-0.07483971832551685,0.011588986233242348,1.2288339664516477,0,0,1.117,1,76
124,688057.739,65.06399999989662,-0.14714295959472656,-0.003747119903564453,0,-0.060789817846962496,-0.004066617157146788,1.2301953232682032,0,0,1.134,1,76
125,688122.955,65.2160000000149,-0.15245574951171875,-0.03760424041748047,0,-0.020490165418413427,-0.03682644721708035,1.2353265912690665,0,0,1.128,1,76
126,688188.201,65.24600000004284,-0.15611993408203126,-0.06968242645263673,0,0.031799898971336685,-0.0687310659435367,1.2367752145482218,0,0,1.154,1,76
127,688253.295,65.09400000004098,-0.1274176559448242,-0.05603665542602539,0,0.08604473212332044,-0.09018116245054701,1.237630425881699,0,0,1.157,0,76
128,688318.45,65.15499999991152,-0.09637812042236328,-0.05529293060302734,0,0.1280722605113439,-0.10039133857471383,1.2381714779498172,0,0,1.153,0,76
129,688383.758,65.3080000000773,-0.01974200630187988,0.007753469467163086,0,0.14177309513949937,-0.10543534011297745,1.240091340127011,0,0,1.159,0,76
130,688448.76,65.00199999997858,0.1090843505859375,0.09939846801757812,0,0.13196434474329125,-0.10232865404442754,1.2435296387534398,0,0,1.175,0,76
131,688513.916,65.15599999995902,0.18134829711914063,0.16279660034179688,0,0.12072442436044778,-0.08440412262644578,1.247823148713346,0,0,1.187,0,76
132,688579.132,65.2160000000149,0.24277659606933594,0.22582879638671874,0,0.10550515328305722,-0.0676489618073002,1.2534082023197277,0,0,1.195,0,76
133,688644.317,65.18500000005588,0.31155487060546877,0.32390087890625,0,0.08307767239493008,-0.05574581630869888,1.2564625285107178,0,0,1.205,0,76
134,688709.564,65.24699999997392,0.3585594482421875,0.3834324645996094,0,0.06054547175168328,-0.04277801996638102,1.2592725086064287,0,0,1.233,1,76
135,688774.627,65.06299999996554,0.39605691528320314,0.43508837890625,0,0.03769911184307752,-0.02809980095710871,1.2608956648107834,0,0,1.237,1,76
136,688839.752,65.125,0.4134408569335937,0.4534764709472656,0,0.014102260356114183,-0.002234021442552742,1.2604244259127448,0,0,1.262,2,76
137,688905.09,65.33799999998882,0.3984628601074219,0.42562890625,0,-0.02033308578573394,0.027628562059070234,1.260686225300544,0,0,1.289,2,76
138,688970.184,65.09400000004098,0.35675576782226565,0.42068331909179685,0,-0.04768239516448509,0.04246386070102204,1.2596913876269071,0,0,1.298,1,76
139,689035.339,65.15500000002794,0.2727248840332031,0.4177013244628906,0,-0.05510004448546098,0.038501963298994905,1.257980964959953,0,0,1.317,1,76
140,689100.433,65.09399999992456,0.2580821533203125,0.3977667236328125,0,-0.05031784233499652,0.02501056818107874,1.2583823906879115,0,0,1.329,1,76
141,689165.649,65.2160000000149,0.21107501220703126,0.3667147521972656,0,-0.04122467693210607,0.011606439525762293,1.2580333248375126,0,0,1.34,1,76
142,689230.987,65.33799999998882,0.16571443176269532,0.31992181396484376,0,-0.034801865284766934,0.0032812189937493396,1.2562007291229185,0,0,1.354,1,76
143,689295.989,65.00199999997858,0.19860563659667968,0.27433123779296875,0,-0.03368485456349056,-0.006789330790257941,1.2551011716941625,0,0,1.354,1,76
144,689361.145,65.15600000007544,0.19452256774902343,0.2314659423828125,0,-0.03740240587023848,-0.01684242728174528,1.253984160972886,0,0,1.383,1,76
145,689426.635,65.48999999999069,0.20060723876953124,0.18886056518554686,0,-0.04141666314982544,-0.025446900494077326,1.2540016142654058,0,0,1.37,1,76
146,689491.455,64.81999999994878,0.20614244079589844,0.15383921813964843,0,-0.043319072034499265,-0.03115412714809878,1.2547171992587234,0,0,1.368,1,76
147,689556.793,65.33799999998882,0.2021526641845703,0.09049906158447266,0,-0.03860668305411457,-0.02981022362406315,1.2541412406055652,0,0,1.375,1,76
148,689621.978,65.18500000005588,0.19965447998046876,0.05154262161254883,0,-0.03363249468593073,-0.029932396671702756,1.2543681334083248,0,0,1.366,1,76
149,689687.103,65.125,0.2086946258544922,0.01962712860107422,0,-0.024504422698000388,-0.029548424236264,1.2543681334083248,0,0,1.37,1,76
150,689752.38,65.27700000000186,0.22553358459472655,-0.0037578122615814207,0,-0.015166911199830723,-0.027611108766550294,1.2549615453540026,0,0,1.382,1,76
151,689817.474,65.09400000004098,0.26280645751953124,-0.024377927780151368,0,-0.007435102613495844,-0.02453932928304027,1.254804465721323,0,0,1.374,1,76
152,689882.629,65.15499999991152,0.2510773468017578,-0.0447971305847168,0,0.004904375198104066,-0.015533430342749534,1.2547695591362833,0,0,1.38,1,76
153,689947.937,65.3080000000773,0.26327890014648436,-0.04995040893554688,0,0.01726130630222392,-0.01096066770252439,1.2550139052315623,0,0,1.382,1,76
154,690012.939,65.00199999997858,0.2541151123046875,-0.03658065032958984,0,0.027680921936630066,-0.010053096491487336,1.2553978776670014,0,0,1.378,1,76
155,690078.216,65.27700000000186,0.2673533020019531,-0.02788736343383789,0,0.03422590663160881,-0.0119729586686811,1.2558516632725198,0,0,1.398,1,76
156,690143.371,65.15500000002794,0.2767264404296875,-0.034809383392333984,0,0.04143411644234539,-0.00481710873550435,1.2567417811910369,0,0,1.386,1,76
157,690208.557,65.18599999998696,0.24821626281738282,-0.0404713249206543,0,0.044889868361294154,0.0019896753472735357,1.2572130200890754,0,0,1.388,1,76
158,690273.834,65.27700000000186,0.25727865600585936,-0.022617921829223633,0,0.0478918346747244,0.01054178868204575,1.2568814075311965,0,0,1.398,1,76
159,690338.806,64.97199999995064,0.20827949523925782,0.008704946517944337,0,0.05133013330115323,0.017715091907742442,1.2578064320347533,0,0,1.404,1,76
160,690404.052,65.24600000004284,0.21507725524902344,0.051652191162109375,0,0.05323254218582704,0.021519909677090086,1.2594470415316281,0,0,1.417,1,76
161,690469.39,65.33799999998882,0.19333827209472657,0.030402776718139648,0,0.056793013859895485,0.02933898472602468,1.2598484672595867,0,0,1.418,1,76
162,690534.484,65.09400000004098,0.17805992126464842,0.05798651123046875,0,0.05775294494849236,0.035238197597765517,1.259185242143829,0,0,1.419,1,76
163,690599.609,65.125,0.13967831420898438,0.09925152587890625,0,0.05637413483941684,0.040020399748229976,1.259516854701708,0,0,1.43,1,76
164,690664.672,65.06299999996554,0.11605290222167969,0.1286647644042969,0,0.053965580471664665,0.0408756110817072,1.259831013967067,0,0,1.43,1,76
165,690729.888,65.2160000000149,0.0776237564086914,0.15061126708984374,0,0.04834562028024293,0.03783873818323706,1.2603371594501454,0,0,1.433,1,76
166,690795.074,65.18599999998696,0.05968232727050781,0.17263987731933594,0,0.04174827570770436,0.03497639820996636,1.2596913876269071,0,0,1.437,1,76
167,690860.137,65.06299999996554,0.041510955810546875,0.19709152221679688,0,0.03705334001983962,0.03207915165165578,1.260406972620225,0,0,1.44,1,76
168,690925.292,65.15500000002794,0.01995769500732422,0.2104352569580078,0,0.030281462522101617,0.03066543495754037,1.260127719939906,0,0,1.442,1,76
169,690990.661,65.36899999994785,-0.0071460590362548825,0.21258636474609374,0,0.02129301687433082,0.025289820861397836,1.259481948116668,0,0,1.441,1,76
170,691055.603,64.94200000003912,-0.03393171310424805,0.20290837097167969,0,0.010576695267085637,0.019565140914856432,1.2581554978851524,0,0,1.446,1,76
171,691120.849,65.24600000004284,-0.012659659385681152,0.19718527221679688,0,0.009180431865490174,0.01774999849278233,1.2593248684839884,0,0,1.451,1,76
172,691186.004,65.15499999991152,-0.07768238067626954,0.169240234375,0,0.007976154681614086,0.016144295580947546,1.2599880935997463,0,0,1.454,1,76
173,691251.129,65.125,-0.07761497497558593,0.17034536743164064,0,0.006335545184739415,0.01096066770252439,1.2581904044701921,0,0,1.46,1,76
174,691316.406,65.27700000000186,-0.10001988983154297,0.17299050903320312,0,0.004921828490624009,0.004537856055185257,1.2572130200890754,0,0,1.461,1,76
175,691381.561,65.15500000002794,-0.09549923706054687,0.14269607543945312,0,0.005794493116621174,-0.0014486232791552935,1.2580333248375126,0,0,1.476,1,76
176,691446.624,65.06299999996554,-0.08721380615234375,0.13634652709960937,0,0.011222467090323538,-0.0038571776469074684,1.2584347505654714,0,0,1.465,1,76
177,691512.359,65.73500000010245,-0.10900853729248047,0.1342331237792969,0,0.015969762655748117,-0.008080874436733746,1.2567941410685968,0,0,1.471,1,76
178,691576.965,64.60599999991246,-0.08917932891845703,0.1223812255859375,0,0.01827359726838063,-0.01308996938995747,1.2583823906879115,0,0,1.468,1,76
179,691642.181,65.2160000000149,-0.09553768920898438,0.13516767883300781,0,0.015987215948268057,-0.019582594207376378,1.2589059894635097,0,0,1.476,1,76
180,691707.305,65.12400000006892,-0.08789618682861328,0.1391304473876953,0,0.011885692206081384,-0.027646015351590184,1.2575097260619144,0,0,1.473,1,76
181,691772.491,65.18599999998696,-0.06182111358642578,0.10829182434082031,0,0.010786134777324957,-0.03279473664497345,1.2585045637355512,0,0,1.488,1,76
182,691837.829,65.33799999998882,-0.03833420181274414,0.08826932525634766,0,0.011013027580084218,-0.03298672286269282,1.2607211318855838,0,0,1.487,1,76
183,691903.045,65.2160000000149,-0.03710738754272461,0.0733641128540039,0,0.012409290981679684,-0.0338244809036501,1.2602673462800653,0,0,1.486,1,76
184,691968.078,65.0329999999376,-0.02195436668395996,0.08121014404296875,0,0.013578661580515882,-0.036110862223762676,1.2598135606745469,0,0,1.497,1,76
185,692033.447,65.36900000006426,-0.01259855079650879,0.07089908599853516,0,0.010471975511965976,-0.039130281829712864,1.2612621839537022,0,0,1.486,1,76
186,692098.419,64.97199999995064,0.03251287078857422,0.0625808219909668,0,0.013351768777756621,-0.036198128686362394,1.2626060874777378,0,0,1.485,1,76
187,692163.818,65.39899999997579,0.04060160064697266,0.04402866363525391,0,0.015236724369910496,-0.030246555937061735,1.2626759006478177,0,0,1.491,1,76
188,692228.759,64.94099999999162,0.05374142074584961,0.04032302856445313,0,0.017296212887263806,-0.025394540616517493,1.2627457138178972,0,0,1.485,1,76
189,692294.067,65.3080000000773,0.03188822364807129,0.04264612197875976,0,0.017139133254584316,-0.023684117949563047,1.2636183784438946,0,0,1.489,1,76
190,692359.222,65.15499999991152,0.06051937866210937,0.04909600830078125,0,0.015254177662430441,-0.020786871391252463,1.2636881916139742,0,0,1.501,1,76
191,692424.316,65.09400000004098,0.08773656463623047,0.04842020034790039,0,0.010716321607245182,-0.017243853009703977,1.2668995974376438,0,0,1.485,1,76
192,692489.471,65.15500000002794,0.044230514526367185,0.027435832977294922,0,0.00661479786505851,-0.01610938899590766,1.2692208853427964,0,0,1.488,1,76
193,692554.962,65.49100000003818,0.051806407928466795,0.049117530822753906,0,0.006021385919380436,-0.04785692808968452,1.2737238348129418,0,0,1.5,1,76
194,692619.873,64.91099999996368,0.09692288208007813,0.06613202667236329,0,0.004031710572106902,-0.09272934315845871,1.2764640017385727,0,0,1.49,1,76
195,692685.119,65.24599999992643,0.15840550231933595,0.06637628173828125,0,0.0030368728984701333,-0.13325588838976704,1.279204168664204,0,0,1.481,1,76
196,692750.274,65.15500000002794,0.22434931945800782,0.038819820404052734,0,0.002513274122871834,-0.1630661120138302,1.283200972651271,0,0,1.483,1,76
197,692815.46,65.18599999998696,0.35182321166992186,-0.013511933326721192,0,0.003455751918948773,-0.17702874602978486,1.2854699006788635,0,0,1.505,1,75
198,692880.676,65.2160000000149,0.42217813110351565,-0.02905382537841797,0,0.007016223593017205,-0.1801354320983347,1.2888383861352126,0,0,1.481,1,75
199,692945.77,65.09400000004098,0.5201734619140626,-0.030345518112182616,0,0.005654866776461627,-0.18565067253463682,1.2919799787888024,0,0,1.478,1,75
200,693010.833,65.06299999996554,0.594412841796875,-0.048401329040527345,0,0.006318091892219472,-0.18867009214058703,1.2928700967073194,0,0,1.473,1,75
201,693076.202,65.36900000006426,0.700062744140625,-0.05138388061523438,0,0.00481710873550435,-0.1926145362500942,1.296046595945949,0,0,1.467,1,75
202,693141.235,65.0329999999376,0.811117919921875,-0.07118617248535156,0,0.008988445647770796,-0.19036306151502153,1.2990311089668596,0,0,1.472,1,75
203,693206.359,65.12400000006892,0.9285902099609376,-0.08633580780029297,0,0.01706932008450454,-0.1812349895270912,1.3003924657834152,0,0,1.496,1,75
204,693271.514,65.15499999991152,0.969052001953125,-0.07465336608886719,0,0.01815142422074103,-0.17566738921322927,1.3001481196881357,0,0,1.477,1,75
205,693336.761,65.24700000009034,1.0420118408203125,-0.07104756164550781,0,0.010978120995044333,-0.1734682743557164,1.2990136556743397,0,0,1.484,1,75
206,693401.916,65.15499999991152,1.1142958984375,-0.08245156860351563,0,0.0025481807079117207,-0.1683893662324129,1.3015094765046913,0,0,1.474,1,75
207,693467.132,65.2160000000149,1.2129385986328125,-0.07513409423828125,0,0.0004363323129985824,-0.1510582467601092,1.3016141962598111,0,0,1.469,1,75
208,693532.135,65.00300000002608,1.3190665283203125,-0.11460111236572265,0,-0.004886921905584123,-0.13124875974997358,1.3017887291850105,0,0,1.449,0,75
209,693597.473,65.33799999998882,1.5239527587890624,-0.14861106872558594,0,-0.013805554383275147,-0.10782644118820968,1.3011255040692526,0,0,1.48,0,75
210,693662.506,65.03300000005402,1.62954443359375,-0.19073741149902343,0,-0.015585790220309363,-0.07754497866610806,1.3014571166271316,0,0,1.521,0,75
211,693727.783,65.27700000000186,1.62551025390625,-0.23880204772949218,0,-0.006667157742618338,-0.03476695869972704,1.3028184734436872,0,0,1.536,0,75
212,693792.816,65.0329999999376,1.613489990234375,-0.270657958984375,0,0.008115781021773634,0.016004669240788003,1.3022599680830491,0,0,1.521,0,75
213,693858.001,65.18500000005588,1.5637850341796875,-0.28540878295898436,0,0.02567379329683659,0.06881833240613641,1.3037434979472442,0,0,1.608,0,75
214,693923.278,65.27700000000186,1.597732177734375,-0.26762591552734377,0,0.04084070449666731,0.11925834778877253,1.3059251595122372,0,0,1.55,0,75
215,693988.372,65.09399999992456,1.4423427734375,-0.21840011596679687,0,0.05529203070318037,0.16397368322486724,1.3070421702335135,0,0,1.558,0,75
216,694053.466,65.09400000004098,1.2869490966796875,-0.1804166259765625,0,0.06712536303170191,0.20127136933998607,1.3088922192406274,0,0,1.578,0,75
217,694118.804,65.33799999998882,1.1267708740234375,-0.13271002197265624,0,0.07087782092348972,0.2274338548273811,1.307827568396911,0,0,1.566,0,75
218,694184.02,65.2160000000149,1.0072176513671875,-0.07794627380371094,0,0.07229153761760514,0.23954643983622173,1.306902543893354,0,0,1.563,0,75
219,694249.145,65.125,0.7643544921875,-0.009225917816162109,0,0.07143632628412791,0.24258331273469183,1.3040751105051231,0,0,1.554,0,75
220,694314.361,65.2160000000149,0.5971567993164062,0.05268349075317383,0,0.06647959120846401,0.23766148424406788,1.3027312069810875,0,0,1.556,0,75
221,694379.455,65.09399999992456,0.41502621459960937,0.11890260314941406,0,0.054209926566943865,0.2286555853037771,1.3008986112664935,0,0,1.544,0,75
222,694444.763,65.3080000000773,0.25087452697753904,0.16050628662109376,0,0.03769911184307752,0.2148674842130219,1.2996245209125374,0,0,1.533,0,75
223,694509.796,65.0329999999376,0.040962718963623045,0.1487518310546875,0,0.03008947630438224,0.2030865117620602,1.2983853371436214,0,0,1.53,0,75
224,694574.951,65.15500000002794,-0.12150662994384766,0.18334271240234376,0,0.022567107228286677,0.18355627743224365,1.2984900568987412,0,0,1.516,0,75
225,694640.289,65.33799999998882,-0.2571015625,0.20894027709960938,0,0.011082840750163993,0.15187855150854657,1.2993103616471786,0,0,1.512,0,75
226,694705.291,65.00199999997858,-0.40603842163085935,0.228969970703125,0,0.0031764992386296795,0.11479030490366705,1.3002179328582157,0,0,1.513,0,75
227,694770.538,65.24699999997392,-0.4602885437011719,0.2278502655029297,0,-0.004380776422505768,0.07539822368615504,1.2997466939601772,0,0,1.523,0,75
228,694835.662,65.12400000006892,-0.51053515625,0.2139149932861328,0,-0.012863076587198208,0.036896260387160124,1.301404756749572,0,0,1.524,0,75
229,694900.848,65.18599999998696,-0.5647821655273437,0.20244961547851562,0,-0.021694442602289518,-0.0009773843811168245,1.302242514790529,0,0,1.55,0,75
230,694966.186,65.33799999998882,-0.5676558837890625,0.19424736022949218,0,-0.023561944901923447,-0.035953782591083186,1.303778404532284,0,0,1.569,0,75
231,695031.158,64.97200000006706,-0.5842294921875,0.16848260498046874,0,-0.026703537555513242,-0.07089527421600966,1.306291678655156,0,0,1.56,0,75
232,695096.374,65.21599999989849,-0.5780169677734375,0.1486394500732422,0,-0.028623399732707,-0.10274753306490617,1.3075657690091118,0,0,1.57,0,75
233,695161.682,65.3080000000773,-0.5971154174804687,0.12589227294921876,0,-0.030333822399661446,-0.12878784550466157,1.30817663424731,0,0,1.565,0,75
234,695226.776,65.09399999992456,-0.5066825866699218,0.09138388061523438,0,-0.032882003107573166,-0.15166911199830724,1.3113356801934195,0,0,1.559,0,75
235,695291.992,65.2160000000149,-0.41479177856445315,0.0445418701171875,0,-0.03652974124424131,-0.1695412835387292,1.3135522483434523,0,0,1.552,0,75
236,695357.055,65.06300000008196,-0.32056573486328127,0.007075782299041748,0,-0.03513347784264585,-0.17694147956718514,1.3125574106698155,0,0,1.545,0,75
237,695422.332,65.27700000000186,-0.240184814453125,-0.03304701232910156,0,-0.03504621138004614,-0.17823302321366094,1.3131857292005333,0,0,0,0,75
238,695487.487,65.15499999991152,-0.14998342895507813,-0.06741739654541015,0,-0.034051373706409364,-0.1746725515395925,1.3141107537040906,0,0,1.583,0,75
239,695552.49,65.00300000002608,-0.05773339462280273,-0.08294326782226563,0,-0.03275983005993356,-0.1667313034430183,1.313360262125733,0,0,1.555,0,75
240,695617.767,65.27700000000186,0.0222885856628418,-0.1345015411376953,0,-0.029897490086662867,-0.15535175672001528,1.3141631135816505,0,0,1.549,0,75
241,695683.074,65.3070000000298,0.10868717956542968,-0.18284330749511718,0,-0.024242623310201238,-0.14062117783318315,1.3131508226154938,0,0,1.568,0,75
242,695747.985,64.91099999996368,0.17166865539550782,-0.21010124206542968,0,-0.01038470904936626,-0.1183158699926956,1.3125923172548555,0,0,1.591,0,75
243,695813.354,65.36900000006426,0.19712168884277342,-0.20933815002441405,0,0.004729842272904633,-0.09365436766201572,1.3141107537040906,0,0,1.578,0,75
244,695878.631,65.27700000000186,0.23290179443359374,-0.18656590270996093,0,0.015515977050229588,-0.07082546104592989,1.3153499374730064,0,0,1.585,0,74
245,695943.572,64.94099999999162,0.29667138671875,-0.20961180114746095,0,0.02518510110627818,-0.05176646561415182,1.3153499374730064,0,0,1.605,0,74
246,696009.002,65.42999999993481,0.31396868896484376,-0.18577474975585936,0,0.033649947978450674,-0.035203291012725624,1.3146518057722087,0,0,1.601,0,74
247,696073.883,64.88100000005215,0.34337277221679685,-0.1940858154296875,0,0.04063126498642799,-0.023073252711365035,1.314931058452528,0,0,1.549,0,74
248,696139.038,65.15499999991152,0.31936117553710935,-0.15837478637695312,0,0.05276130328778859,-0.004939281783143952,1.3143376465068497,0,0,1.587,0,74
249,696204.376,65.33800000010524,0.29288775634765624,-0.13541998291015625,0,0.06468190207890985,0.01916371518689774,1.3176014122080792,0,0,1.567,0,74
250,696269.378,65.00199999997858,0.24838702392578124,-0.08903919982910156,0,0.07763224512870778,0.032882003107573166,1.3195910875553527,0,0,1.534,0,74
251,696334.594,65.2160000000149,0.18946615600585937,-0.03963285446166992,0,0.10304423903774522,0.04057890510886816,1.321912375460505,0,0,1.524,0,74
252,696399.749,65.15499999991152,0.156400390625,0.024643674850463867,0,0.1291194580625405,0.04705407663376713,1.3237275178825791,0,0,1.523,0,74
253,696464.935,65.18600000010338,0.12702177429199218,0.13263821411132812,0,0.1461364182694852,0.049864056729478,1.3245129160459768,0,0,1.555,0,74
254,696530.212,65.27700000000186,0.10630096435546875,0.22979747009277343,0,0.15742869852988853,0.05335471523346665,1.3261535255428514,0,0,1.536,0,74
255,696595.489,65.27699999988545,0.06994998931884766,0.3186346130371094,0,0.1633453646941493,0.06150540284028017,1.3304121289177178,0,0,1.522,0,74
256,696660.675,65.18600000010338,0.04041310119628906,0.4420606689453125,0,0.15735888535980874,0.06311110575211495,1.3322796312173515,0,0,1.527,0,74
257,696725.86,65.18499999993946,-0.00012775754928588868,0.5564816284179688,0,0.14177309513949937,0.056356681546896895,1.33275087011539,0,0,1.544,0,74
258,696790.893,65.03300000005402,-0.015311662673950194,0.6203255004882813,0,0.1160993018426628,0.049270644783799916,1.3327159635303498,0,0,1.531,0,74
259,696856.14,65.24699999997392,-0.026790462493896484,0.6943182373046874,0,0.0838107106807677,0.04253367387110181,1.334810358632743,0,0,1.578,0,73
260,696921.234,65.09400000004098,-0.05505438232421875,0.7229644165039063,0,0.04838052686528282,0.03593632929856325,1.337707605191054,0,0,1.533,0,73
261,696986.419,65.18499999993946,-0.08873815155029297,0.750424072265625,0,0.017121679962064373,0.030438542154781107,1.3411459038174827,0,0,1.516,0,73
262,697051.727,65.30799999996088,-0.13583847045898437,0.8465115966796875,0,-0.01530653753999027,0.021956241990088665,1.3455964934100682,0,0,1.519,0,73
263,697116.821,65.09400000004098,-0.11536758422851562,0.899968994140625,0,-0.04310963252425994,0.008412486994612669,1.3506754015333717,0,0,1.519,0,73
264,697181.915,65.09400000004098,-0.13547926330566407,0.8410931396484375,0,-0.0744208393050382,-0.005934119456780722,1.3545849390578388,0,0,1.528,0,73
265,697247.375,65.45999999996275,-0.18145585632324218,0.8439635620117187,0,-0.10875146569176666,-0.021659536017249632,1.3581628640244272,0,0,1.521,0,73
266,697312.408,65.03300000005402,-0.21626779174804686,0.73510595703125,0,-0.14095279039106207,-0.03642502148912166,1.3624738272768533,0,0,0.935,0,73
267,697377.502,65.09399999992456,-0.23419204711914063,0.533552734375,0,-0.16030849179567916,-0.045727626402251434,1.366331004923761,0,0,0.919,0,73
268,697442.657,65.15500000002794,-0.25006005859375,0.4030970458984375,0,-0.17749998492782332,-0.054489179247262966,1.3703278089108277,0,0,1.558,0,73
269,697507.843,65.18599999998696,-0.21395359802246094,0.2958851318359375,0,-0.1824218134184473,-0.06351253148007364,1.3734170416868579,0,0,0.918,0,73
270,697573.15,65.3070000000298,-0.17554135131835938,0.11965646362304687,0,-0.18165386854756982,-0.07332128187628177,1.3763666481227281,0,0,1.608,0,73
271,697638.214,65.06400000001304,-0.13848045349121094,-0.04139181137084961,0,-0.16809266025957387,-0.07351326809400116,1.3775185654290445,0,0,0.909,0,73
272,697703.369,65.15499999991152,-0.06145879364013672,-0.1332322998046875,0,-0.14700908289548237,-0.07312929565856242,1.3784784965176413,0,0,0.911,0,73
273,697768.646,65.27700000000186,-0.03540667343139649,-0.24551852416992187,0,-0.12157963569392499,-0.07157595262428745,1.3806077982050744,0,0,0.932,0,73
274,697833.648,65.002000000095,0.002465449571609497,-0.3337098083496094,0,-0.09290387608365817,-0.06466444878638991,1.38200406160667,0,0,0.957,0,73
275,697898.925,65.27700000000186,0.023631961822509765,-0.38289852905273436,0,-0.06230825429619756,-0.056635934227215995,1.382265860994469,0,0,1.555,0,73
276,697964.019,65.09399999992456,0.009107423782348632,-0.5760105590820312,0,-0.031031954100459176,-0.04406956361285682,1.3810092239330332,0,0,1.55,0,73
277,698029.205,65.18599999998696,0.05036734390258789,-0.6211398315429687,0,0.0037699111843077517,-0.025778513051956248,1.3799620263818366,0,0,1.027,0,73
278,698094.421,65.2160000000149,0.057969268798828126,-0.6391648559570312,0,0.03956661414271145,-0.010838494654884786,1.3817597155113905,0,0,1.58,0,73
279,698159.515,65.09400000004098,0.05057271575927735,-0.5673978881835937,0,0.07115707360380881,-0.004939281783143952,1.3817946220964308,0,0,1.621,0,73
280,698224.639,65.1239999999525,0.04464997100830078,-0.4609787902832031,0,0.10316641208538481,-0.004642575810304917,1.3812884766133522,0,0,1.607,0,73
281,698289.947,65.3080000000773,0.050349559783935544,-0.3717242736816406,0,0.12824679343654333,-0.007504915783575617,1.380415811987355,0,0,1.621,0,73
282,698354.949,65.00199999997858,0.035861255645751954,-0.286871826171875,0,0.14304718549345524,-0.011117747335203878,1.378583216272761,0,0,1.695,0,73
283,698420.196,65.24699999997392,0.059332050323486325,-0.17873873901367188,0,0.1515120323656277,-0.01298524963483781,1.3776407384766842,0,0,1.675,0,73
284,698485.29,65.09400000004098,0.06944377899169922,-0.08068144989013672,0,0.15789993742792702,-0.006719517620178169,1.3792813479735588,0,0,1.7,0,73
285,698550.476,65.18599999998696,0.08800577545166016,-0.008214471817016601,0,0.15130259285538844,-0.0029845130209103033,1.378618122857801,0,0,1.688,0,73
286,698615.753,65.27700000000186,0.12155113983154296,0.09926793670654296,0,0.13655456067603633,-0.0009948376736367678,1.3782166971298422,0,0,1.725,0,73
287,698680.786,65.0329999999376,0.11934768676757812,0.17512107849121095,0,0.1173908454891386,0.0043982297150257105,1.377972351034563,0,0,1.722,0,73
288,698746.063,65.27700000000186,0.13138545227050782,0.25664093017578127,0,0.09534733703645022,0.009459684545809265,1.3784086833475617,0,0,1.788,0,73
289,698811.34,65.27700000000186,0.11094002532958984,0.34212020874023436,0,0.0693768377667746,0.01307251609743753,1.3763491948302082,0,0,1.849,0,73
290,698876.281,64.94099999999162,0.08927525329589844,0.3571673889160156,0,0.04122467693210607,0.015393804002589986,1.3758954092246898,0,0,1.769,0,73
291,698941.741,65.46000000007916,0.08005329132080079,0.37552633666992186,0,0.01752310569002307,0.02001892652037496,1.3769251534833664,0,0,1.742,0,73
292,699006.622,64.88099999993574,0.06592432403564454,0.35708908081054686,0,-0.0060911990894602095,0.021973695282608605,1.3766109942180074,0,0,1.741,0,73
293,699071.96,65.33799999998882,0.04432997131347656,0.3589051513671875,0,-0.024888395133439135,0.020263272615654165,1.376157208612489,0,0,1.711,0,73
294,699137.207,65.24700000009034,0.029424819946289062,0.3296781005859375,0,-0.0393048147549123,0.0166504410640259,1.3774312989664448,0,0,1.163,0,73
295,699202.301,65.09399999992456,-0.025792423248291015,0.3089399719238281,0,-0.048328166987722986,0.007958701389094143,1.3814979161235916,0,0,1.71,0,73
296,699267.425,65.12400000006892,-0.02739076042175293,0.26766455078125,0,-0.05077162794051505,0.014259339988793671,1.385739066205938,0,0,1.737,0,73
297,699332.763,65.33799999998882,-0.023565147399902345,0.19624310302734374,0,-0.053529248158666096,0.04698426346368735,1.3890028319071672,0,0,1.09,0,73
298,699397.766,65.00299999990966,-0.06096146011352539,0.10433789825439453,0,-0.05782275811857214,0.09349728802933623,1.3905212683564026,0,0,1.065,0,73
299,699463.012,65.24600000004284,-0.13943891906738282,0.007654250144958496,0,-0.06480407512654945,0.1300793891511374,1.3928425562615547,0,0,1.051,0,73
300,699528.106,65.09400000004098,-0.24380909729003905,0.0051952476501464845,0,-0.06564183316750674,0.1571319925570495,1.3968742668336616,0,0,1.031,0,73
301,699593.353,65.24699999997392,-0.3597665100097656,-0.004167240619659424,0,-0.06129596333004085,0.17125170620568358,1.4012550432561675,0,0,1.038,0,73
302,699658.63,65.27700000000186,-0.454037841796875,-0.016039205551147462,0,-0.052324970974790004,0.17622589457386745,1.404082476644398,0,0,1.106,0,73
303,699723.724,65.09400000004098,-0.5595930786132812,-0.01646860694885254,0,-0.03476695869972704,0.18254398646608694,1.4087425057472232,0,0,1.124,0,73
304,699788.726,65.00199999997858,-0.67833837890625,-0.027139116287231445,0,-0.02267182698340634,0.18476055461611973,1.4125298702240507,0,0,1.079,0,73
305,699854.522,65.79599999997299,-0.7158259887695313,-0.022780292510986327,0,-0.013805554383275147,0.1817236817176496,1.4154969299524411,0,0,1.128,0,73
306,699919.128,64.60600000002887,-0.7838438110351562,-0.007935921669006347,0,-0.006719517620178169,0.1743409389817136,1.4190574016265094,0,0,1.152,0,73
307,699984.375,65.24699999997392,-0.8596187744140625,-0.011196914672851563,0,-0.003333578871309169,0.163746790422108,1.421378689531662,0,0,1.686,0,73
308,700049.53,65.15500000002794,-0.9525513305664063,0.01630190658569336,0,-0.003420845333908886,0.15575318244797395,1.4241014031647732,0,0,1.21,0,73
309,700114.685,65.15500000002794,-1.078664794921875,0.04030537796020508,0,-0.0064228116473391324,0.15180873833846678,1.4260038120494467,0,0,1.699,0,73
310,700179.992,65.30699999991339,-1.1087484130859375,0.022419475555419923,0,-0.009651670763528642,0.1454557398612074,1.429703910063675,0,0,1.623,0,73
311,700244.995,65.00300000002608,-1.03420849609375,0.0007457571029663085,0,-0.010000736613927507,0.12922417781766016,1.4335785410031023,0,0,1.614,0,73
312,700310.15,65.15500000002794,-1.0667271728515626,-0.01821282386779785,0,-0.010821041362364843,0.10442304914682073,1.43734845218741,0,0,1.614,0,73
313,700375.488,65.33799999998882,-1.3273953857421874,-0.04746553421020508,0,-0.01556833692778942,0.07421139979479888,1.440158432283121,0,0,1.606,0,73
314,700440.399,64.91099999996368,-1.6345985107421874,-0.019941104888916015,0,-0.015114551322270893,0.047560222116845484,1.4421132010453546,0,0,1.598,0,73
315,700505.859,65.46000000007916,-1.7290556640625,0.006148458957672119,0,-0.01282817000215832,0.011850785621041499,1.4458132990595824,0,0,1.588,0,73
316,700570.861,65.00199999997858,-1.764550537109375,0.018490478515625,0,-0.005934119456780722,-0.03907792195215303,1.4468604966107794,0,0,1.577,0,73
317,700636.016,65.15499999991152,-1.6959588623046875,0.024717281341552735,0,0.000890117918517108,-0.100338978697154,1.4471048427060584,0,0,1.568,0,73
318,700701.263,65.24700000009034,-1.4729771728515626,0.005062953472137451,0,0.005864306286700947,-0.15816173681572612,1.4473491888013377,0,0,1.583,0,73
319,700766.326,65.06299999996554,-1.30704150390625,-0.033618026733398435,0,0.00874409955249159,-0.20444786857861577,1.4463194445426608,0,0,1.578,0,73
320,700831.451,65.125,-1.160843994140625,-0.06762906646728516,0,0.012391837689159739,-0.2341708257400792,1.4466685103930599,0,0,1.595,0,73
321,700896.759,65.30799999996088,-1.0230044555664062,-0.07560269165039063,0,0.017104226669544427,-0.24911084413715065,1.4467383235631395,0,0,1.597,0,73
322,700961.853,65.09400000004098,-0.8439638061523438,-0.07372006988525391,0,0.019303341527057285,-0.2566681197982861,1.4459180188147025,0,0,1.575,0,73
323,701027.069,65.2160000000149,-0.6551095581054688,-0.09865864562988282,0,0.02075196480621258,-0.2539977660427348,1.4452722469914645,0,0,1.585,1,73
324,701092.132,65.06299999996554,-0.4896172790527344,-0.09444694519042969,0,0.02357939819444339,-0.24743532805523608,1.4459878319847823,0,0,1.59,1,73
325,701157.44,65.30799999996088,-0.3216730651855469,-0.08366654968261719,0,0.04110250388446646,-0.23588124840703364,1.4457434858895026,0,0,1.59,0,73
326,701222.625,65.18500000005588,-0.15461489868164063,-0.05419634628295898,0,0.0734085483388815,-0.21767746430873278,1.4465114307603804,0,0,1.587,0,73
327,701287.689,65.06400000001304,-0.0027485125064849853,-0.04149720001220703,0,0.10225884087434776,-0.1951103570804461,1.4473142822162977,0,0,1.589,0,73
328,701352.966,65.27700000000186,0.14010507202148437,0.012274255752563476,0,0.11601203538006308,-0.1743060323966737,1.4477331612367765,0,0,1.588,0,73
329,701418.304,65.33799999998882,0.29082589721679686,0.07127175903320312,0,0.11370820076743057,-0.15037756835183144,1.4489025318356126,0,0,1.592,0,73
330,701483.306,65.00199999997858,0.44516146850585936,0.13290925598144532,0,0.10316641208538481,-0.11969468010177112,1.450595501210047,0,0,1.599,0,73
331,701548.553,65.24699999997392,0.5759418334960937,0.17571209716796876,0,0.08820894039579341,-0.0847706417693646,1.4516077921762038,0,0,1.614,0,73
332,701613.586,65.03300000005402,0.6354976806640625,0.21237461853027345,0,0.07098254067860939,-0.0454309204294124,1.4520266711966823,0,0,1.629,0,73
333,701678.802,65.2160000000149,0.6626192626953125,0.24411978149414063,0,0.05230751768227005,-0.003926990816987242,1.4511889131557252,0,0,1.238,0,73
334,701744.049,65.24699999997392,0.7122642822265625,0.2869427795410156,0,0.03490658503988659,0.03700098014227979,1.4505256880399673,0,0,1.639,0,73
335,701809.234,65.18500000005588,0.6994622192382812,0.28841552734375,0,0.02012364627549462,0.0722391777400453,1.4497402898765697,0,0,1.642,0,73
336,701874.298,65.06399999989662,0.6726484375,0.303332275390625,0,0.010838494654884786,0.10679669692953302,1.4480996803796953,0,0,1.617,0,73
337,701939.758,65.46000000007916,0.6235825805664063,0.318338134765625,0,-0.0016406094968746698,0.13461724520632265,1.44665105710054,0,0,1.244,0,73
338,702004.699,64.94099999999162,0.575660400390625,0.31780935668945315,0,-0.012880529879718152,0.15325736161762207,1.445080260773745,0,0,1.6,0,73
339,702069.946,65.24699999997392,0.4962599792480469,0.35313525390625,0,-0.02118829711921116,0.16500342748354394,1.442636799820953,0,0,1.126,0,73
340,702134.979,65.03300000005402,0.4007127685546875,0.33943145751953124,0,-0.028850292535466268,0.1696809098788887,1.442409907018194,0,0,1.055,0,73
341,702200.225,65.24599999992643,0.28502249145507813,0.37079803466796873,0,-0.038397243543875255,0.17018705536196704,1.4420433878752752,0,0,0.993,0,73
342,702265.563,65.33799999998882,0.1536059265136719,0.3719832763671875,0,-0.04392993727269727,0.1716182253486024,1.4410660034941578,0,0,0.972,0,73
343,702330.627,65.06400000001304,0.03880943298339844,0.22947781372070314,0,-0.051015974035794255,0.16549211967410232,1.4412754430043972,0,0,0.971,0,73
344,702395.69,65.06299999996554,-0.08695463562011718,0.18972625732421874,0,-0.056967546785094914,0.15107570005262919,1.4409612837390386,0,0,0.981,0,73
345,702461.151,65.46100000001024,-0.15917385864257813,0.16709568786621093,0,-0.058328903601650495,0.1325053968114095,1.441973574705195,0,0,0.989,0,73
346,702526.092,64.94099999999162,-0.26996820068359373,0.12350922393798829,0,-0.05630432166933707,0.11114256676699892,1.442846239331192,0,0,1.037,0,73
347,702591.308,65.2160000000149,-0.31366781616210937,0.09178254699707031,0,-0.05543165704333991,0.08785987454539454,1.4433523848142704,0,0,0.97,0,73
348,702656.372,65.06400000001304,-0.3552897033691406,0.07474105834960937,0,-0.053546701451186035,0.06728244266438141,1.4442948626103473,0,0,0.954,0,73
349,702721.557,65.18500000005588,-0.35545681762695314,0.011039070129394531,0,-0.04984660343695805,0.04293509959906051,1.4455340463792632,0,0,0.928,0,73
350,702786.804,65.24699999997392,-0.2971134948730469,-0.0060074224472045894,0,-0.04445353604829557,0.01462585913171248,1.4458482056446222,0,0,0.898,0,73
351,702851.959,65.15500000002794,-0.2926108703613281,-0.03398472213745117,0,-0.03340560188317147,-0.006073745796940267,1.4467383235631395,0,0,0.905,0,73
352,702917.053,65.09399999992456,-0.27146990966796875,-0.06369914627075195,0,-0.025446900494077326,-0.02675589743307307,1.4480298672096155,0,0,1.545,1,73
353,702982.391,65.33799999998882,-0.35224639892578125,-0.10696540832519531,0,-0.017435839227423353,-0.04382521751757762,1.4487105456178933,0,0,0.867,1,73
354,703047.454,65.06300000008196,-0.32359884643554687,-0.16768588256835937,0,-0.007330382858376183,-0.058800142499688964,1.4464241642977804,0,0,1.522,1,73
355,703112.701,65.24699999997392,-0.2856192626953125,-0.13049102783203126,0,0.004328416544945937,-0.07942993425826193,1.4458307523521026,0,0,0.865,1,73
356,703177.703,65.00199999997858,-0.19925393676757813,-0.12041291809082032,0,0.023823744289722597,-0.09679596031560551,1.4466859636855796,0,0,1.031,1,73
357,703242.98,65.27700000000186,-0.10751476287841796,-0.08046743774414063,0,0.04122467693210607,-0.11021754226344191,1.4474015486788974,0,0,1.049,1,73
358,703308.258,65.27800000004936,-0.0015245857238769531,-0.05406536102294922,0,0.048624872960562025,-0.11993902619705032,1.4466859636855796,0,0,1.521,1,73
359,703373.229,64.97100000001956,0.0934701156616211,-0.05758186721801758,0,0.05082398781807487,-0.12329005836087945,1.4480647737946555,0,0,0.912,1,73
360,703438.415,65.18599999998696,0.11223491668701172,-0.019220237731933595,0,0.05152211951887261,-0.11922344120373267,1.4506478610876068,0,0,0.933,1,73
361,703503.753,65.33799999998882,0.1569780731201172,-0.01742784118652344,0,0.05077162794051505,-0.10978120995044333,1.4509620203529658,0,0,0.944,1,73
362,703568.756,65.00300000002608,0.20076565551757813,0.0047729058265686035,0,0.04738568919164604,-0.09669124056048586,1.4506478610876068,0,0,0.935,1,73
363,703634.094,65.33799999998882,0.25591775512695314,0.02289322280883789,0,0.040858157789187256,-0.08375835080320788,1.4519219514415627,0,0,0.956,1,73
364,703699.279,65.18499999993946,0.29427264404296877,0.02307912826538086,0,0.04063126498642799,-0.06539748707222752,1.4529516957002395,0,0,0.973,1,73
365,703764.282,65.00300000002608,0.3036350708007812,0.032681449890136716,0,0.04352851154473858,-0.044052110320336874,1.4548017447073534,0,0,1.188,1,73
366,703829.65,65.36800000001676,0.3770816650390625,0.05961482238769531,0,0.038501963298994905,-0.029513517651224112,1.4581527768711826,0,0,1.136,1,73
367,703894.744,65.09399999992456,0.3759317626953125,0.07604109954833985,0,0.03298672286269282,-0.011641346110802179,1.4587985486944206,0,0,1.178,1,72
368,703959.869,65.125,0.43779940795898437,0.07174725341796875,0,0.03228859116189509,0.0059690260418206065,1.459863199538137,0,0,1.226,1,72
369,704025.238,65.36900000006426,0.4741448669433594,0.07731622314453125,0,0.03429571980168858,0.02389355745980237,1.4601948120960158,0,0,1.235,1,72
370,704090.24,65.00199999997858,0.5234701538085937,0.09892362213134766,0,0.030962140930379405,0.038397243543875255,1.4605613312389345,0,0,1.037,1,72
371,704155.517,65.27700000000186,0.5129397583007812,0.11869157409667969,0,0.02295107966372543,0.04831071369520304,1.4595490402727782,0,0,1.625,1,72
372,704220.581,65.06400000001304,0.5151146240234376,0.12734793853759765,0,0.018046704465621368,0.06031857894892403,1.4567739667621071,0,0,1.129,0,72
373,704285.766,65.18499999993946,0.4854977416992188,0.13793919372558594,0,0.00952949771588904,0.07222172444752535,1.4534229345982779,0,0,1.078,0,72
374,704351.257,65.49100000003818,0.4697332763671875,0.12718231201171876,0,-0.0018675022996339327,0.085259333959923,1.4494959437812907,0,0,1.047,0,72
375,704416.137,64.88000000000466,0.4256202392578125,0.11078794860839844,0,-0.012636183784438945,0.09834930334988046,1.4473666420938573,0,0,1.577,0,72
376,704481.262,65.125,0.4687536926269531,0.12021095275878907,0,-0.02419026343264141,0.10747737533781082,1.4453595134540642,0,0,1.581,0,72
377,704546.63,65.36800000001676,0.3812384948730469,0.10406729125976563,0,-0.03630284844148206,0.11177088529771685,1.4431953051815911,0,0,1.559,0,72
378,704611.572,64.94200000003912,0.25963980102539064,0.07069404602050781,0,-0.04045673206122856,0.1175479251218181,1.4407518442287992,0,0,1.568,0,72
379,704677.062,65.48999999999069,0.07793954467773437,0.031602067947387694,0,-0.03680899392456041,0.1259778654089507,1.4397570065551624,0,0,1.569,0,72
380,704741.973,64.91099999996368,-0.07721321868896484,0.013424654006958008,0,-0.03300417615521277,0.12808971380386386,1.440210792160681,0,0,1.576,0,72
381,704807.189,65.2160000000149,-0.23000425720214843,0.001267615556716919,0,-0.029042278753185644,0.12353440445615865,1.4410485502016381,0,0,1.583,0,72
382,704872.406,65.21699999994598,-0.4017372741699219,-0.002774734020233154,0,-0.02809980095710871,0.10894345190948604,1.44047259154848,0,0,1.584,0,72
383,704937.561,65.15500000002794,-0.521514404296875,0.003588813781738281,0,-0.02495820830351891,0.08602727883080051,1.4417292286099161,0,0,1.581,0,72
384,705002.716,65.15500000002794,-0.6298128051757812,-0.018318841934204102,0,-0.014800392056911913,0.06061528492176306,1.4450279008961853,0,0,1.586,0,72
385,705067.932,65.2160000000149,-0.661909423828125,-0.023442968368530274,0,-0.004276056667386107,0.030211649352021846,1.4474539085564575,0,0,1.58,0,72
386,705132.873,64.94099999999162,-0.6094848022460938,-0.06071563720703125,0,0.0004363323129985824,-0.008342673824532893,1.4493912240261708,0,0,1.225,0,72
387,705198.211,65.33799999998882,-0.5528890991210937,-0.05619495391845703,0,0.0027401669256310974,-0.044505895925855396,1.4517997783939232,0,0,1.034,0,72
388,705263.275,65.06400000001304,-0.5190665283203125,-0.07851161956787109,0,0.0030368728984701333,-0.0748222650329969,1.4522535639994418,0,0,1.252,1,72
389,705328.521,65.24599999992643,-0.3940901184082031,-0.101045654296875,0,0.0059690260418206065,-0.09220574438286043,1.457716444558184,0,0,0.996,1,72
390,705393.768,65.24700000009034,-0.31526629638671877,-0.10887119293212891,0,-0.0029845130209103033,-0.09094910732142451,1.4646104951035614,0,0,1.004,1,72
391,705458.801,65.0329999999376,-0.20881010437011718,-0.117009033203125,0,-0.03049090203234094,-0.0811054503401765,1.4718710647918578,0,0,0.999,1,72
392,705523.956,65.15500000002794,-0.1031944122314453,-0.12435494232177734,0,-0.055326937288220246,-0.07143632628412791,1.476461280724603,0,0,1.019,1,72
393,705589.263,65.3070000000298,-0.06049369049072266,-0.14930282592773436,0,-0.07864453609486449,-0.06815510729037856,1.4822208672561845,0,0,1.041,1,72
394,705654.357,65.09399999992456,-0.04091986846923828,-0.19813565063476563,0,-0.09911724822075797,-0.06564183316750674,1.4874568550121672,0,0,1.061,0,72
395,705719.512,65.15500000002794,-0.017658300399780273,-0.2772257080078125,0,-0.1133591349170317,-0.0580496509213314,1.4916980050945137,0,0,1.079,0,72
396,705784.637,65.125,0.001263853907585144,-0.337160400390625,0,-0.1158200491623437,-0.050003683069637546,1.4964976605374978,0,0,1.083,0,72
397,705849.853,65.2160000000149,0.018529958724975586,-0.4062687072753906,0,-0.10775662801812991,-0.04262094033370153,1.501436942320642,0,0,1.08,0,72
398,705915.13,65.27700000000186,0.029160932540893556,-0.45525201416015626,0,-0.09229301084546014,-0.03897320219703338,1.5053464798451093,0,0,1.109,1,72
399,705980.224,65.09400000004098,0.02567803382873535,-0.4622245483398438,0,-0.07319910882864218,-0.035866516128483475,1.5102857616282532,0,0,1.117,1,72
400,706045.288,65.06399999989662,0.054699928283691406,-0.4857161560058594,0,-0.053651421206305686,-0.030054569719342356,1.5143872853704399,0,0,1.144,1,72
401,706110.717,65.42900000000373,0.043339710235595706,-0.48463311767578127,0,-0.03466223894460738,-0.013177235852557187,1.5170925457110311,0,0,1.723,1,72
402,706175.903,65.18600000010338,0.07062188720703125,-0.5531065673828125,0,-0.02399827721492203,0.00015707963267948963,1.5197803527591023,0,0,1.783,0,72
403,706241.058,65.15499999991152,0.11317484283447266,-0.6979883422851563,0,-0.016318828506146982,0.014346606451393388,1.5232361046780512,0,0,1.713,1,72
404,706306.213,65.15500000002794,0.08711536407470703,-0.751752197265625,0,-0.004031710572106902,0.024888395133439135,1.526255524284001,0,0,1.695,1,72
405,706371.337,65.12400000006892,0.05424079132080078,-0.724248291015625,0,0.017976891295541593,0.031956978604016174,1.5284720924340343,0,0,1.683,1,72
406,706436.584,65.24699999997392,0.040866783142089844,-0.6778707275390625,0,0.04303981935418017,0.040962877544306914,1.5301999683935084,0,0,1.669,1,72
407,706501.678,65.09399999992456,0.011915233612060547,-0.6352913208007812,0,0.07093018080104956,0.054122660104344154,1.5331495748293789,0,0,1.666,0,72
408,706566.833,65.15500000002794,-0.019583038330078125,-0.5650218505859375,0,0.09546951008408983,0.06735225583446117,1.53595955492509,0,0,1.702,0,72
409,706632.141,65.30799999996088,-0.07039426422119141,-0.5012408142089844,0,0.11191051163787641,0.07007496946757233,1.536779859673527,0,0,1.683,0,72
