n,time,dt,vx,vy,vz,roll,pitch,yaw,x,y,z,detected,battery
0,394317.26,NaN,1.0630147880874574e-7,-1.0654454672476276e-7,0,0.03029891581462156,0.08037241205433888,1.3706594214687067,0,0,0.242,0,20
1,394387.664,NaN,9.909709478961303e-8,-9.932286775438115e-8,0,0.030194196059501903,0.08032005217677905,1.370607061591147,0,0,0.242,0,20
2,394453.033,NaN,9.284627594752237e-8,-9.305722051067278e-8,0,0.030194196059501903,0.08042477193189869,1.370607061591147,0,0,0.242,0,20
3,394518.005,NaN,8.698971214471385e-8,-8.718662866158411e-8,0,0.030159289474462014,0.08051203839449843,1.370624514883667,0,0,0.242,0,20
4,394598.083,NaN,8.028436423046515e-8,-8.04664523457177e-8,0,0.030106929596902185,0.08033750546929898,1.370624514883667,0,0,0.242,0,20
5,394668.212,NaN,7.484306843252852e-8,-7.501422805944458e-8,0,0.030246555937061735,0.08026769229921922,1.3706419681761868,0,0,0.242,0,20
6,394733.581,65.36900000000605,7.012230344116688e-8,-7.028227264527232e-8,0,0.03026400922958167,0.08040731863937876,1.3706594214687067,0,0,0.242,0,20
7,394798.492,64.91100000002189,6.569904508069158e-8,-6.58487479086034e-8,0,0.03026400922958167,0.08047713180945854,1.3706594214687067,0,0,0.242,0,20
8,394863.861,65.36899999994785,6.155417941045015e-8,-6.16947581875138e-8,0,0.03029891581462156,0.08044222522441864,1.3706768747612268,0,0,0.242,0,20
9,394928.924,65.06300000002375,5.767102265963331e-8,-5.780287756351754e-8,0,0.030316369107141503,0.08044222522441864,1.3706943280537467,0,0,0.242,0,20
10,394994.018,65.09399999998277,5.403297109296545e-8,-5.4156404075911267e-8,0,0.030316369107141503,0.08047713180945854,1.3707117813462668,0,0,0.242,0,20
11,395059.265,65.24700000003213,5.062378477305174e-8,-5.074003274785355e-8,0,0.030368728984701335,0.08035495876181893,1.3707292346387867,0,0,0.242,0,20
12,395124.42,65.15499999996973,4.7429926780750976e-8,-4.753922621603124e-8,0,0.030421088862261168,0.08028514559173915,1.3707292346387867,0,0,0.242,0,20
13,395189.544,65.12400000001071,4.443745274329558e-8,-4.454008012544364e-8,0,0.030421088862261168,0.08018042583661951,1.3707292346387867,0,0,0.242,0,20
14,395254.852,65.30800000001909,4.163416087976657e-8,-4.173036722932011e-8,0,0.030438542154781107,0.08019787912913943,1.3707292346387867,0,0,0.242,0,20
15,395319.824,64.97200000000885,3.9008034946164117e-8,-3.9097954868339005e-8,0,0.030438542154781107,0.08032005217677905,1.3706943280537467,0,0,0.242,0,20
16,395385.009,65.18499999999767,3.654713145806454e-8,-3.6631441616918895e-8,0,0.030438542154781107,0.0803025988842591,1.3707117813462668,0,0,0.242,0,20
17,395450.225,65.2159999999567,3.424172246013768e-8,-3.432069570408203e-8,0,0.030473448739820993,0.08037241205433888,1.3707292346387867,0,0,0.242,0,20
18,395515.472,65.24700000003213,3.2081632525660095e-8,-3.215562173863873e-8,0,0.030473448739820993,0.08038986534685881,1.3707292346387867,0,0,0.242,0,20
19,395580.596,65.12400000001071,3.005782491527498e-8,-3.0127077479846776e-8,0,0.030473448739820993,0.08042477193189869,1.3706768747612268,0,0,0.242,0,20
20,395645.904,65.30799999996088,2.8161401132820175e-8,-2.8226451831869783e-8,0,0.03049090203234094,0.08032005217677905,1.3707117813462668,0,0,0.242,0,20
21,395710.906,65.00200000003679,2.638475052663125e-8,-2.6445599360158666e-8,0,0.030438542154781107,0.08028514559173915,1.3707117813462668,0,0,0.242,0,20
22,395776.306,65.39999999996508,2.4720138753764333e-8,-2.4777220460237004e-8,0,0.030438542154781107,0.08023278571417933,1.3707292346387867,0,0,0.242,0,20
23,395841.308,65.00200000003679,2.316082282050047e-8,-2.3214253815240227e-8,0,0.03045599544730105,0.08032005217677905,1.3707292346387867,0,0,0.242,0,20
24,395906.494,65.18599999998696,2.1699705030187034e-8,-2.174982910219114e-8,0,0.030473448739820993,0.0803025988842591,1.3707292346387867,0,0,0.242,0,20
25,395971.618,65.12400000001071,2.0330664483481086e-8,-2.0377574401209132e-8,0,0.030421088862261168,0.08023278571417933,1.3707641412238265,0,0,0.242,0,20
26,396036.834,65.2159999999567,1.9048275134991854e-8,-1.9092089132755062e-8,0,0.030403635569741218,0.08035495876181893,1.3707815945163466,0,0,0.242,0,20
27,396102.111,65.27700000000186,1.784679261618294e-8,-1.7887166904984043e-8,0,0.030124382889422128,0.08047713180945854,1.3707292346387867,0,0,0.242,0,20
28,396167.175,65.06400000001304,1.6720905477995986e-8,-1.6758680430939422e-8,0,0.03008947630438224,0.08047713180945854,1.3707292346387867,0,0,0.242,0,20
29,396232.299,65.12400000001071,1.566612445458304e-8,-1.570142194395885e-8,0,0.030054569719342356,0.08051203839449843,1.3706943280537467,0,0,0.242,0,20
30,396297.729,65.42999999999302,1.4677988474431914e-8,-1.4710862160427495e-8,0,0.030002209841782524,0.08066911802717791,1.3706943280537467,0,0,0.242,0,20
31,396362.67,64.94099999999162,1.375192186969798e-8,-1.37828646984417e-8,0,0.030054569719342356,0.08056439827205825,1.3707117813462668,0,0,0.242,0,20
32,396427.856,65.18600000004517,1.288449038838735e-8,-1.291343869525008e-8,0,0.030072023011862296,0.08068657131969786,1.3707292346387867,0,0,0.242,0,20
33,396493.011,65.15499999996973,1.2071636774635409e-8,-1.2098835213691927e-8,0,0.030124382889422128,0.08065166473465797,1.3707117813462668,0,0,0.242,0,20
34,396558.166,65.15500000002794,1.1310019544907845e-8,-1.1335566341585945e-8,0,0.030124382889422128,0.08056439827205825,1.3706943280537467,0,0,0.242,0,20
35,396623.382,65.2159999999567,1.0596615538815968e-8,-1.0620569810271264e-8,0,0.030194196059501903,0.08066911802717791,1.3707117813462668,0,0,0.242,0,20
36,396688.537,65.15500000002794,9.928196959663182e-9,-9.950374078471213e-9,0,0.030002209841782524,0.08075638448977762,1.3706594214687067,0,0,0.242,0,20
37,396753.662,65.125,9.301989848609083e-9,-9.322618097939994e-9,0,0.029914943379182806,0.08091346412245712,1.3706419681761868,0,0,0.242,0,20
38,396819.335,65.67300000000978,8.715242984180805e-9,-8.734522452868988e-9,0,0.029914943379182806,0.08101818387757678,1.3706594214687067,0,0,0.242,0,20
39,396883.972,64.63699999998789,8.165401595761068e-9,-8.183460522559471e-9,0,0.029880036794142924,0.08096582400001695,1.3706768747612268,0,0,0.242,0,20
40,396949.127,65.15499999996973,7.65024742577225e-9,-7.667034878977575e-9,0,0.029705503868943488,0.08089601082993716,1.3706768747612268,0,0,0.242,0,20
41,397014.282,65.15500000002794,7.167612693592673e-9,-7.183300567703555e-9,0,0.029635690698863713,0.08087855753741723,1.3706768747612268,0,0,0.242,0,20
42,397079.498,65.2160000000149,6.715480139973806e-9,-6.730069344484946e-9,0,0.029530970943744055,0.080948370707497,1.3706943280537467,0,0,0.242,0,20
43,397144.622,65.1239999999525,6.2918998082750475e-9,-6.305504939518869e-9,0,0.02949606435870417,0.0810705437551366,1.3706768747612268,0,0,0.242,0,20
44,397209.808,65.18600000004517,5.895031790714711e-9,-5.907771083002444e-9,0,0.029548424236264,0.0811927168027762,1.3706419681761868,0,0,0.242,0,20
45,397274.963,65.15499999996973,5.523164418264059e-9,-5.535058789973846e-9,0,0.02949606435870417,0.08124507668033604,1.3706594214687067,0,0,0.242,0,20
46,397340.393,65.42999999999302,5.17475200467743e-9,-5.185885584069183e-9,0,0.02949606435870417,0.08129743655789587,1.3706594214687067,0,0,0.242,0,20
47,397405.334,64.94099999999162,4.848333901463775e-9,-4.858719876210671e-9,0,0.02946115777366428,0.08136724972797564,1.3706419681761868,0,0,0.242,0,20
48,397470.489,65.15500000002794,4.542506758298259e-9,-4.552197879093e-9,0,0.029408797896104455,0.08145451619057535,1.370624514883667,0,0,0.242,0,20
49,397535.583,65.09399999998277,4.255929525243119e-9,-4.265054940333357e-9,0,0.02949606435870417,0.08141960960553547,1.370624514883667,0,0,0.242,0,20
50,397600.769,65.18599999998696,3.987443051300943e-9,-3.996009127149591e-9,0,0.029530970943744055,0.08141960960553547,1.3706419681761868,0,0,0.242,0,20
51,397665.985,65.2160000000149,3.735918426173157e-9,-3.7439438074216015e-9,0,0.029565877528783945,0.0815068760681352,1.3706594214687067,0,0,0.242,0,20
52,397731.109,65.12400000001071,3.5002306049136677e-9,-3.5077780466963302e-9,0,0.029635690698863713,0.08148942277561524,1.3706419681761868,0,0,0.242,0,20
53,397796.264,65.15500000002794,3.2794112030387625e-9,-3.286504124844214e-9,0,0.029688050576423545,0.08145451619057535,1.3706594214687067,0,0,0.242,0,20
54,397861.602,65.33799999998882,3.072513891311246e-9,-3.079160023844452e-9,0,0.02965314399138366,0.08140215631301553,1.3706419681761868,0,0,0.242,0,20
55,397926.574,64.97200000000885,2.878664645322715e-9,-2.884887635445921e-9,0,0.029600784113823827,0.08131488985041581,1.3706594214687067,0,0,0.242,0,20
56,397991.79,65.2159999999567,2.6970346880261785e-9,-2.7028950171370526e-9,0,0.02965314399138366,0.0811927168027762,1.3706943280537467,0,0,0.242,0,20
57,398057.067,65.27700000000186,2.52690983870707e-9,-2.532392272769357e-9,0,0.02965314399138366,0.08127998326537592,1.3707117813462668,0,0,0.242,0,20
58,398122.406,65.33900000003632,2.3674861040490214e-9,-2.372615881540696e-9,0,0.029600784113823827,0.08121017009529614,1.3707117813462668,0,0,0.242,0,20
59,398187.438,65.03200000000652,2.2181002350407655e-9,-2.2229141904972493e-9,0,0.029548424236264,0.08103563717009671,1.3707292346387867,0,0,0.242,0,20
60,398252.563,65.125,2.078175384667702e-9,-2.0826898889936274e-9,0,0.029583330821303884,0.0810705437551366,1.3707466879313064,0,0,0.242,0,20
61,398317.718,65.15499999996973,1.947068312802003e-9,-1.9513101960910716e-9,0,0.029618237406343777,0.08103563717009671,1.3707641412238265,0,0,0.242,0,20
62,398383.087,65.36900000000605,1.8242343458041433e-9,-1.8282149767401278e-9,0,0.02965314399138366,0.08101818387757678,1.3707466879313064,0,0,0.242,0,20
63,398448.028,64.94099999999162,1.7091693962356659e-9,-1.7128886611317283e-9,0,0.02965314399138366,0.08114035692521637,1.3707641412238265,0,0,0.242,0,20
64,398513.244,65.2160000000149,1.6013444792406518e-9,-1.6048397810664028e-9,0,0.029705503868943488,0.08112290363269643,1.3707466879313064,0,0,0.242,0,20
65,398578.369,65.125,1.500323833170114e-9,-1.5036196145956636e-9,0,0.02982767691658309,0.08114035692521637,1.3707641412238265,0,0,0.242,0,20
66,398643.554,65.18499999999767,1.4056843156140531e-9,-1.4087694353293045e-9,0,0.029845130209103034,0.08121017009529614,1.3707990478088663,0,0,0.242,0,20
67,398708.77,65.2160000000149,1.3170132433515391e-9,-1.3198808801462292e-9,0,0.029722957161463434,0.08127998326537592,1.3708165011013862,0,0,0.242,0,20
68,398774.017,65.24699999997392,1.2339118029558448e-9,-1.2366166401989176e-9,0,0.02977531703902326,0.0811054503401765,1.3707990478088663,0,0,0.242,0,20
69,398839.08,65.06300000002375,1.156075086328201e-9,-1.1586108712435816e-9,0,0.02981022362406315,0.08115781021773633,1.3708165011013862,0,0,0.242,0,20
70,398904.388,65.30799999996088,1.083145093616622e-9,-1.0855205800908152e-9,0,0.02982767691658309,0.08117526351025627,1.3707990478088663,0,0,0.242,0,20
71,398969.421,65.03299999999581,1.0148080491489963e-9,-1.0170264204134583e-9,0,0.029722957161463434,0.08108799704765655,1.3707641412238265,0,0,0.242,0,20
72,399034.545,65.12400000001071,9.507900813332525e-10,-9.528712325845845e-10,0,0.029757863746503316,0.08112290363269643,1.3707990478088663,0,0,0.242,0,20
73,399099.7,65.15500000002794,8.908179438549268e-10,-8.927596581997931e-10,0,0.029722957161463434,0.0812276233878161,1.3707990478088663,0,0,0.242,0,20
74,399164.978,65.27799999999115,8.346211188836605e-10,-8.364442578567832e-10,0,0.02977531703902326,0.08124507668033604,1.3708339543939063,0,0,0.242,0,20
75,399230.072,65.09399999998277,7.819667189323809e-10,-7.836809459149663e-10,0,0.02982767691658309,0.08121017009529614,1.3708339543939063,0,0,0.242,0,20
76,399295.227,65.15500000002794,7.326279956032522e-10,-7.342404728660768e-10,0,0.029845130209103034,0.0810705437551366,1.3708514076864262,0,0,0.242,0,20
77,399360.382,65.15499999996973,6.864061106170993e-10,-6.879200213916192e-10,0,0.02986258350162298,0.08100073058505684,1.3708688609789461,0,0,0.242,0,20
78,399425.659,65.27700000000186,6.431075121327012e-10,-6.445278586397763e-10,0,0.029914943379182806,0.0810705437551366,1.3708688609789461,0,0,0.242,0,20
79,399490.692,65.03299999999581,6.025405241416592e-10,-6.038687274667609e-10,0,0.029914943379182806,0.08115781021773633,1.370903767563986,0,0,0.242,0,20
80,399555.908,65.2160000000149,5.645290457323426e-10,-5.657762471855676e-10,0,0.029949849964222692,0.08115781021773633,1.370938674149026,0,0,0.242,0,20
81,399621.032,65.12400000001071,5.289171554068161e-10,-5.300880729919299e-10,0,0.030019663134302467,0.0811927168027762,1.3709735807340657,0,0,0.242,0,20
82,399686.218,65.18599999998696,4.955510348736424e-10,-4.966483402313315e-10,0,0.030019663134302467,0.08121017009529614,1.3709910340265858,0,0,0.242,0,20
83,399751.434,65.2160000000149,4.642851934022474e-10,-4.653107907870435e-10,0,0.029932396671702756,0.0811054503401765,1.3709735807340657,0,0,0.242,0,20
84,399816.528,65.09399999998277,4.34998270293363e-10,-4.3595889565040126e-10,0,0.029967303256742638,0.08117526351025627,1.3709735807340657,0,0,0.242,0,20
85,399881.683,65.15500000002794,4.07555461379161e-10,-4.0845404214451266e-10,0,0.029914943379182806,0.08115781021773633,1.3710259406116256,0,0,0.242,0,20
86,399947.021,65.33799999998882,3.818427671831159e-10,-3.826869487966178e-10,0,0.029949849964222692,0.08108799704765655,1.3710259406116256,0,0,0.242,0,20
87,400012.023,65.00199999997858,3.577497125206719e-10,-3.585413139717275e-10,0,0.029897490086662867,0.080948370707497,1.3710433939041458,0,0,0.242,0,20
88,400077.209,65.18599999998696,3.351776456383959e-10,-3.3592320392017426e-10,0,0.029932396671702756,0.08082619765985741,1.3710433939041458,0,0,0.242,0,20
89,400142.425,65.2160000000149,3.1402856848217196e-10,-3.147243887724471e-10,0,0.02977531703902326,0.08065166473465797,1.3710957537817055,0,0,0.242,0,20
90,400207.58,65.15500000002794,2.942157379948185e-10,-2.948639519217977e-10,0,0.029618237406343777,0.08056439827205825,1.3710783004891856,0,0,0.242,0,20
91,400272.827,65.24699999997392,2.756543437953951e-10,-2.762621420515643e-10,0,0.029618237406343777,0.08052949168701835,1.3710783004891856,0,0,0.242,0,20
92,400337.951,65.12400000001071,2.582622755653574e-10,-2.588346603715763e-10,0,0.029670597283903602,0.08040731863937876,1.3711306603667452,0,0,0.242,0,20
93,400403.045,65.09399999998277,2.4196927483899345e-10,-2.4250431351902077e-10,0,0.029618237406343777,0.08038986534685881,1.3711830202443052,0,0,0.242,0,20
94,400468.566,65.52100000000792,2.2670442945127435e-10,-2.272061010444304e-10,0,0.029635690698863713,0.08038986534685881,1.3711830202443052,0,0,0.242,0,20
95,400533.416,64.85000000003492,2.1240245473563847e-10,-2.1287110030243639e-10,0,0.029565877528783945,0.08037241205433888,1.371217926829345,0,0,0.242,0,20
