n,time,dt,vx,vy,vz,roll,pitch,yaw,x,y,z,detected,battery
0,417813.476,NaN,0,0,0,-0.000017453292519943296,0,1.6590925336532896,0,0,0.242,0,50
1,417948.791,NaN,0,0,0,-0.000017453292519943296,0,1.6591623468233694,0,0,0.242,0,50
2,418018.92,NaN,0,0,0,0.00013962634015954637,0.00010471975511965978,1.6592147067009295,0,0,0.242,0,50
3,418089.355,NaN,0,0,0,0.00047123889803846896,0.00015707963267948963,1.6592670665784892,0,0,0.242,0,50
4,418154.51,65.15500000002794,0,0,0,0.000593411945678072,0.00022689280275926284,1.6593892396261285,0,0,0.242,0,50
5,418219.635,65.125,0,0,0,0.0005585053606381855,0.0004537856055185257,1.6589005474355705,0,0,0.242,0,50
6,418285.003,65.36800000001676,0,0,0,0.0006981317007977319,-0.00008726646259971648,1.6591972534084094,0,0,0.242,0,50
7,418350.006,65.00299999996787,0,0,0,0.0008552113334772215,-0.00003490658503988659,1.6593892396261285,0,0,0.242,0,50
8,418415.191,65.18499999999767,0,0,0,0.0009250245035569946,0,1.6594765060887284,0,0,0.242,0,50
9,418480.346,65.15500000002794,0,0,0,0.0011344640137963143,-0.000017453292519943296,1.6592147067009295,0,0,0.242,0,50
10,418545.562,65.2159999999567,0,0,0,0.0010995574287564276,0,1.6595637725513281,0,0,0.242,0,50
11,418610.748,65.18600000004517,0,0,0,0.001117010721276371,0.000017453292519943296,1.659616132428888,0,0,0.242,0,50
12,418676.025,65.27700000000186,0,0,0,0.0012042771838760874,-0.0002443460952792061,1.6592321599934492,0,0,0.242,0,50
13,418740.997,64.97199999995064,0,0,0,0.0009773843811168245,0.00017453292519943296,1.6594765060887284,0,0,0.242,0,50
14,418806.427,65.43000000005122,0,0,0,0.001239183768915974,-0.00010471975511965978,1.6598255719391273,0,0,0.242,0,50
15,418871.368,64.94099999999162,0,0,0,0.001500983156715123,-0.00038397243543875244,1.6600001048643267,0,0,0.242,0,50
16,418936.614,65.24599999998463,0,0,0,0.0010471975511965976,-0.00038397243543875244,1.6596510390139276,0,0,0.242,0,50
17,419001.708,65.09399999998277,0,0,0,0.0010821041362364843,-0.0006632251157578452,1.6593368797485688,0,0,0.242,0,50
18,419066.925,65.21700000000419,0,0,0,0.0011519173063162574,-0.0007853981633974483,1.6590401737757299,0,0,0.242,0,50
19,419132.293,65.36800000001676,0,0,0,0.0009773843811168245,-0.0010821041362364843,1.65907508036077,0,0,0.242,0,50
20,419197.326,65.03299999999581,0,0,0,0.0015707963267948967,-0.001064650843716541,1.6594066929186486,0,0,0.242,0,50
21,419262.481,65.15500000002794,0,0,0,0.001256637061435917,-0.001291543646475804,1.6596510390139276,0,0,0.242,0,50
22,419327.819,65.33799999998882,0,0,0,0.0015358897417550098,-0.001500983156715123,1.6593543330410887,0,0,0.242,0,50
23,419392.822,65.00299999996787,0,0,0,0.0013788101090755204,-0.0016929693744344998,1.6588830941430504,0,0,0.242,0,50
24,419458.038,65.2160000000149,0,0,0,0.0015358897417550098,-0.001954768762233649,1.6593717863336088,0,0,0.242,0,50
25,419523.223,65.18499999999767,0,0,0,0.001064650843716541,-0.0019024088846738192,1.6595288659662883,0,0,0.242,0,50
26,419588.562,65.33899999997811,0,0,0,0.0015882496193148398,-0.0018151424220741027,1.6598081186466074,0,0,0.242,0,50
27,419653.961,65.399000000034,0,0,0,0.0018500490071139892,-0.002513274122871834,1.6615883544836416,0,0,0.242,0,50
28,419718.902,64.94099999999162,0,0,0,0.0026529004630313807,-0.0022689280275926286,1.6643808812868324,0,0,0.242,0,50
29,419784.057,65.15499999996973,0,0,0,0.0036302848441482054,-0.002373647782712288,1.667906446375861,0,0,0.242,0,50
30,419849.395,65.33800000004703,0,0,0,0.004468042885105484,-0.0020245819323134223,1.6696692289203754,0,0,0.242,0,50
31,419914.428,65.03299999999581,0,0,0,0.004380776422505768,-0.0024609142453120045,1.6733867802271232,0,0,0.242,0,50
32,419979.644,65.2159999999567,0,0,0,0.003717551306747922,-0.002565634000431664,1.676545826173233,0,0,0.243,0,50
33,420044.799,65.15500000002794,0,0,0,0.003944444109507185,-0.0022863813201125715,1.680123751139821,0,0,0.242,0,50
34,420109.985,65.18599999998696,0,0,0,0.006684611035138282,-0.0009773843811168245,1.6852899257257248,0,0,0.241,0,50
35,420175.231,65.24600000004284,0,0,0,0.011082840750163993,-0.0020769418098732523,1.6929170145569399,0,0,0.241,0,50
36,420240.447,65.2159999999567,0,0,0,0.018832102629018813,0.0017453292519943296,1.7000903177826365,0,0,0.241,0,50
37,420305.572,65.125,0,0,0,0.021031217486531674,0.002181661564992912,1.7033017236063062,0,0,0.242,0,50
38,420370.849,65.27700000000186,0,0,0,0.010663961729685353,0.004206243497306334,1.7037555092118244,0,0,0.242,0,50
39,420435.913,65.06400000001304,0,0,0,0.006876597252857658,-0.007592182246175334,1.7059546240693373,0,0,0.241,0,50
40,420501.068,65.15500000002794,0,0,0,0.0170518667919846,-0.022375121010567305,1.7044885474976623,0,0,0.242,0,50
41,420566.497,65.42899999994552,0,0,0,0.027419122548830912,-0.03082251459021986,1.7064782228449358,0,0,0.242,0,50
42,420631.469,64.97200000000885,0,0,0,0.02527236756887789,-0.030368728984701335,1.7068971018654144,0,0,0.242,0,50
43,420696.746,65.27700000000186,0,0,0,0.014800392056911913,-0.025621433419276758,1.7022894326401494,0,0,0.241,0,50
44,420761.901,65.15500000002794,0.002155992031097412,0.0017245949506759642,0,0.0019198621771937623,-0.012356931104119851,1.4231938319537363,0,0,0.242,0,50
45,420827.056,65.15499999996973,0.008763659477233886,0.009299201011657715,0,-0.006056292504420323,0.0015882496193148398,1.4219022883072603,0,0,0.242,0,50
46,420892.303,65.24700000003213,0.01520760154724121,0.006571969509124756,0,-0.006719517620178169,0.0068591439603377154,1.4222164475726191,0,0,0.259,0,50
47,420957.305,65.00199999997858,0.01303610134124756,0.014773947715759277,0,0.0014486232791552935,0.013910274138394806,1.4259339988793673,0,0,0.281,0,50
48,421022.705,65.40000000002328,0.020992633819580078,0.015450346946716308,0,0.001064650843716541,0.010629055144645468,1.4263877844848856,0,0,0.342,0,50
49,421087.738,65.03299999999581,0.0005861473083496094,0.049044448852539065,0,-0.0029321531433504737,0.0002617993877991494,1.4281156604443601,0,0,0.381,0,50
50,421153.015,65.27700000000186,0.0057171077728271485,0.03396649932861328,0,-0.009128071987930345,-0.010035643198967393,1.428796338852638,0,0,0.462,0,50
51,421218.414,65.39899999997579,0.028183830261230468,0.003920221328735351,0,-0.01387536755335492,-0.01361356816555577,1.4279062209341207,0,0,0.541,0,50
52,421283.294,64.88000000000466,0.011529821395874024,-0.02624956512451172,0,-0.007923794804054257,-0.00853466004225227,1.4283774598321592,0,0,0.576,0,50
53,421348.388,65.09399999998277,0.0066623973846435544,-0.02991795539855957,0,0.00027925268031909274,-0.003961897402027128,1.4278713143490809,0,0,0.646,0,50
54,421413.818,65.43000000005122,0.019570466995239257,-0.04087671279907226,0,0.007225663103256523,0.001239183768915974,1.42808075385932,0,0,0.709,0,50
55,421478.82,65.00199999997858,-0.0006181597709655762,-0.05795796966552735,0,0.015673056682909078,0.00603883921190038,1.4255674797364486,0,0,0.745,0,50
56,421544.067,65.24699999997392,-0.03502950286865234,-0.09763463592529296,0,0.01944296786721683,0.0032812189937493396,1.4234905379265752,0,0,0.788,1,50
57,421609.252,65.18499999999767,-0.05637900161743164,-0.11586544799804688,0,0.024905848425959082,-0.004258603374866164,1.4208201841710237,0,0,0.82,1,50
58,421674.377,65.125,-0.09297529602050782,-0.1707416229248047,0,0.029426251188624394,-0.008185594191853404,1.4191097615040693,0,0,0.808,1,50
59,421739.685,65.30800000001909,-0.09275885009765625,-0.20762100219726562,0,0.0422893277758226,-0.007958701389094143,1.4180625639528726,0,0,0.796,0,50
60,421804.718,65.03299999999581,-0.1132682876586914,-0.19727171325683593,0,0.05452408583230286,-0.011658799403322121,1.4182196435855523,0,0,0.796,0,50
61,421870.178,65.46000000002095,-0.11690492248535156,-0.1963197021484375,0,0.06736970912698112,-0.021415189921970425,1.4179229376127132,0,0,0.769,0,50
62,421935.241,65.06299999996554,-0.09354431915283203,-0.16466693115234374,0,0.07485717161803679,-0.028117254249628645,1.4135421611902073,0,0,0.738,0,50
63,422000.427,65.18600000004517,-0.07519736480712891,-0.07385128784179687,0,0.0822399143539728,-0.02518510110627818,1.4101213158562984,0,0,0.725,0,50
64,422065.612,65.18499999999767,-0.05026329803466797,0.003781444549560547,0,0.07775441817634737,-0.019198621771937627,1.4091090248901421,0,0,0.715,0,50
65,422130.737,65.125,-0.015897079467773436,0.08871514129638672,0,0.06075491126192261,-0.015062191444711064,1.4083410800192644,0,0,0.709,0,50
66,422195.953,65.2159999999567,-0.001921415090560913,0.13303604125976562,0,0.035185837720205684,-0.011588986233242348,1.4073811489306676,0,0,0.7,0,50
67,422261.23,65.27700000000186,0.011404507637023926,0.18664361572265625,0,0.013404128655316452,-0.008779006137531478,1.4069273633251491,0,0,0.702,0,50
68,422326.293,65.06300000002375,0.011198407173156738,0.18284942626953124,0,-0.007382742735936014,-0.012060225131280817,1.4054438334609536,0,0,0.703,0,50
69,422391.723,65.42999999999302,0.0043790311813354495,0.17856581115722656,0,-0.02326523892908441,-0.014433872913993106,1.406002338821592,0,0,0.708,0,50
70,422456.909,65.18599999998696,0.036401348114013674,0.14394119262695312,0,-0.0346273323595675,-0.010873401239924672,1.4070146297877488,0,0,0.701,0,50
71,422521.972,65.06300000002375,-0.003473125696182251,0.0836683349609375,0,-0.03698352684975985,0.0021467549799530253,1.4024244138550035,0,0,0.688,0,49
72,422587.127,65.15499999996973,0.003115979194641113,0.06922151947021485,0,-0.027192229746071654,0.006754424205218055,1.399544620589213,0,0,0.689,0,49
73,422652.282,65.15500000002794,-0.013887630462646485,0.05386544799804688,0,-0.01879719604397893,0.010506882097005862,1.3978691045072984,0,0,0.69,0,49
74,422717.437,65.15499999996973,-0.03484318542480469,0.0614802131652832,0,-0.010873401239924672,0.0091106186954104,1.397066253051381,0,0,0.691,0,49
75,422782.714,65.27700000000186,-0.033234222412109375,0.05165629577636719,0,-0.010663961729685353,0.006178465552059926,1.3982356236502171,0,0,0.699,0,49
76,422847.808,65.09400000004098,-0.011574316024780273,0.055758190155029294,0,-0.014206980111233843,-0.0052010811709431014,1.4012201366711277,0,0,0.703,0,49
77,422912.963,65.15499999996973,-0.022130918502807618,0.03243717575073242,0,-0.016859880574265223,-0.011676252695842066,1.4042046496920377,0,0,0.709,0,49
78,422978.332,65.36900000000605,-0.031318679809570316,0.007191500663757324,0,-0.010140362954087054,-0.013107422682477414,1.406002338821592,0,0,0.716,0,49
79,423043.334,65.00199999997858,-0.01858641815185547,0.007788336277008057,0,0.003089232776029963,-0.0187448361664191,1.4079396542913056,0,0,0.718,0,49
80,423108.612,65.27800000004936,-0.016843740463256835,0.006481642246246338,0,0.016824973989225337,-0.020001473227855015,1.4100689559787387,0,0,0.721,0,49
81,423173.675,65.06299999996554,0.0003326100707054138,0.027151870727539062,0,0.028361600344907856,-0.019460421159736774,1.4133850815575277,0,0,0.724,0,49
82,423238.922,65.24700000003213,0.011528240203857423,0.037089080810546876,0,0.03303908274025266,-0.010855947947404729,1.41579363592528,0,0,0.726,0,49
83,423304.138,65.2159999999567,0.019666660308837892,0.05949166107177734,0,0.034540065896967787,-0.002251474735072685,1.4185512561434312,0,0,0.739,0,49
84,423369.262,65.12400000001071,0.021104997634887695,0.09896463012695313,0,0.03192207201897628,0.004485496177625427,1.4202791321029056,0,0,0.743,0,49
85,423434.417,65.15500000002794,0.012472497940063476,0.1088227310180664,0,0.02654645792283375,0.015603243512829304,1.4186036160209912,0,0,0.745,0,49
86,423499.725,65.30799999996088,0.013938316345214844,0.12473168182373047,0,0.01647590813882647,0.017034413499464655,1.4182196435855523,0,0,0.745,0,49
87,423564.727,65.00200000003679,-0.02370058059692383,0.15465220642089844,0,0.007086036763096978,0.009878563566287904,1.4174342454221547,0,0,0.746,0,49
88,423629.974,65.24699999997392,-0.01224500560760498,0.18592622375488282,0,-0.006387905062299246,-0.005445427266222308,1.4175040585922347,0,0,0.747,0,49
89,423695.068,65.09400000004098,-0.020397071838378907,0.18371290588378905,0,-0.009651670763528642,-0.00874409955249159,1.4180102040753129,0,0,0.752,0,49
90,423760.345,65.27699999994365,-0.029120824813842774,0.14897555541992188,0,-0.009913470151327791,-0.007714355293814937,1.4204187584430652,0,0,0.756,0,49
91,423825.622,65.27700000000186,-0.024594661712646484,0.1509547882080078,0,-0.009442231253289324,-0.006649704450098395,1.4242235762124127,0,0,0.768,0,49
92,423890.655,65.03300000005402,-0.024355714797973632,0.1469379119873047,0,-0.018517943363659833,-0.005689773361501514,1.4268066635053644,0,0,0.771,0,49
93,423955.841,65.18599999998696,-0.019742631912231447,0.1343863983154297,0,-0.020734511513692634,-0.004171336912266447,1.4223386206202588,0,0,0.771,0,49
94,424021.148,65.3069999999716,-0.05420441055297852,0.1004533462524414,0,0.003298672286269283,0.005689773361501514,1.413716694115407,0,0,0.774,0,49
95,424086.456,65.30800000001909,-0.06410581970214843,0.09949707794189454,0,0.01747074581246324,0.015236724369910496,1.402267334222324,0,0,0.772,0,49
96,424151.489,65.03299999999581,-0.06068911361694336,0.1224229507446289,0,0.015428710587629874,0.020420352248333655,1.3922665976083966,0,0,0.763,0,49
97,424216.705,65.2160000000149,-0.06869837188720704,0.12233550262451172,0,0.0166504410640259,0.023701571242082997,1.384482429144502,0,0,0.764,0,49
98,424281.951,65.24599999998463,-0.07421964263916016,0.1470055389404297,0,0.017086773377024488,0.02707005669843205,1.3790195485857597,0,0,0.765,0,49
99,424347.137,65.18599999998696,-0.09367305755615235,0.16341539001464844,0,0.012391837689159739,0.02597049926967562,1.3748133050884532,0,0,0.761,0,49
100,424412.231,65.09400000004098,-0.11601058959960937,0.19251600646972655,0,0.006911503837897546,0.020001473227855015,1.3717066190199034,0,0,0.772,0,49
101,424477.386,65.15499999996973,-0.10568569946289062,0.2019555206298828,0,0.004799655442984407,0.017104226669544427,1.3686173862438733,0,0,0.767,0,49
102,424542.785,65.39899999997579,-0.10987799072265625,0.19617781066894532,0,0.0012042771838760874,0.024923301718479025,1.3651965409099645,0,0,0.783,0,49
103,424607.757,64.97200000000885,-0.10351311492919922,0.21093132019042968,0,-0.009983283321407565,0.02977531703902326,1.3600303663240614,0,0,0.829,0,49
104,424673.004,65.24700000003213,-0.15923133850097657,0.23130259704589845,0,-0.02193878869756872,0.024364796357840838,1.355614683316516,0,0,0.789,0,49
105,424738.128,65.12400000001071,-0.14977119445800782,0.2209262237548828,0,-0.03392920065876977,0.017575465567582896,1.3530141427310443,0,0,0.783,0,49
106,424803.436,65.30799999996088,-0.18299632263183593,0.2035924987792969,0,-0.04239404753094226,0.021327923459370707,1.3483192070431793,0,0,0.793,0,49
107,424868.713,65.27700000000186,-0.15867559814453125,0.16815269470214844,0,-0.060702551384362785,0.023439771854283843,1.3426992468517576,0,0,0.799,0,49
108,424933.776,65.06300000002375,-0.18275982666015625,0.15405990600585937,0,-0.08689994345679766,0.021048670779051613,1.3357528364288203,0,0,0.804,0,49
109,424998.901,65.125,-0.23386648559570314,0.1074478759765625,0,-0.11433651929814853,0.014084807063594239,1.3295394642917204,0,0,0.808,0,49
110,425064.636,65.73499999998603,-0.2552318420410156,0.021720127105712892,0,-0.13458233862128274,0.012130038301360588,1.3224185209435835,0,0,0.879,0,49
111,425129.272,64.6359999999986,-0.28547930908203123,-0.09395933532714844,0,-0.152349790406585,0.004904375198104066,1.3183868103714766,0,0,0.827,0,49
112,425194.488,65.2160000000149,-0.2816189880371094,-0.198684814453125,0,-0.15627678122357228,-0.007906341511534314,1.3169730936773612,0,0,0.829,0,49
113,425259.582,65.09399999998277,-0.25795407104492185,-0.2812589416503906,0,-0.1406909910032629,-0.02516764781375823,1.313918767486371,0,0,0.855,0,49
114,425324.798,65.2160000000149,-0.3820746154785156,-0.32864239501953124,0,-0.10913543812720544,-0.042411500823462206,1.3097823371591446,0,0,0.807,0,49
115,425390.075,65.27700000000186,-0.29182150268554685,-0.3603594970703125,0,-0.0693419311817347,-0.05560618996853933,1.3043194566004024,0,0,0.797,0,49
116,425455.169,65.09399999998277,-0.2674499816894531,-0.37467767333984375,0,-0.030281462522101617,-0.06689847022894266,1.297041433619586,0,0,0.778,0,49
117,425520.599,65.42999999999302,-0.17780813598632814,-0.3841756591796875,0,-0.0036302848441482054,-0.08012806595905966,1.2886114933324533,0,0,0.776,0,49
118,425585.723,65.12400000001071,-0.1391249542236328,-0.5011482238769531,0,0.015742869852988853,-0.08295549934729049,1.2827471870457523,0,0,0.758,0,49
119,425650.665,64.94199999998091,-0.06643670654296875,-0.48090615844726564,0,0.045588000062091884,-0.0787318025574642,1.2803386326780004,0,0,0.762,0,49
120,425716.003,65.33800000004703,-0.04621965408325195,-0.39189389038085937,0,0.07344345492392139,-0.06963863715457375,1.2793088884193238,0,0,0.752,0,49
121,425781.036,65.03299999999581,-0.025753740310668946,-0.368334228515625,0,0.09510299094117101,-0.056967546785094914,1.2792914351268037,0,0,0.756,0,49
122,425846.221,65.18499999999767,0.011249624252319335,-0.26970816040039064,0,0.11065387457644049,-0.044436082755775624,1.2803386326780004,0,0,0.762,0,49
123,425911.499,65.27799999999115,0.039392318725585934,-0.2167342834472656,0,0.1179493508497768,-0.03481931857728687,1.279745220732322,0,0,0.771,0,49
124,425976.623,65.12400000001071,0.0642928695678711,-0.13582844543457032,0,0.11613420842770268,-0.030054569719342356,1.280111739875241,0,0,0.765,0,49
125,426041.748,65.125,0.06044488143920899,0.01682177734375,0,0.11562806294462433,-0.027628562059070234,1.28035608597052,0,0,0.768,0,49
126,426107.116,65.36799999995856,0.09025756072998047,0.08297657775878907,0,0.11274826967883368,-0.023841197582242544,1.278942369276405,0,0,0.789,0,49
127,426172.424,65.30800000001909,0.09207691955566406,0.12053660583496094,0,0.10257300013970674,-0.025621433419276758,1.2767956142964516,0,0,0.807,0,49
128,426237.365,64.94099999999162,0.10649737548828125,0.14676837158203124,0,0.07829547024446562,-0.03406882699892931,1.2757833233302949,0,0,0.838,0,49
129,426302.52,65.15500000002794,0.13449612426757812,0.16886207580566406,0,0.05565854984609917,-0.04586725274241098,1.2782965974531668,0,0,0.859,0,49
130,426367.767,65.24699999997392,0.11019169616699219,-0.022256900787353515,0,0.0291469985083053,-0.05548401692089973,1.279186715371684,0,0,0.893,0,49
131,426432.983,65.2160000000149,0.1512263641357422,0.17759254455566406,0,0.0014486232791552935,-0.06325073209227451,1.2789074626913648,0,0,0.943,0,49
132,426498.077,65.09399999998277,0.15913436889648438,-0.03008559799194336,0,-0.008395033702092724,-0.06740461571202101,1.2790121824464844,0,0,0.959,0,49
133,426563.323,65.24599999998463,0.17884417724609375,-0.0008243379592895508,0,-0.012548917321839229,-0.06845181326321761,1.2798499404874417,0,0,1.02,0,49
134,426628.692,65.36900000000605,0.21192581176757813,-0.0067824568748474125,0,-0.018413223608540176,-0.07099999397112931,1.2825901074130728,0,0,1.047,0,49
135,426693.695,65.00300000002608,0.1537191925048828,-0.11504297637939453,0,-0.017941984710501707,-0.06541494036474747,1.282502840950473,0,0,1.06,0,49
136,426758.911,65.2160000000149,0.1862758026123047,-0.13740115356445312,0,-0.022060961745208326,-0.05981243346584567,1.2831137061886713,0,0,1.096,0,49
137,426824.066,65.15499999996973,0.4900126647949219,0.13624295043945311,0,-0.026127578902355116,-0.049864056729478,1.282258494855194,0,0,1.108,0,49
138,426889.282,65.2160000000149,0.5777197265625,0.25803558349609373,0,-0.026284658535034602,-0.04330161874197931,1.2826599205831528,0,0,1.14,0,49
139,426954.681,65.39899999997579,0.5716357421875,0.20631092834472656,0,-0.02401573050744197,-0.029688050576423545,1.2814905499843168,0,0,1.164,0,49
140,427019.714,65.03299999999581,0.5510374145507813,0.22696522521972656,0,-0.026302111827554542,-0.008011061266653973,1.2801640997528008,0,0,1.18,0,49
141,427084.808,65.09400000004098,0.5305380859375,0.18792938232421874,0,-0.038257617203715705,0.01855284994869972,1.278942369276405,0,0,1.193,0,49
142,427150.268,65.45999999996275,0.5107810974121094,0.13264213562011717,0,-0.04855505979048225,0.0494626310015193,1.2779649848952879,0,0,1.214,1,49
143,427215.27,65.00200000003679,0.45342843627929685,0.08490709686279296,0,-0.05747369226817327,0.07278022980816354,1.2775461058748092,0,0,1.229,1,49
144,427280.517,65.24699999997392,0.3887010192871094,0.0952510986328125,0,-0.07696902001294993,0.065868725970266,1.2791169022016042,0,0,1.238,1,49
145,427345.55,65.03299999999581,0.39259140014648436,0.051576961517333986,0,-0.11065387457644049,0.052045718294470904,1.2812287505965174,0,0,1.249,2,49
146,427410.797,65.24700000003213,0.3226591796875,-0.09432369995117187,0,-0.13493140447168162,0.06668903071870334,1.2795008746370429,0,0,1.261,2,49
147,427476.104,65.3069999999716,0.18562245178222656,-0.16010386657714842,0,-0.10632545803149455,0.059096848472528,1.2827646403382724,0,0,1.267,2,49
148,427541.198,65.09399999998277,0.08638256072998046,-0.1961152801513672,0,-0.03230604445441504,0.016161748873467493,1.287442122733617,0,0,1.275,2,49
149,427606.292,65.09400000004098,0.0744282455444336,-0.18791630554199218,0,0.04434881629317591,-0.03255039054969425,1.287808641876536,0,0,1.273,1,49
150,427671.63,65.33799999998882,0.09381340026855468,-0.17525367736816405,0,0.10494664792241903,-0.06133086991508074,1.2849288486107453,0,0,1.271,1,49
151,427736.663,65.03299999999581,0.16729484558105467,-0.15082608032226563,0,0.11962486693169135,-0.06592108584782583,1.2836373049642695,0,0,1.275,1,49
152,427801.849,65.18599999998696,0.2893997802734375,-0.11416322326660157,0,0.09978047333651582,-0.04319689898685966,1.2850510216583848,0,0,1.272,1,49
153,427867.034,65.18499999999767,0.34038751220703123,-0.07672882080078125,0,0.07367034772668064,-0.018186330805780915,1.2879831748017356,0,0,1.272,1,49
154,427932.281,65.24700000003213,0.32541595458984374,-0.05129373550415039,0,0.05747369226817327,0.0048520153205442364,1.2907233417273665,0,0,1.289,1,49
155,427997.436,65.15499999996973,0.28125103759765624,-0.04903570556640625,0,0.0477696616270848,0.021432643214490364,1.2901299297816884,0,0,1.303,1,49
156,428062.622,65.18599999998696,0.2715746765136719,-0.009253945350646973,0,0.03988077340807043,0.03413864016900908,1.289920490271449,0,0,1.314,1,49
157,428127.746,65.12400000001071,0.20743890380859376,-0.007343021869659424,0,0.033562681515850956,0.047123889803846894,1.2903568225844477,0,0,1.336,1,49
158,428193.023,65.27700000000186,0.15144911193847657,0.01460255241394043,0,0.03476695869972704,0.061086523819801536,1.2904789956320872,0,0,1.357,1,49
159,428258.056,65.03299999999581,0.10977852630615234,0.04634341430664062,0,0.030019663134302467,0.06887069228369624,1.2896586908836498,0,0,1.372,1,49
160,428323.303,65.24700000003213,0.09498628234863281,0.06292222595214844,0,0.024260076602721177,0.07323401541368206,1.2900426633190887,0,0,1.386,1,49
161,428388.427,65.12400000001071,0.03336380386352539,0.06528606414794921,0,0.018291050560900572,0.07213445798492564,1.2892572651556913,0,0,1.391,1,49
162,428453.643,65.2159999999567,0.0015308780670166015,0.06998320007324219,0,0.010663961729685353,0.06592108584782583,1.2877737352914962,0,0,1.399,1,49
163,428518.92,65.27700000000186,-0.061134052276611325,0.07302728271484375,0,0.005934119456780722,0.05965535383316618,1.28660436469266,0,0,1.402,1,49
164,428583.984,65.06400000001304,-0.089882568359375,0.08281832122802735,0,0.005811946409141117,0.054122660104344154,1.2876166556588167,0,0,1.4,1,49
165,428649.2,65.2160000000149,-0.1306631622314453,0.040565216064453125,0,0.00322885911618951,0.04991641660703782,1.2871803233458181,0,0,1.406,1,49
166,428714.508,65.30799999996088,-0.143297119140625,0.051559947967529295,0,0.0004537856055185257,0.040177479380909466,1.2866916311552596,0,0,1.413,1,49
167,428779.51,65.00200000003679,-0.19429254150390626,0.054184925079345705,0,-0.0028623399732707008,0.028780479365386493,1.2850510216583848,0,0,1.415,1,49
168,428844.94,65.42999999999302,-0.20933477783203125,0.06006661987304687,0,-0.006632251157578452,0.01790707812546182,1.2846670492229462,0,0,1.403,1,49
169,428909.942,65.00199999997858,-0.2078364715576172,0.020465803146362305,0,-0.008569566627292158,0.01064650843716541,1.2841085438623079,0,0,1.415,1,49
170,428975.219,65.27700000000186,-0.23733663940429686,0.008963987350463868,0,-0.011903145498601327,0.004118977034706617,1.283253332528831,0,0,1.406,1,49
171,429040.496,65.27700000000186,-0.23455252075195313,-0.002922948122024536,0,-0.015323990832510213,-0.006579891280018623,1.2833231456989105,0,0,1.406,1,49
172,429105.59,65.09400000004098,-0.22535452270507814,-0.014001520156860351,0,-0.022165681500327987,-0.021275563581810878,1.282555200828033,0,0,1.407,1,49
173,429170.959,65.36899999994785,-0.18314826965332032,-0.04076000213623047,0,-0.0248709418409192,-0.03106686068549907,1.2820839619299946,0,0,1.453,2,49
174,429236.114,65.15500000002794,-0.22927186584472656,-0.06850951385498047,0,-0.02588323280707591,-0.03811799086355616,1.2831311594811912,0,0,1.424,2,49
175,429301.116,65.00199999997858,-0.19156689453125,-0.12133984375,0,-0.01865756970381938,-0.0402298392584693,1.283200972651271,0,0,1.426,2,49
176,429366.485,65.36900000000605,-0.1826528778076172,-0.13526161193847655,0,0.008447393579652554,-0.04345869837465881,1.2833056924063908,0,0,1.426,2,49
177,429431.61,65.125,-0.18308203125,-0.12638086700439452,0,0.040107666210829694,-0.048939032225921,1.2833929588689903,0,0,1.43,1,49
178,429496.826,65.2160000000149,-0.16344886779785156,-0.11094786071777343,0,0.06480407512654945,-0.05548401692089973,1.2843005300800274,0,0,1.439,1,49
179,429562.194,65.36800000001676,-0.09246507263183594,-0.09619700622558594,0,0.06564183316750674,-0.054332099614583476,1.2843877965426271,0,0,1.446,1,49
180,429627.105,64.91099999996368,-0.038093948364257814,-0.106164306640625,0,0.05585053606381855,-0.04864232625308196,1.284370343250107,0,0,1.451,1,49
181,429692.291,65.18600000004517,-0.024170059204101563,-0.05953292846679688,0,0.05023057587239681,-0.043388885204579036,1.2839689175221485,0,0,1.456,1,49
182,429757.659,65.36799999995856,0.002619777202606201,-0.045778156280517575,0,0.03904301536711315,-0.04052654523130833,1.2842830767875075,0,0,1.456,1,49
183,429822.631,64.97200000000885,0.036485084533691405,-0.028840782165527344,0,0.024137903555081577,-0.03944444109507184,1.2848415821481456,0,0,1.459,1,49
184,429887.969,65.33799999998882,0.05101344680786133,-0.03492906951904297,0,0.015184364492350668,-0.03295181627765294,1.2833580522839505,0,0,1.462,1,49
185,429953.033,65.06400000001304,0.07300814056396485,-0.03466911697387695,0,0.0054105206811824215,-0.028448866807507567,1.2824330277803933,0,0,1.464,1,49
186,430018.249,65.2160000000149,0.07088837432861328,-0.03386076354980469,0,-0.0015358897417550098,-0.024120450262561634,1.2826250139981128,0,0,1.468,1,49
187,430083.465,65.2160000000149,0.09183979034423828,-0.048398143768310545,0,-0.010175269539126942,-0.019826940302655582,1.2815080032768364,0,0,1.465,1,49
188,430148.59,65.125,0.1043592529296875,-0.0743083267211914,0,-0.017366026057343577,-0.017400932642383467,1.2796754075622423,0,0,1.468,1,49
189,430213.806,65.2159999999567,0.09731905364990234,-0.09284852600097657,0,-0.020367992370773826,-0.013753194505715317,1.2798499404874417,0,0,1.469,1,49
190,430279.022,65.2160000000149,0.09797064208984375,-0.1242235336303711,0,-0.019530234329816546,-0.007871434926494426,1.2833056924063908,0,0,1.468,1,49
191,430344.116,65.09399999998277,0.08351696014404297,-0.1501863555908203,0,-0.02192133540504878,-0.003926990816987242,1.285365180923744,0,0,1.458,1,49
192,430409.301,65.18499999999767,0.08134437561035156,-0.16494900512695312,0,-0.01857030324121967,0.0017453292519943296,1.2860458593320216,0,0,1.457,1,49
193,430474.456,65.15500000002794,0.06816545867919922,-0.18905961608886718,0,-0.014119713648634126,0.0076270888312152205,1.2882100676044947,0,0,1.455,1,49
194,430539.642,65.18599999998696,0.08051959991455078,-0.20944505310058595,0,-0.006161012259539982,0.010349802464326372,1.2913342069655644,0,0,1.449,1,49
195,430604.919,65.27700000000186,0.05928637313842773,-0.19992532348632813,0,0.011222467090323538,-0.0010471975511965976,1.292992269754959,0,0,1.448,1,49
196,430669.982,65.06300000002375,0.04219971466064453,-0.15349588012695312,0,0.03642502148912166,-0.036110862223762676,1.2943710798640347,0,0,1.444,1,49
197,430735.198,65.2159999999567,0.05452306365966797,-0.12993479919433593,0,0.061086523819801536,-0.08379325738824776,1.296151315701069,0,0,1.441,1,49
198,430800.506,65.30800000001909,0.11461707305908203,-0.10058992767333984,0,0.08072147790473774,-0.12091641057816714,1.2953310109526315,0,0,1.438,1,49
199,430865.722,65.2160000000149,0.19234164428710937,-0.06843891143798828,0,0.09299114254625787,-0.14657275058248379,1.2962909420412285,0,0,1.443,1,49
200,430930.847,65.125,0.30287786865234373,-0.042840614318847656,0,0.09379399400217525,-0.16626006454497982,1.297966458123143,0,0,1.439,1,49
201,430995.941,65.09399999998277,0.4434634094238281,-0.008441152572631836,0,0.09044296183834616,-0.17683675981206545,1.3006368118786942,0,0,1.438,1,49
202,431061.126,65.18499999999767,0.5460247192382812,0.022289091110229493,0,0.08358381787800843,-0.17898351479201852,1.3054364673216787,0,0,1.46,1,49
203,431126.556,65.42999999999302,0.6372823486328125,0.01827092933654785,0,0.08239699398665229,-0.17088518706276482,1.3108120814178212,0,0,1.458,1,49
204,431191.528,64.97200000000885,0.6964058837890625,0.04457635879516601,0,0.08395033702092723,-0.16345008444926898,1.3151230446702473,0,0,1.467,1,49
205,431256.774,65.24599999998463,0.8429329833984375,0.06907667541503906,0,0.08100073058505684,-0.16144295580947549,1.3181250109836773,0,0,1.465,1,49
206,431322.113,65.33900000003632,0.9195548706054687,0.06765348815917968,0,0.081873395211054,-0.1558404489105737,1.3202717659636305,0,0,1.465,1,49
207,431387.145,65.03200000000652,0.975468994140625,0.13231172180175782,0,0.08208283472129332,-0.15840608291100536,1.3214236832699469,0,0,1.485,1,49
208,431452.514,65.36900000000605,1.052691162109375,0.16007669067382813,0,0.0838107106807677,-0.16299629884375044,1.3206208318140293,0,0,1.46,1,49
209,431517.578,65.06399999995483,1.1199749755859374,0.18884950256347657,0,0.08299040593233037,-0.16247270006815212,1.3207080982766293,0,0,1.512,1,49
210,431582.733,65.15500000002794,1.1819461669921876,0.19483815002441407,0,0.08721410272215664,-0.1555611962302546,1.3218774688754653,0,0,1.442,1,49
211,431648.01,65.27700000000186,1.23279150390625,0.24124966430664063,0,0.08869763258635183,-0.1464505775348442,1.3220345485081448,0,0,1.435,1,48
212,431713.226,65.2160000000149,1.3228583984375,0.280050537109375,0,0.09182177194742168,-0.13267992973660891,1.3226803203313828,0,0,1.415,1,48
213,431778.35,65.1239999999525,1.40559228515625,0.3125498046875,0,0.09827949017980069,-0.11168361883511714,1.3208128180317489,0,0,1.424,0,48
214,431843.688,65.33800000004703,1.4600499267578124,0.3747208557128906,0,0.1013861762483506,-0.08557349322528197,1.321737842535306,0,0,1.44,0,48
215,431908.721,65.03299999999581,1.5450391845703124,0.4121307067871094,0,0.09021606903558688,-0.04968952380427856,1.3211444305896276,0,0,1.442,0,48
216,431973.968,65.24699999997392,1.649650146484375,0.49445916748046875,0,0.0667588438887831,-0.0043982297150257105,1.3211269772971075,0,0,1.44,0,48
217,432039.062,65.09399999998277,1.6735225830078124,0.5082284851074219,0,0.04286528642898073,0.04431390970813603,1.3213015102223071,0,0,1.44,0,48
218,432104.278,65.2160000000149,1.612893310546875,0.48146356201171875,0,0.016598081186466072,0.09316567547145732,1.32041139230379,0,0,1.455,0,48
219,432169.525,65.24700000003213,1.519272705078125,0.44310821533203126,0,-0.007853981633974483,0.13920746113906773,1.3183693570789567,0,0,1.461,0,48
220,432234.619,65.09399999998277,1.4579481201171876,0.478895263671875,0,-0.029565877528783945,0.17695893285970507,1.3151404979627672,0,0,1.471,0,48
221,432299.804,65.18499999999767,1.257269287109375,0.49268508911132813,0,-0.04721115626644662,0.20404644285065707,1.3134998884658924,0,0,1.493,0,48
222,432365.142,65.33799999998882,0.9814827270507812,0.4248052978515625,0,-0.063407811724954,0.22390828973835256,1.3116847460438184,0,0,1.503,0,48
223,432430.084,64.94199999998091,0.786318603515625,0.31051260375976564,0,-0.0748920782030767,0.23258257612076436,1.3112658670233397,0,0,1.53,0,48
224,432495.391,65.3070000000298,0.615423095703125,0.2698710632324219,0,-0.08244935386421214,0.23177972466484695,1.310899347880421,0,0,1.496,0,48
225,432560.485,65.09399999998277,0.45023651123046876,0.1953555908203125,0,-0.08016297254409956,0.22432716875883116,1.312103625064297,0,0,1.515,0,48
226,432625.946,65.46100000001024,0.25863937377929686,0.14438938903808593,0,-0.07290240285580314,0.21636846736973706,1.3124701442072157,0,0,1.503,0,48
227,432691.009,65.06300000002375,0.08267903900146484,0.1052532958984375,0,-0.05878268920716901,0.2096314964570389,1.3137442345611718,0,0,1.489,0,48
228,432756.042,65.03299999999581,-0.06329880905151367,0.07186266326904298,0,-0.05061454830783556,0.19266689612765403,1.3140234872414909,0,0,1.502,0,48
229,432821.166,65.12400000001071,-0.18911154174804687,0.06838832092285156,0,-0.03888593573443366,0.1706757475525255,1.3149834183300877,0,0,1.476,0,48
230,432886.535,65.36899999994785,-0.291064453125,0.05548238754272461,0,-0.02977531703902326,0.1393994473567871,1.3182646373238371,0,0,1.456,0,48
231,432951.538,65.00300000002608,-0.4150971374511719,0.03463883209228515,0,-0.023753931119642822,0.10231120075190758,1.3206906449841092,0,0,1.456,0,48
232,433016.784,65.24599999998463,-0.48238937377929686,0.028838100433349608,0,-0.024277529895241123,0.06492624817418907,1.3230293861817817,0,0,1.504,0,48
233,433081.909,65.125,-0.4961051025390625,0.015511665344238281,0,-0.029583330821303884,0.02691297706575256,1.3245303693384967,0,0,1.454,0,48
234,433147.094,65.18499999999767,-0.5289859008789063,-0.015601445198059082,0,-0.031799898971336685,-0.012514010736799341,1.3260313524952119,0,0,1.467,0,48
235,433212.493,65.399000000034,-0.48529736328125,-0.03920994186401367,0,-0.029740410453983377,-0.047717301749524973,1.3285795332031236,0,0,1.449,0,48
236,433277.557,65.06399999995483,-0.4244437255859375,-0.06128389358520508,0,-0.023649211364523165,-0.08155923594569502,1.3291205852712418,0,0,1.45,0,48
237,433342.62,65.06300000002375,-0.34444790649414064,-0.07991322326660157,0,-0.016859880574265223,-0.10861183935160713,1.3298012636795193,0,0,1.466,0,48
238,433408.508,65.88799999997718,-0.5280259399414062,-0.15171630859375,0,-0.008168140899333463,-0.1258556923613111,1.3295045577066804,0,0,1.485,0,48
239,433473.144,64.6359999999986,-0.483526123046875,-0.16584042358398438,0,0.001291543646475804,-0.13414600630828416,1.3296441840468403,0,0,1.583,0,48
240,433538.482,65.33800000004703,-0.36236328125,-0.22695820617675783,0,0.016824973989225337,-0.14105751014618173,1.329033318808642,0,0,1.494,0,48
241,433603.454,64.97200000000885,-0.3363958435058594,-0.22097682189941406,0,0.028605946440187064,-0.14011503235010478,1.3294347445366008,0,0,1.512,0,48
242,433668.701,65.24699999997392,-0.26346142578125,-0.28710269165039065,0,0.03618067539384245,-0.1331511686346474,1.3300456097747988,0,0,1.525,0,48
243,433733.947,65.24599999998463,-0.18183369445800782,-0.24667768859863282,0,0.05009094953223726,-0.12664109052470854,1.3309357276933158,0,0,1.614,0,48
244,433799.072,65.125,-0.12393955993652343,-0.24224775695800782,0,0.06717772290926174,-0.12021827887736942,1.3313546067137947,0,0,1.544,0,48
245,433864.196,65.12400000001071,-0.06127715301513672,-0.18896383666992186,0,0.08002334620394,-0.11618656830526253,1.331790939026793,0,0,1.568,0,48
246,433929.565,65.36900000000605,0.002064249038696289,-0.15253265380859374,0,0.08527678725244295,-0.11330677503947187,1.3314244198838743,0,0,1.562,0,48
247,433994.567,65.00199999997858,0.09051966857910156,-0.12093444061279297,0,0.0924326371856197,-0.10234610733694748,1.3316338593941135,0,0,1.57,0,48
248,434059.967,65.40000000002328,0.11951101684570313,-0.07602793884277344,0,0.09658652080536619,-0.0887325391713917,1.3343565730272249,0,0,1.584,0,48
249,434125,65.03299999999581,0.18007247924804687,-0.04050368881225586,0,0.09580112264196874,-0.07377506748180032,1.337986857871373,0,0,1.594,0,48
250,434190.216,65.2160000000149,0.23771163940429688,0.0018976287841796875,0,0.09068730793362537,-0.05820673055401089,1.3436068180627947,0,0,1.625,0,48
251,434255.401,65.18499999999767,0.25267433166503905,0.03822236251831055,0,0.08276351312957111,-0.04230678106834255,1.3498027369073744,0,0,1.644,0,48
252,434320.617,65.2160000000149,0.30770794677734375,0.058076416015625,0,0.07182029871956666,-0.024574235868080156,1.35432313967004,0,0,1.663,0,48
253,434385.711,65.09399999998277,0.3284282531738281,0.08195089721679688,0,0.06888814557621618,-0.001256637061435917,1.3588435424327052,0,0,1.676,0,48
254,434451.08,65.36900000000605,0.3494551086425781,0.11883659362792968,0,0.06447246256867054,0.01980948701013564,1.3645158625016867,0,0,1.688,0,48
255,434516.082,65.00199999997858,0.3416806945800781,0.13088197326660156,0,0.05759586531581287,0.03605850234620284,1.3707990478088663,0,0,1.69,0,48
256,434581.359,65.27700000000186,0.2653280944824219,0.15192048645019532,0,0.06380923745291268,0.04337143191205908,1.377658191769204,0,0,1.671,0,48
257,434646.423,65.06400000001304,0.23326080322265624,0.19504737854003906,0,0.09438740594785335,0.04366813788489812,1.385669253035858,0,0,1.663,0,48
258,434711.7,65.27700000000186,0.20000613403320314,0.24223072814941407,0,0.13329079497480695,0.05016076270231703,1.392807649676515,0,0,1.653,0,48
259,434776.824,65.12400000001071,0.16742738342285157,0.32271273803710937,0,0.1631010185988701,0.055937802526418265,1.39741531890178,0,0,1.645,0,48
260,434842.01,65.18599999998696,0.11535964965820313,0.465464599609375,0,0.18238690683340744,0.05693264020005503,1.4020578947120848,0,0,1.656,0,48
261,434907.135,65.125,0.09107308959960937,0.5707810668945312,0,0.19161969857645744,0.05438445949214331,1.4045188089573968,0,0,1.624,0,48
262,434972.442,65.3069999999716,0.06578067016601563,0.683970458984375,0,0.19333012124341187,0.04836307357276287,1.407573135148387,0,0,1.64,0,48
263,435037.445,65.00300000002608,0.05287834930419922,0.7585674438476563,0,0.18825121312010837,0.04459316238845512,1.4086552392846232,0,0,1.618,0,48
264,435102.752,65.3069999999716,0.05041230010986328,0.8658829956054688,0,0.17165313193364232,0.039322268047432246,1.4092661045228214,0,0,1.605,0,48
265,435167.846,65.09400000004098,0.026828872680664063,0.9753519287109375,0,0.1451590338883684,0.03630284844148206,1.4106274613393768,0,0,1.604,0,48
266,435233.001,65.15499999996973,0.018403440475463866,1.0373028564453124,0,0.11232939065835505,0.031625366046137256,1.4095977170807001,0,0,1.621,0,48
267,435298.309,65.30800000001909,0.0005592994689941406,1.1004024658203124,0,0.07925540133306251,0.02933898472602468,1.4100689559787387,0,0,1.619,0,48
268,435363.464,65.15499999996973,-0.01959238052368164,1.1278148193359374,0,0.045256387504212965,0.029234264970905022,1.40965007695826,0,0,1.614,0,48
269,435428.527,65.06300000002375,-0.04581871032714844,1.197063232421875,0,0.006911503837897546,0.02691297706575256,1.4087075991621831,0,0,1.56,0,48
270,435493.865,65.33799999998882,-0.07505305480957031,1.1843603515625,0,-0.02818706741970842,0.02537708732399755,1.4073986022231875,0,0,1.537,0,48
271,435558.868,65.00300000002608,-0.12974774169921874,1.1268187255859374,0,-0.06250024051391694,0.020210912738094333,1.405932525651512,0,0,1.547,0,48
272,435624.206,65.33799999998882,-0.1882081756591797,1.0689119873046875,0,-0.09810495725460126,0.013037609512397642,1.4052343939507144,0,0,1.532,0,48
273,435689.27,65.06400000001304,-0.20961505126953126,0.9930369873046875,0,-0.12849113953182253,0.00003490658503988659,1.4064561244271105,0,0,1.543,0,48
274,435754.669,65.39899999997579,-0.18736488342285157,0.8048123779296875,0,-0.1540776663660594,-0.01546361717266976,1.408114187216505,0,0,1.53,0,48
275,435819.763,65.09399999998277,-0.16429342651367188,0.5907571411132813,0,-0.17058848108992575,-0.02925171826342496,1.4096151703732203,0,0,1.585,0,48
276,435884.948,65.18499999999767,-0.15381031799316405,0.4410621337890625,0,-0.1791929543022578,-0.04134684997974567,1.410034049393699,0,0,1.536,0,48
277,435950.103,65.15500000002794,-0.14428033447265626,0.25385710144042967,0,-0.17598154847858824,-0.04621631859280985,1.4110637936523756,0,0,1.562,0,48
278,436015.441,65.33799999998882,-0.12169675445556641,0.1185167007446289,0,-0.1593136541220424,-0.04817108735504349,1.4100165961011788,0,0,1.587,0,48
279,436080.474,65.03299999999581,-0.0885032730102539,0.017625003814697265,0,-0.13733995883943378,-0.04820599394008338,1.4087425057472232,0,0,1.591,0,48
280,436145.751,65.27700000000186,-0.059162410736083984,-0.05970099639892578,0,-0.10943214410004444,-0.04148647631990521,1.4091613847677018,0,0,1.62,0,48
281,436210.845,65.09399999998277,-0.035223094940185544,-0.11409680938720704,0,-0.08155923594569502,-0.03291690969261306,1.4093010111078612,0,0,1.565,0,48
282,436276.062,65.21700000000419,-0.01867461395263672,-0.14729594421386719,0,-0.05281366316534841,-0.026441738167714092,1.4107670876795366,0,0,1.591,0,48
283,436341.308,65.24600000004284,-0.0042217826843261716,-0.16471205139160155,0,-0.026022859147235452,-0.024399702942880724,1.4103307553665378,0,0,1.561,0,48
284,436406.402,65.09399999998277,-0.09562425231933594,-0.36668081665039065,0,-0.0006283185307179585,-0.019757127132575807,1.4106798212169367,0,0,1.583,0,48
285,436471.557,65.15499999996973,-0.11419623565673828,-0.40860073852539064,0,0.023963370629882144,-0.014974924982111346,1.411500125965374,0,0,1.588,0,48
286,436536.987,65.43000000005122,-0.13699842834472656,-0.4317138977050781,0,0.047403142484165994,-0.010890854532444616,1.411290686455135,0,0,1.646,0,48
287,436601.928,64.94099999999162,-0.1380850067138672,-0.4050182495117188,0,0.07037167544041137,-0.01473057888683214,1.4122506175437317,0,0,1.618,0,48
288,436667.327,65.39899999997579,-0.1119873504638672,-0.34872677612304687,0,0.09157742585214247,-0.024609142453120045,1.4118840984008127,0,0,1.586,0,48
289,436732.33,65.00300000002608,-0.10254795074462891,-0.27728497314453127,0,0.1136383875973508,-0.03129375348825832,1.4114303127952943,0,0,1.581,0,48
290,436797.546,65.2159999999567,-0.07198580169677735,-0.21255801391601561,0,0.13131857292005336,-0.034557519189487726,1.4116397523055337,0,0,1.562,0,48
291,436862.854,65.30800000001909,-0.05894651031494141,-0.13218267822265625,0,0.1388409419961489,-0.04068362486398782,1.4128265761968897,0,0,1.547,0,48
292,436927.917,65.06300000002375,-0.003959624052047729,-0.0889181900024414,0,0.1382824366355107,-0.046181412007769956,1.4125298702240507,0,0,1.555,0,48
293,436993.072,65.15499999996973,0.012868687629699707,-0.009902292251586915,0,0.132662476444089,-0.04890412564088111,1.4141879330134453,0,0,1.551,0,48
294,437058.41,65.33799999998882,0.08631423950195312,0.05003556442260742,0,0.10414379646650163,-0.04347615166717875,1.4160728886055993,0,0,1.561,0,48
295,437123.352,64.94200000003912,0.16186521911621093,0.008056841850280761,0,0.06407103684071183,-0.0038397243543875246,1.4204536650281048,0,0,1.561,0,48
296,437188.69,65.33799999998882,0.1368816680908203,-0.013506499290466309,0,0.044732788728614664,0.05372123437638546,1.4245551887702914,0,0,1.568,0,48
297,437253.692,65.00199999997858,0.03363557815551758,0.005245611667633056,0,0.03858922976159462,0.10602875205865553,1.4280458472742803,0,0,1.598,0,48
298,437318.908,65.2160000000149,-0.006237617492675781,0.044274272918701174,0,0.03830997708127553,0.145281206936008,1.4296340968935952,0,0,1.595,0,48
299,437384.246,65.33799999998882,-0.16210165405273438,0.07225545501708984,0,0.04359832471481835,0.17376498032855545,1.4304369483495125,0,0,1.609,0,48
300,437449.34,65.09400000004098,-0.27298727416992186,0.12724620819091798,0,0.04492477494633404,0.18462092827596016,1.430873280662511,0,0,1.625,0,48
301,437514.434,65.09399999998277,-0.4321346435546875,0.15177598571777343,0,0.043807764225057666,0.19057250102526085,1.4302449621317932,0,0,1.629,0,48
302,437579.803,65.36900000000605,-0.5351072387695313,0.18322929382324218,0,0.041870448755343966,0.19111355309337905,1.4301053357916336,0,0,1.612,0,48
303,437644.836,65.03299999999581,-0.6439120483398437,0.21420289611816407,0,0.03761184538047779,0.1872912820315115,1.429477017260916,0,0,1.612,0,48
304,437710.113,65.27700000000186,-0.7346424560546875,0.20719444274902343,0,0.03235840433197487,0.18315485170428494,1.4282378334919996,0,0,1.592,0,48
305,437775.177,65.06400000001304,-0.8599876098632813,0.19151527404785157,0,0.024452062820440556,0.17755234480538315,1.4285519927573587,0,0,1.603,0,48
306,437840.393,65.2159999999567,-0.9837600708007812,0.19749504089355469,0,0.011554079648202462,0.17149605230096282,1.4282901933695595,0,0,1.601,0,48
307,437905.822,65.42900000000373,-1.083146240234375,0.14262815856933594,0,0.0004014257279586958,0.16400858980990715,1.4279934873967206,0,0,1.613,0,48
308,437970.886,65.06400000001304,-1.2188021240234375,0.16243992614746094,0,-0.0057246799465414016,0.14765485471872028,1.428796338852638,0,0,1.607,0,48
309,438035.949,65.06300000002375,-1.4104088134765624,0.18551812744140625,0,-0.013281955607676848,0.12491321456523416,1.4266146772876451,0,0,1.582,0,48
310,438101.409,65.45999999996275,-1.763404541015625,0.28858074951171875,0,-0.015376350710070043,0.0955044166691297,1.4272604491108827,0,0,1.57,0,48
311,438166.503,65.09400000004098,-1.73815869140625,0.24704823303222656,0,-0.0176976386152225,0.058800142499688964,1.4254976665663688,0,0,1.557,0,48
312,438231.658,65.15499999996973,-2.0835771484375,0.28674395751953125,0,-0.0210835773640915,0.007260569688296411,1.4252358671785694,0,0,1.544,0,48
313,438296.783,65.125,-2.066053955078125,0.21965309143066405,0,-0.026214845364954827,-0.053878314009064954,1.4237174307293343,0,0,1.547,0,48
314,438361.999,65.2160000000149,-1.7084908447265625,0.13013363647460938,0,-0.028274333882308142,-0.11180579188275674,1.4234381780490155,0,0,1.02,0,48
315,438427.307,65.30799999996088,-1.3480968017578125,0.052991203308105465,0,-0.03092723434533952,-0.16074482410867777,1.4230192990285366,0,0,0.982,0,48
316,438492.37,65.06300000002375,-1.112359619140625,0.0029738621711730955,0,-0.031869712141416456,-0.19802505693127664,1.422652779885618,0,0,0.951,0,48
317,438557.586,65.2160000000149,-1.01992626953125,-0.05304992294311523,0,-0.028605946440187064,-0.2205048976969636,1.4224433403753785,0,0,1.002,0,48
318,438622.863,65.27700000000186,-0.8929801025390625,-0.11239527130126953,0,-0.025080381351158514,-0.23785347046178723,1.420785277585984,0,0,1.039,0,48
319,438687.988,65.125,-0.44812319946289064,-0.14262672424316405,0,-0.01806415775814131,-0.24705135561979732,1.41897013516391,0,0,1.029,0,48
320,438753.143,65.15499999996973,-0.27732919311523435,-0.17238671875,0,-0.004590215932745087,-0.24640558379655944,1.416160155068199,0,0,1.708,0,48
321,438818.328,65.18499999999767,-0.21143862915039063,-0.18706295776367188,0,0.00900589894029074,-0.2317099114947672,1.4141704797209254,0,0,1.626,0,48
322,438883.544,65.2160000000149,-0.05988687896728516,-0.23591494750976563,0,0.02139773662945048,-0.19860101558443474,1.4135072546051677,0,0,1.64,0,48
323,438948.822,65.27799999999115,0.03399832916259766,-0.35165374755859374,0,0.035569810155644435,-0.14292501244581565,1.4148162515441634,0,0,1.648,0,48
324,439013.916,65.09400000004098,0.09943467712402344,-0.3845103759765625,0,0.044715335436094725,-0.09098401390646439,1.4152700371496818,0,0,1.639,0,48
325,439079.04,65.1239999999525,0.159432861328125,-0.3911568603515625,0,0.05400048705670455,-0.04389503068765739,1.417102632864276,0,0,1.678,0,48
326,439144.409,65.36900000000605,0.16943878173828125,-0.37865768432617186,0,0.07093018080104956,-0.005532693728822024,1.4188654154087903,0,0,1.663,0,48
327,439209.472,65.06300000002375,0.1838674774169922,-0.3224052734375,0,0.08752826198751562,0.023212879051524585,1.4251835073010095,0,0,1.655,0,48
328,439274.688,65.2160000000149,0.17797816467285157,-0.20122306823730468,0,0.10032152540463406,0.044104470197896706,1.430960547125111,0,0,1.662,1,48
329,439339.752,65.06399999995483,0.16217111206054688,-0.13991445922851561,0,0.11437142588318841,0.05981243346584567,1.437086652799611,0,0,1.668,1,48
330,439404.968,65.2160000000149,0.10826460266113282,-0.06894620513916015,0,0.13517575056696082,0.05201081170943102,1.4403504185008402,0,0,1.675,1,48
331,439470.245,65.27700000000186,0.09689571380615235,0.04614698028564453,0,0.16034339838071904,0.020088739690454733,1.4387272622964855,0,0,1.679,1,48
332,439535.4,65.15500000002794,0.12149124145507813,0.13357960510253905,0,0.18271851939128633,-0.012444197566719568,1.4363012546362137,0,0,1.688,1,48
333,439600.555,65.15499999996973,0.15109190368652345,0.21397772216796876,0,0.20139354238762566,-0.031241393610698498,1.4391810479020042,0,0,1.714,1,48
334,439665.802,65.24700000003213,0.19267507934570313,0.2906908874511719,0,0.21003292218499764,-0.04352851154473858,1.4420957477528349,0,0,1.689,2,48
335,439730.865,65.06299999996554,0.23576242065429687,0.37822052001953127,0,0.20998056230743778,-0.049567350756638956,1.445080260773745,0,0,1.697,2,48
336,439796.234,65.36900000000605,0.3106002502441406,0.49542678833007814,0,0.20792107379008445,-0.0490612052735606,1.448762905495453,0,0,1.69,2,48
337,439861.267,65.03299999999581,0.36545974731445313,0.589171630859375,0,0.20182987470062427,-0.043563418129778465,1.4522710172919617,0,0,1.677,0,48
338,439926.422,65.15500000002794,0.4666280212402344,0.6670814208984375,0,0.16582373223198124,-0.027139869868511822,1.4620972209806897,0,0,1.67,0,48
339,439991.79,65.36799999995856,0.5068384399414062,0.7911465454101563,0,0.11629128806038218,-0.0068591439603377154,1.47127765284618,0,0,1.067,0,48
340,440056.823,65.03299999999581,0.5749898071289062,0.9505315551757813,0,0.05536184387326013,0.0038571776469074684,1.4766707202348424,0,0,1.059,0,48
341,440121.948,65.125,0.66885693359375,1.0649801025390624,0,-0.016790067404185448,0.0183434104384604,1.4807373373919894,0,0,0.961,1,48
342,440187.347,65.399000000034,0.8024305419921876,1.11026416015625,0,-0.08206538142877337,0.039706240482871,1.4804057248341103,0,0,0.759,1,48
343,440252.288,64.94099999999162,0.8367022094726563,1.08994091796875,0,-0.13372712728780553,0.05899212871740834,1.4796726865482726,0,0,0.753,0,48
344,440317.596,65.30800000001909,0.7982730712890626,1.0210675048828124,0,-0.16695819624577757,0.07583455599915362,1.4781542500990374,0,0,0.736,0,48
345,440382.873,65.27700000000186,0.6507745361328126,0.8392344360351562,0,-0.18036232490109402,0.10283479952750589,1.4750475640304876,0,0,0.744,0,48
346,440447.875,65.00199999997858,0.27533587646484375,0.3473030090332031,0,-0.1817934948877294,0.129887402933418,1.472534289907616,0,0,0.899,0,48
347,440513.305,65.42999999999302,0.11224068450927735,0.13911843872070312,0,-0.1722639971718403,0.14767230801124023,1.4718012516217782,0,0,0.906,0,48
348,440578.369,65.06400000001304,0.0384781494140625,0.07594363403320313,0,-0.16324064493902965,0.15135495273294824,1.474907937690328,0,0,0.907,0,48
349,440643.554,65.18499999999767,-0.04035763549804688,-0.026667903900146485,0,-0.15570082257041412,0.14147638916666036,1.4822732271337442,0,0,0.894,0,48
350,440708.892,65.33799999998882,-0.14314213562011718,-0.14057608032226562,0,-0.15521213037985573,0.12233012727228255,1.4879280939102058,0,0,0.885,0,48
351,440773.925,65.03299999999581,-0.19255940246582032,-0.23931748962402344,0,-0.15807447035312644,0.097878064451842,1.4952061168910222,0,0,0.742,0,48
352,440839.172,65.24700000003213,-0.29240325927734373,-0.37480975341796874,0,-0.15852825595864495,0.07656759428499123,1.5010878764702429,0,0,0.87,0,48
353,440904.327,65.15499999996973,-0.3463779296875,-0.44547683715820313,0,-0.157585778162568,0.052569317070069205,1.5055733726478684,0,0,0.725,0,48
354,440969.787,65.46000000002095,-0.3987572631835937,-0.5646962890625,0,-0.15001104920891264,0.025813419636996137,1.51129805259441,0,0,0.875,0,48
355,441034.881,65.09399999998277,-0.4232451171875,-0.651198974609375,0,-0.135734255927599,-0.0009773843811168245,1.514055672812561,0,0,0.715,0,48
356,441099.884,65.00300000002608,-0.44667291259765624,-0.7047288818359375,0,-0.11348130796467129,-0.022479840765686963,1.5164816804728332,0,0,0.738,0,48
357,441165.039,65.15499999996973,-0.3940844421386719,-0.7237032470703125,0,-0.09194394499506128,-0.048118727477483664,1.5169354660783514,0,0,0.7,0,48
358,441230.438,65.399000000034,-0.3075828857421875,-0.7088427124023438,0,-0.06569419304506656,-0.06991788983489285,1.518000116922068,0,0,0.736,0,48
359,441295.501,65.06299999996554,-0.21892620849609376,-0.668211669921875,0,-0.037192966359999156,-0.08349655141540872,1.5175986911941095,0,0,0.772,0,48
360,441360.748,65.24700000003213,-0.07827052307128907,-0.6079915161132813,0,-0.00952949771588904,-0.0915076126820627,1.5172147187586706,0,0,1.034,1,48
361,441425.811,65.06299999996554,-0.08759976196289063,-0.5439892578125,0,0.012723450247038663,-0.09066985464110541,1.5164293205952735,0,0,1.132,1,48
362,441491.027,65.2160000000149,-0.06573805999755859,-0.537541259765625,0,0.02506292805863857,-0.08435176274888595,1.5147188979283188,0,0,1.6,1,48
363,441556.304,65.27700000000186,-0.04342996215820313,-0.5457267456054687,0,0.027087509990951997,-0.08117526351025627,1.5125721429483658,0,0,1.127,1,48
364,441621.398,65.09399999998277,-0.01496127700805664,-0.5225640258789063,0,0.0313635666583381,-0.08171631557837451,1.510914080158971,0,0,1.583,0,48
365,441686.614,65.2160000000149,0.009417637825012207,-0.4823500671386719,0,0.040927970959267035,-0.0798139066937007,1.510687187356212,0,0,1.582,0,48
366,441752.288,65.67399999999907,0.04744163513183594,-0.4786497802734375,0,0.05225515780471023,-0.07367034772668064,1.5092734706620965,0,0,1.574,0,48
367,441816.833,64.5449999999837,0.12157381439208985,-0.7163101806640625,0,0.0611563369898813,-0.0635299847725936,1.5099716023628942,0,0,1.58,0,48
368,441882.263,65.42999999999302,0.17853697204589844,-0.8295037841796875,0,0.06766641509982015,-0.05016076270231703,1.5087324185939783,0,0,1.572,0,48
369,441947.265,65.00200000003679,0.20266639709472656,-0.78793017578125,0,0.07859217621730466,-0.03759439208795786,1.5077550342128616,0,0,1.564,1,48
370,442012.451,65.18599999998696,0.21437046813964844,-0.7143504638671875,0,0.09717993275104427,-0.0233001455141243,1.5076154078727018,0,0,1.568,2,48
371,442077.728,65.27700000000186,0.26737112426757814,-0.6862794799804688,0,0.12278391287780109,-0.0032463124087094525,1.5082437264034196,0,0,1.547,2,48
372,442142.852,65.12400000001071,0.2859983520507812,-0.6352943725585938,0,0.15283848259714344,0.023317598806644243,1.5093432838321763,0,0,1.536,2,48
373,442207.977,65.125,0.28182489013671874,-0.5600342407226563,0,0.17875662198925926,0.0478918346747244,1.5094829101723357,0,0,1.529,2,48
374,442273.315,65.33799999998882,0.29389593505859374,-0.39791943359375,0,0.1936966403863307,0.06630505828326458,1.5091163910294167,0,0,1.516,1,48
375,442338.348,65.03299999999581,0.23292538452148437,-0.23622773742675782,0,0.20134118251006583,0.08447393579652554,1.5094480035872957,0,0,1.506,0,48
376,442403.656,65.30800000001909,0.18852139282226563,-0.05521411895751953,0,0.1962797276792823,0.10285225282002583,1.5100763221180138,0,0,1.56,0,48
377,442468.719,65.06299999996554,0.11699906921386719,0.05595962524414062,0,0.17580701555338882,0.1090830782496456,1.5080691934782207,0,0,1.511,0,48
378,442533.935,65.2160000000149,0.0666316146850586,0.16489688110351564,0,0.15252432333178448,0.10730284241261137,1.5052243067974693,0,0,1.54,0,48
379,442599.243,65.30800000001909,-0.0017189836502075194,0.30487518310546874,0,0.133273341682287,0.09958848711879645,1.5028855655997972,0,0,1.47,0,48
380,442664.306,65.06299999996554,-0.03102556610107422,0.42651364135742187,0,0.10267771989482641,0.0863065315111196,1.4983477095446118,0,0,1.459,0,48
381,442729.583,65.27700000000186,-0.04046151351928711,0.4748729248046875,0,0.06366961111275314,0.07208209810736581,1.4942112792173854,0,0,1.448,0,48
382,442794.921,65.33799999998882,-0.052766223907470704,0.5034637145996094,0,0.03038618227722128,0.059480820907966754,1.4923961367953114,0,0,1.434,0,48
383,442859.924,65.00300000002608,-0.035969413757324216,0.5214060668945313,0,-0.013107422682477414,0.049951323192077714,1.488399332808244,0,0,1.437,1,48
384,442925.231,65.3070000000298,0.05343527603149414,0.4648016662597656,0,-0.05979498017332573,0.038624136346634516,1.486304937705851,0,0,1.429,1,48
385,442990.295,65.06399999995483,0.05050149536132813,0.3854810180664062,0,-0.08733627576979625,0.028204520712228367,1.4841058228483384,0,0,1.428,1,48
386,443055.603,65.30800000001909,-0.10180039978027344,0.33681072998046874,0,-0.1013861762483506,0.03555235686312449,1.479829766180952,0,0,1.428,0,48
387,443120.788,65.18499999999767,-0.2225906524658203,0.20393829345703124,0,-0.1103746218961214,0.05092870757319454,1.4732673281934536,0,0,1.423,1,48
388,443185.913,65.125,-0.31586978149414063,0.1404427490234375,0,-0.10847221301144758,0.058573249696929695,1.4720805043020972,0,0,1.428,0,48
389,443251.068,65.15500000002794,-0.4167207336425781,0.13763742065429688,0,-0.10786134777324957,0.04651302456564888,1.4717314384516984,0,0,1.445,0,48
390,443316.528,65.45999999996275,-0.4227015380859375,0.07759861755371093,0,-0.11287044272647329,0.010786134777324957,1.472464476737536,0,0,1.438,0,48
391,443381.5,64.97200000000885,-0.38809039306640625,0.019984533309936523,0,-0.1025555468471868,-0.02565634000431664,1.4733022347784934,0,0,1.435,1,48
392,443446.777,65.27700000000186,-0.36903619384765624,-0.041552616119384767,0,-0.07801621756414652,-0.049113565151120434,1.4725168366150958,0,0,1.439,1,48
393,443511.871,65.09399999998277,-0.3618545227050781,-0.09743106842041016,0,-0.050056042947197364,-0.06401867696315201,1.4704573480977425,0,0,1.447,1,48
394,443577.087,65.2160000000149,-0.2776142578125,-0.12205850219726562,0,-0.024277529895241123,-0.07269296334556383,1.4676822745870715,0,0,1.487,1,48
395,443642.364,65.27700000000186,-0.2411697998046875,-0.1543651580810547,0,-0.0014660765716752368,-0.07428121296487868,1.463458577797245,0,0,1.464,1,48
396,443707.733,65.36900000000605,-0.16306690979003907,-0.14092262268066405,0,0.014782938764391972,-0.06761405522226033,1.4608056773342137,0,0,1.474,1,48
397,443772.644,64.91099999996368,-0.14893199157714843,-0.16157269287109374,0,0.029757863746503316,-0.05323254218582704,1.4601948120960158,0,0,1.483,1,48
398,443837.951,65.3070000000298,-0.10279977416992188,-0.1539329833984375,0,0.04571017310973149,-0.04267330021126135,1.4621495808582499,0,0,1.506,1,48
399,443902.954,65.00300000002608,-0.10707181549072266,-0.11215657806396484,0,0.06452482244623037,-0.03361504139341078,1.4646977615661614,0,0,1.492,1,48
400,443968.2,65.24599999998463,-0.07204441833496093,-0.0768683853149414,0,0.07730063257082886,-0.027174776453551708,1.4675426482469123,0,0,1.5,1,48
401,444033.294,65.09399999998277,-0.03906735229492188,-0.027450244903564455,0,0.08229227423153262,-0.02483603525587931,1.4703700816351426,0,0,1.503,2,48
402,444098.541,65.24700000003213,-0.02898442268371582,0.006997866630554199,0,0.08443902921148566,-0.0200363798128949,1.472447023445016,0,0,1.51,2,48
403,444163.757,65.2159999999567,-0.006824169158935547,0.04467478179931641,0,0.08511970761976345,-0.014590952546672595,1.4748381245202482,0,0,1.522,2,48
404,444228.912,65.15500000002794,0.016580062866210936,0.09771481323242187,0,0.08313003227248991,-0.007504915783575617,1.478049530343918,0,0,1.525,2,48
405,444294.158,65.24599999998463,0.03249054336547851,0.12990328979492188,0,0.07756243195862801,-0.00008726646259971648,1.4815576421404264,0,0,1.514,2,48
406,444359.375,65.21700000000419,0.04714231109619141,0.18348690795898437,0,0.07073819458333018,0.0024260076602721182,1.485379913202294,0,0,1.512,2,48
407,444424.377,65.00199999997858,0.03571096801757812,0.21713772583007812,0,0.06105161723476165,0.0021991148575128553,1.4874044951346075,0,0,1.512,1,48
408,444489.624,65.24700000003213,0.05639791488647461,0.2522075653076172,0,0.05265658353266892,0.004642575810304917,1.4904588213255976,0,0,1.514,1,48
409,444554.748,65.12400000001071,0.06426899719238281,0.257052734375,0,0.042708206796301246,0.0076270888312152205,1.49283246910831,0,0,1.513,1,48
410,444619.964,65.2159999999567,0.07498048400878907,0.26687905883789065,0,0.03392920065876977,0.01195550537616116,1.4951188504284225,0,0,1.507,1,48
