n,time,dt,vx,vy,vz,roll,pitch,yaw,x,y,z,detected,battery
0,1536786.407,1536786.407,1.6862258780747653e-7,-1.0372498945798724e-7,0,0.013194689145077132,-0.022811453323565885,1.3399765332186466,0,0,0.242,0,53
1,1537022.064,NaN,1.401298464324817e-48,-4.203895392974451e-48,0,0.00003490658503988659,0.000017453292519943296,1.339784547000927,0,0,0.242,0,53
2,1537152.282,NaN,0,-8.407790785948903e-48,0,0.00010471975511965978,0,1.3398369068784868,0,0,0.242,0,53
3,1537222.564,NaN,-1.401298464324817e-48,-2.382207389352189e-47,0,0.00034906585039886593,0,1.339784547000927,0,0,0.242,0,53
4,1537292.663,NaN,-2.802596928649634e-48,-3.783505853677006e-47,0,0.0005235987755982988,-0.00003490658503988659,1.339784547000927,0,0,0.242,0,53
5,1537357.818,NaN,-7.006492321624086e-48,-5.184804318001823e-47,0,0.0007330382858376184,-0.00010471975511965978,1.3404477721166852,0,0,0.243,0,53
6,1537423.156,65.33799999998882,-1.6815581571897805e-47,-5.74532370373175e-47,0,0.0008028514559173916,-0.00022689280275926284,1.3393831212729685,0,0,0.242,0,53
7,1537488.159,65.00300000002608,-4.484155085839415e-47,-7.847271400218976e-47,0,0.0010995574287564276,-0.0006283185307179585,1.3399590799261267,0,0,0.242,0,53
8,1537553.375,65.2160000000149,-4.764414778704378e-47,-8.688050478813866e-47,0,0.001239183768915974,-0.0006806784082777885,1.3398369068784868,0,0,0.242,0,53
9,1537618.56,65.18500000005588,-4.484155085839415e-47,-9.248569864543793e-47,0,0.001308996938995747,-0.0006283185307179585,1.3398892667560467,0,0,0.242,0,53
10,1537683.746,65.18599999998696,-5.184804318001823e-47,-9.248569864543793e-47,0,0.001308996938995747,-0.0007330382858376184,1.3397147338308475,0,0,0.242,0,53
11,1537748.901,65.15500000002794,-5.184804318001823e-47,-9.528829557408757e-47,0,0.001361356816555577,-0.0007330382858376184,1.339854360171007,0,0,0.242,0,53
12,1537814.056,65.15500000002794,-5.885453550164232e-47,-9.388699710976275e-47,0,0.0013439035240356337,-0.0008377580409572782,1.339784547000927,0,0,0.242,0,53
13,1537879.211,65.15499999979511,-6.726232628759122e-47,-9.9492190967062e-47,0,0.0013962634015954637,-0.0009424777960769379,1.339854360171007,0,0,0.243,0,53
14,1537944.915,65.70400000014342,-8.96831017167883e-47,-1.14906474074635e-46,0,0.0016406094968746698,-0.0012740903539558604,1.3401859727288858,0,0,0.242,0,53
15,1538009.552,64.63699999987148,-7.847271400218976e-47,-9.108440018111311e-47,0,0.001291543646475804,-0.001117010721276371,1.340412865531645,0,0,0.243,0,53
16,1538074.737,65.18500000005588,-5.605193857299268e-47,-8.407790785948902e-47,0,0.001186823891356144,-0.0008028514559173916,1.3396449206607675,0,0,0.242,0,53
17,1538139.953,65.2160000000149,-1.0089348943138682e-46,-8.688050478813866e-47,0,0.0012217304763960308,-0.0014311699866353504,1.3406397583344043,0,0,0.243,0,53
18,1538205.078,65.125,-9.388699710976275e-47,-9.388699710976275e-47,0,0.0013264502315156904,-0.0013264502315156904,1.3397321871233672,0,0,0.243,0,53
19,1538270.263,65.18500000005588,-8.407790785948902e-47,-7.146622168056567e-47,0,0.0010122909661567112,-0.001186823891356144,1.3398020002934472,0,0,0.242,0,53
20,1538335.418,65.15500000002794,-1.387285479681569e-46,-8.828180325246348e-47,0,0.001239183768915974,-0.0019722220547535923,1.340500131994245,0,0,0.242,0,53
21,1538400.543,65.125,-7.567011707354012e-47,-9.248569864543793e-47,0,0.001308996938995747,-0.0010821041362364843,1.3393133081028885,0,0,0.242,0,53
22,1538465.911,65.36800000001676,-1.2051166793193426e-46,-9.388699710976275e-47,0,0.0013264502315156904,-0.0016929693744344998,1.3396623739532876,0,0,0.242,0,53
23,1538530.914,65.00300000002608,-8.127531093083939e-47,-1.0089348943138682e-46,0,0.0014311699866353504,-0.0011519173063162574,1.3392784015178487,0,0,0.242,0,53
24,1538596.16,65.24599999981001,-1.0369608636003646e-46,-8.828180325246348e-47,0,0.001239183768915974,-0.0014660765716752368,1.3392958548103688,0,0,0.242,0,53
25,1538661.224,65.06400000001304,-1.3592595103950726e-46,-1.2051166793193426e-46,0,0.001710422666954443,-0.0019198621771937623,1.3392958548103688,0,0,0.242,0,53
26,1538726.501,65.27700000000186,-1.2191296639625908e-46,-7.987401246651458e-47,0,0.0011344640137963143,-0.0017278759594743865,1.3386849895721704,0,0,0.242,0,53
27,1538791.687,65.18599999998696,-1.5834672646870433e-46,-4.764414778704378e-47,0,0.0006632251157578452,-0.002251474735072685,1.3393656679804484,0,0,0.242,0,53
28,1538856.811,65.12400000006892,-1.9057659114817514e-46,-4.344025239406933e-47,0,0.0006108652381980154,-0.0027052603405912107,1.3406397583344043,0,0,0.242,0,53
29,1538921.966,65.15500000002794,-2.0458957579142328e-46,-5.605193857299268e-47,0,0.0007853981633974483,-0.002897246558310587,1.3421931013686792,0,0,0.243,0,53
30,1538987.274,65.30799999996088,-1.98984381934124e-46,-7.707141553786494e-47,0,0.0010821041362364843,-0.002844886680750757,1.3452474275596693,0,0,0.242,0,53
31,1539052.276,65.002000000095,-2.14398665041697e-46,-1.4993893568275542e-46,0,0.002129301687433082,-0.0030543261909900766,1.345613946702588,0,0,0.242,0,53
32,1539117.523,65.24699999997392,-2.480298281854926e-46,-1.2891945871788317e-46,0,0.0018325957145940458,-0.003525565089028546,1.3474989022947421,0,0,0.242,0,53
33,1539182.617,65.09400000004098,-2.7185190207901452e-46,-1.2191296639625908e-46,0,0.0017453292519943296,-0.0038746309394274117,1.3477432483900214,0,0,0.242,0,53
34,1539248.199,65.58199999993667,-4.035739577255473e-46,-2.8025969286496343e-46,0,0.003996803987067014,-0.005759586531581288,1.3478828747301808,0,0,0.241,0,53
35,1539313.262,65.06300000008196,-5.633219826585765e-46,-3.026804682941605e-46,0,0.004310963252425994,-0.008028514559173916,1.3452474275596693,0,0,0.242,0,53
36,1539378.234,64.97199999983422,-6.726232628759122e-46,-2.788583944006386e-46,0,0.003961897402027128,-0.009599310885968814,1.3388071626198104,0,0,0.242,0,53
37,1539443.511,65.27700000000186,-2.4382593279251815e-46,-6.137687273742699e-46,0,0.008761552845011535,-0.0034732052114687163,1.327863948209806,0,0,0.241,0,53
38,1539508.789,65.27800000016578,1.8216880036222623e-46,-9.024362110251822e-46,0,0.012863076587198208,0.0026005405854715507,1.3231341059369013,0,0,0.241,0,53
39,1539573.791,65.00199999986216,-2.354181420065693e-46,-1.3116153626080289e-45,0,0.018709929581379212,-0.0033684854563490563,1.3240765837329782,0,0,0.241,0,53
40,1539639.038,65.24699999997392,-1.0453686543863135e-45,-7.370829922348538e-46,0,0.010506882097005862,-0.014905111812031574,1.3211269772971075,0,0,0.242,0,53
41,1539704.223,65.18500000005588,-1.622703621688138e-45,1.7376100957627732e-46,0,-0.002478367537831948,-0.02314306588144481,1.3192071151199138,0,0,0.242,0,53
42,1539769.439,65.2160000000149,-1.806273720514689e-45,6.880375459834852e-46,0,-0.009808750396208132,-0.025761059759436305,1.3211967904671875,0,0,0.242,0,53
43,1539834.655,65.2160000000149,-1.3186218549296528e-45,4.862505671207115e-46,0,-0.006928957130417489,-0.01879719604397893,1.3250016082365352,0,0,0.242,0,53
44,1539899.932,65.27700000000186,-4.722375824774634e-46,2.536350220427919e-46,0,-0.0036128315516282617,-0.006719517620178169,1.3307437414755963,0,0,0.242,0,53
45,1539964.965,65.03300000005402,0.0061804080009460445,0.00852229118347168,0,-0.0012740903539558604,-0.0008377580409572782,1.1901400169349332,0,0,0.242,0,53
46,1540030.364,65.39899999997579,0.0068959732055664065,0.014695201873779297,0,-0.004956735075663896,0.001117010721276371,1.1959345100515546,0,0,0.254,0,53
47,1540095.367,65.00300000002608,-0.0020864801406860352,0.018011287689208986,0,-0.001239183768915974,0.004956735075663896,1.2017115498756556,0,0,0.27,0,53
48,1540160.552,65.18499999982305,-0.0006248428821563721,0.00025205421447753906,0,-0.0096342174710087,0.0006108652381980154,1.2055338209375233,0,0,0.324,0,53
49,1540225.769,65.21700000017881,-0.009881893157958984,-0.03927802276611328,0,-0.017278759594743863,-0.00645771823237902,1.2097226111423096,0,0,0.363,0,53
50,1540290.863,65.09399999980815,0.010723413467407227,-0.04952570343017578,0,-0.016510814723866358,-0.009546951008408983,1.2132132696462983,0,0,0.453,0,53
51,1540356.109,65.24600000004284,0.010725027084350585,-0.06712545013427734,0,-0.01001818990644745,-0.012618730491919002,1.217018087415646,0,0,0.543,0,53
52,1540421.295,65.18599999998696,0.02382762908935547,-0.07165615844726562,0,-0.003490658503988659,-0.010838494654884786,1.2184667106948013,0,0,0.583,0,53
53,1540486.358,65.06300000008196,0.04403438949584961,-0.05938178253173828,0,0.008272860654453122,-0.006475171524898962,1.221608303348391,0,0,0.656,0,53
54,1540551.666,65.30799999996088,0.052672008514404296,-0.044630813598632815,0,0.022706733568446227,-0.0037350045992678655,1.2238597780834637,0,0,0.722,0,53
55,1540616.729,65.06300000008196,0.050644245147705075,-0.06459836578369141,0,0.03104940739297912,-0.002181661564992912,1.2235805254031447,0,0,0.752,1,53
56,1540681.976,65.24699999997392,0.02615125846862793,-0.072505126953125,0,0.031642819338657195,0.00003490658503988659,1.2232314595527458,0,0,0.793,1,53
57,1540746.978,65.00199999986216,-0.019410179138183593,-0.07683150482177735,0,0.03077015471266003,0.0027925268031909274,1.2217304763960306,0,0,0.809,1,53
58,1540812.255,65.27700000000186,-0.038004749298095705,-0.08579631042480469,0,0.025778513051956248,0.00003490658503988659,1.2205087459196347,0,0,0.816,1,53
59,1540877.563,65.30800000019372,-0.041898307800292967,-0.10150531768798828,0,0.023527038316883565,-0.0024609142453120045,1.2198629740963969,0,0,0.813,1,53
60,1540942.535,64.97199999983422,-0.06316783142089843,-0.11114474487304687,0,0.030997047515419294,-0.0021118483949131386,1.2184667106948013,0,0,0.805,1,53
61,1541007.69,65.15500000002794,-0.06848089599609375,-0.10804784393310547,0,0.04244640740850209,-0.0063006385996995295,1.2174544197286445,0,0,0.785,1,53
62,1541073.089,65.39899999997579,-0.06995161437988281,-0.08317362976074219,0,0.049113565151120434,-0.01059414855960558,1.2168435544904466,0,0,0.765,1,53
63,1541138.061,64.97200000006706,-0.0514557876586914,-0.04669918441772461,0,0.04309217923174,-0.014346606451393388,1.2165643018101273,0,0,0.756,0,53
64,1541203.277,65.2160000000149,-0.024612390518188476,-0.029024440765380858,0,0.036198128686362394,-0.00884881930761125,1.2165468485176076,0,0,0.748,0,53
65,1541268.402,65.125,-0.03030672264099121,-0.011961359977722168,0,0.03495894491744642,-0.0011344640137963143,1.2168610077829667,0,0,0.731,0,53
66,1541333.587,65.18500000005588,-0.017393135070800782,0.021549867630004882,0,0.028693212902786775,0.002181661564992912,1.2171228071707656,0,0,0.712,0,53
67,1541398.864,65.27700000000186,-0.02140778350830078,0.0494215202331543,0,0.02420771672516135,0.005166174585903216,1.2168435544904466,0,0,0.705,0,53
68,1541463.989,65.125,-0.02158346176147461,0.07584272003173828,0,0.01546361717266976,0.001117010721276371,1.2152727581636515,0,0,0.703,0,53
69,1541529.083,65.09400000004098,-0.01223881435394287,0.0725467300415039,0,0.0027925268031909274,-0.00460766922526503,1.2138415881770164,0,0,0.701,0,53
70,1541594.482,65.39899999997579,-0.0014703123569488525,0.08486444854736327,0,-0.0053058009260627615,-0.009128071987930345,1.2135099756191374,0,0,0.697,0,53
71,1541659.484,65.00199999986216,-0.0025708210468292237,0.06784790802001953,0,-0.004642575810304917,-0.008220500776893291,1.2150109587758524,0,0,0.7,0,53
72,1541724.792,65.30799999996088,0.014976873397827148,0.048565135955810544,0,0.0016755160819145565,-0.003996803987067014,1.2164595820550077,0,0,0.704,0,53
73,1541790.008,65.2160000000149,-0.0054363164901733395,0.04669510269165039,0,0.0061959188445798695,0.003490658503988659,1.2207879985999537,0,0,0.708,0,53
74,1541855.133,65.125,0.005221460819244385,0.05723125457763672,0,0.0036128315516282617,0.002879793265790644,1.2237376050358242,0,0,0.712,0,53
75,1541920.44,65.3070000000298,-0.003361883640289307,0.06320045471191406,0,0.00013962634015954637,0.006475171524898962,1.2289212329142474,0,0,0.721,0,53
76,1541985.473,65.03300000005402,0.0056366868019104,0.05209999847412109,0,0.0020420352248333657,0.010367255756846317,1.2319930123977572,0,0,0.727,0,53
77,1542050.659,65.18599999998696,-0.010234665870666505,0.04996862030029297,0,0.008395033702092724,0.014084807063594239,1.235169511636387,0,0,0.736,1,53
78,1542115.997,65.33799999998882,-0.01337545680999756,0.0730066909790039,0,0.006771877497737999,0.013439035240356337,1.2370893738135806,0,0,0.737,0,53
79,1542180.999,65.002000000095,-0.016989801406860353,0.07101337432861328,0,-0.00322885911618951,0.007958701389094143,1.2395328347663728,0,0,0.74,1,53
80,1542246.307,65.30799999996088,-0.04066706085205078,0.07197593688964844,0,-0.006108652381980153,0,1.2427442405900424,0,0,0.741,1,53
81,1542311.431,65.12400000006892,-0.04170469284057617,0.06787382507324219,0,-0.004380776422505768,-0.009197885158010117,1.2424649879097234,0,0,0.738,0,53
82,1542376.586,65.15499999979511,-0.04247492599487305,0.05913573455810547,0,-0.002181661564992912,-0.011571532940722405,1.2421159220593245,0,0,0.739,0,53
83,1542442.26,65.67400000011548,-0.046596092224121095,0.04646461868286133,0,0.002967059728390361,-0.007016223593017205,1.2421682819368842,0,0,0.734,0,53
84,1542507.049,64.78900000010617,-0.04153765869140625,0.06656886291503906,0,0.012095131716320704,-0.0005061454830783556,1.2424475346172033,0,0,0.732,0,53
85,1542572.082,65.03299999982119,-0.038672306060791015,0.08223088836669921,0,0.01933824811209717,-0.0037350045992678655,1.2399517137868514,0,0,0.73,0,53
86,1542637.512,65.43000000016764,-0.022938270568847657,0.11170133972167968,0,0.022392574303087245,-0.00890117918517108,1.2385030905076961,0,0,0.728,0,53
87,1542702.514,65.00199999986216,-0.012326394081115723,0.15981451416015624,0,0.020943951023931952,-0.012601277199399059,1.237700239051779,0,0,0.733,0,53
88,1542767.791,65.27700000000186,0.02170903205871582,0.17182765197753908,0,0.015446163880149815,-0.008429940287132611,1.237578066004139,0,0,0.734,0,53
89,1542832.855,65.06400000001304,0.00043231332302093507,0.19427760314941406,0,0.012182398178920419,0.004328416544945937,1.2369322941809011,0,0,0.74,0,53
90,1542898.071,65.2160000000149,-0.013615766525268554,0.19348779296875,0,0.012252211349000194,0.012932889757277981,1.2344190200580296,0,0,0.745,0,53
91,1542963.317,65.24600000004284,-0.018397581100463866,0.20881343078613282,0,0.01392772743091475,0.013962634015954637,1.233005303363914,0,0,0.755,0,53
92,1543028.35,65.03300000005402,-0.01652195167541504,0.23416658020019532,0,0.005864306286700947,0.005811946409141117,1.2327260506835949,0,0,0.763,0,53
93,1543093.505,65.15499999979511,-0.031221935272216797,0.24977767944335938,0,-0.00645771823237902,-0.0033684854563490563,1.2322199052005165,0,0,0.763,0,53
94,1543158.813,65.30800000019372,-0.034323951721191404,0.2363430938720703,0,0.008115781021773634,0.0005759586531581287,1.2309109082615208,0,0,0.771,0,53
95,1543223.815,65.00199999986216,-0.05346304702758789,0.22688700866699218,0,0.01879719604397893,0.01661553447898602,1.2304047627784425,0,0,0.771,0,53
96,1543289.031,65.2160000000149,-0.0453277587890625,0.2604972839355469,0,0.011431906600562858,0.03207915165165578,1.2294797382748857,0,0,0.781,0,53
97,1543354.125,65.09400000004098,-0.07147979736328125,0.28833343505859377,0,-0.0023212879051524586,0.03581415625092364,1.2299858837579638,0,0,0.785,0,53
98,1543419.372,65.24699999997392,-0.09566278076171875,0.28902822875976564,0,-0.012531464029319286,0.04131194339470578,1.229916070587884,0,0,0.789,0,53
99,1543484.71,65.33799999998882,-0.12700661468505858,0.2901849365234375,0,-0.02675589743307307,0.039514254265151615,1.2291481257170065,0,0,0.794,0,53
100,1543549.713,65.00300000002608,-0.18992166137695313,0.30465899658203127,0,-0.0398284135305106,0.03501130479500625,1.2304047627784425,0,0,0.789,0,53
101,1543614.837,65.12400000006892,-0.21570205688476562,0.299833251953125,0,-0.059323741275287264,0.029216811678385076,1.2314868669146788,0,0,0.773,0,53
102,1543680.175,65.33799999998882,-0.20527066040039063,0.26906195068359373,0,-0.08148942277561524,0.021048670779051613,1.2314868669146788,0,0,0.752,0,53
103,1543745.269,65.09400000004098,-0.2608761291503906,0.21725892639160158,0,-0.09197885158010115,0.015009831567151233,1.2332496494591931,0,0,0.743,0,53
104,1543810.394,65.125,-0.30101785278320314,0.13498992919921876,0,-0.09587093581204853,0.005602506898901799,1.2361992558950636,0,0,0.725,0,53
105,1543875.518,65.12399999983609,-0.29767657470703124,0.06358494567871094,0,-0.0948935514309317,-0.003298672286269283,1.2394804748888129,0,0,0.711,0,53
106,1543940.765,65.24699999997392,-0.28007171630859373,-0.05653910827636719,0,-0.08524188066740306,-0.01001818990644745,1.241609776576246,0,0,0.695,0,53
107,1544006.408,65.64300000015646,-0.26132846069335935,-0.14335585021972655,0,-0.07070328799829029,-0.016091935703387718,1.2431980261955609,0,0,0.682,0,53
108,1544071.289,64.88100000005215,-0.24418110656738282,-0.23769981384277344,0,-0.053651421206305686,-0.022183134792847926,1.2437041716786392,0,0,0.668,0,53
109,1544136.474,65.18499999982305,-0.2195672302246094,-0.2512059631347656,0,-0.03511602455012591,-0.026965336943312393,1.244716462644796,0,0,0.662,0,53
110,1544201.721,65.24699999997392,-0.19342127990722657,-0.2502400665283203,0,-0.011711159280881954,-0.027052603405912107,1.2465316050668702,0,0,0.671,0,53
111,1544266.723,65.002000000095,-0.16729281616210936,-0.23414215087890625,0,0.013788101090755204,-0.02949606435870417,1.2472820966452276,0,0,0.683,0,53
112,1544331.939,65.2160000000149,-0.11721149444580078,-0.24734487915039063,0,0.04562290664713177,-0.032114058236695664,1.2469504840873487,0,0,0.67,0,53
113,1544397.155,65.2160000000149,-0.10254986572265624,-0.21300155639648438,0,0.06805038753525891,-0.034208453339088854,1.2450131686176351,0,0,0.682,0,53
114,1544462.28,65.125,-0.053846397399902345,-0.1602071533203125,0,0.0862716249260797,-0.035238197597765517,1.2411559909707275,0,0,0.686,0,53
115,1544527.587,65.3070000000298,-0.03264568328857422,-0.041422531127929686,0,0.09831439676484058,-0.03143337982841787,1.237612972589179,0,0,0.705,0,53
116,1544592.651,65.06400000001304,-0.011345830917358399,0.006807492733001709,0,0.10297442586766545,-0.029199358385865133,1.2341048607926706,0,0,0.711,0,53
117,1544657.897,65.24600000004284,-0.00564464282989502,0.05377054595947266,0,0.10100220381291185,-0.021118483949131385,1.2325689710509153,0,0,0.731,0,53
118,1544723.175,65.27799999993294,-0.0005876541137695313,0.11139026641845703,0,0.08838347332099285,-0.008988445647770796,1.232743503976115,0,0,0.741,0,53
119,1544788.299,65.12400000006892,0.001152683138847351,0.1420213623046875,0,0.06747442888210077,-0.0012740903539558604,1.233389275799353,0,0,0.753,0,53
120,1544853.424,65.125,0.00012616223096847533,0.18036198425292968,0,0.04199262180298357,0.004991641660703782,1.2349775254186677,0,0,0.755,0,53
121,1544918.579,65.15499999979511,0.01045595359802246,0.3009895629882812,0,0.010367255756846317,0.008412486994612669,1.2355360307793057,0,0,0.764,0,53
122,1544983.795,65.2160000000149,-0.004987170696258545,0.20626388549804686,0,-0.014870205226991689,0.012863076587198208,1.2371242803986209,0,0,0.758,0,53
123,1545049.072,65.27700000000186,-0.009862746238708496,0.23471134948730468,0,-0.03906046865963309,0.014817845349431856,1.2449259021550352,0,0,0.746,0,53
124,1545114.135,65.06300000008196,-0.015870626449584962,0.2893477783203125,0,-0.05955063407804652,0.016161748873467493,1.256130915952839,0,0,0.74,0,53
125,1545179.29,65.15500000002794,0.003112405300140381,0.1790397186279297,0,-0.07929030791810239,0.0015184364492350666,1.2696572176557948,0,0,0.744,0,53
126,1545244.537,65.24699999997392,0.013768129348754883,0.19588795471191406,0,-0.10496410121493899,-0.019704767255015982,1.2824155744878736,0,0,0.785,0,53
127,1545309.6,65.06300000008196,0.020472179412841796,0.03317156982421875,0,-0.12068951777540789,-0.042551127163621756,1.2944757996191545,0,0,0.775,0,53
128,1545374.877,65.27700000000186,0.04731221771240234,-0.03522697448730469,0,-0.12795008746370432,-0.06351253148007364,1.3023297812531287,0,0,0.805,0,53
129,1545439.91,65.03299999982119,0.08089375305175782,-0.09125621032714844,0,-0.12641419772194928,-0.07450810576763793,1.3073563294988726,0,0,0.858,0,53
130,1545505.187,65.27700000000186,0.1104415283203125,-0.11582369232177735,0,-0.11505210429146619,-0.07932521450314228,1.3094158180162259,0,0,1.292,0,53
131,1545570.465,65.27800000016578,0.12036222839355469,-0.31140936279296877,0,-0.10267771989482641,-0.0817512221634144,1.3108644412953812,0,0,0.922,0,53
132,1545635.467,65.00199999986216,0.15832618713378907,-0.35371865844726563,0,-0.09026842891314671,-0.07890633548266364,1.3119116388465777,0,0,0.933,0,53
133,1545700.622,65.15500000002794,0.1662624206542969,-0.37066815185546875,0,-0.07321656212116213,-0.06574655292262639,1.309625257526465,0,0,0.949,0,53
134,1545765.991,65.36899999994785,0.18673419189453125,-0.36595513916015626,0,-0.04392993727269727,-0.0538957673015849,1.3064138517027957,0,0,0.989,0,53
135,1545830.963,64.97200000006706,0.20446435546875,-0.347650390625,0,-0.01879719604397893,-0.04260348704118158,1.3042670967228425,0,0,1.015,0,53
136,1545896.179,65.2160000000149,0.21499261474609374,-0.3170634765625,0,0.00301941960595019,-0.03412118687648914,1.3017363693074508,0,0,1.077,0,53
137,1545961.334,65.15500000002794,0.43212109375,-0.4905131530761719,0,0.013945180723434694,-0.024766222085799535,1.3013698501645319,0,0,1.081,0,53
138,1546026.55,65.2160000000149,0.4652914123535156,-0.4703636169433594,0,0.014503686084072877,-0.012007865253720985,1.3008637046814537,0,0,1.123,0,53
139,1546091.796,65.24600000004284,0.46394143676757815,-0.4406339111328125,0,0.017400932642383467,-0.00012217304763960306,1.3012302238243725,0,0,1.151,0,53
140,1546156.89,65.09399999980815,0.43561578369140624,-0.41377105712890627,0,0.028728119487826664,0.014276793281313616,1.3002179328582157,0,0,1.154,0,53
141,1546222.106,65.2160000000149,0.42178695678710937,-0.3938632507324219,0,0.04590215932745086,0.03262020371977402,1.3014920232121714,0,0,1.187,1,53
142,1546287.963,65.85700000007637,0.3992531433105469,-0.33737692260742186,0,0.06342526501747393,0.04763003528692525,1.301596742967291,0,0,1.213,1,53
143,1546352.478,64.51499999989755,0.3452689208984375,-0.28027886962890625,0,0.06661921754862356,0.04523893421169302,1.3006717184637342,0,0,1.228,1,53
144,1546417.694,65.2160000000149,0.3522005920410156,-0.1855996856689453,0,0.04209734155810323,0.01907644872429802,1.2989962023818198,0,0,1.262,1,53
145,1546482.94,65.24600000004284,0.3839473876953125,-0.16773936462402345,0,0.012112585008840646,0.0015358897417550098,1.2983853371436214,0,0,1.269,1,53
146,1546548.065,65.125,0.3369001770019531,-0.18761688232421875,0,0.003560471674068432,0.002670353755551324,1.2999037735928567,0,0,1.296,1,53
147,1546613.311,65.24600000004284,0.3036391296386719,-0.20617086791992187,0,0.003455751918948773,0.009040805525330627,1.3006717184637342,0,0,1.313,1,53
148,1546678.466,65.15500000002794,0.278661865234375,-0.20990899658203124,0,0.012723450247038663,0.015830136315588567,1.301352396872012,0,0,1.329,1,53
149,1546743.621,65.15500000002794,0.23316348266601564,-0.2027713165283203,0,0.025097834643678457,0.016685347649065787,1.299781600545217,0,0,1.342,1,53
150,1546808.929,65.30799999996088,0.21306228637695312,-0.18487925720214843,0,0.03469714552964727,0.014259339988793671,1.2987169497015005,0,0,1.366,1,53
151,1546873.962,65.03300000005402,0.2008517303466797,-0.17375234985351562,0,0.04817108735504349,0.01752310569002307,1.2981758976333821,0,0,1.368,1,53
152,1546939.27,65.30799999996088,0.18687367248535156,-0.1441482696533203,0,0.05810201079889124,0.017767451785302275,1.2978442850755034,0,0,1.384,1,53
153,1547004.364,65.09400000004098,0.17956929016113282,-0.11883319854736328,0,0.06466444878638991,0.014241886696273728,1.297617392272744,0,0,1.394,1,53
154,1547069.641,65.27700000000186,0.15650588989257813,-0.09679347229003907,0,0.07136651311404815,0.01090830782496456,1.297041433619586,0,0,1.376,1,53
155,1547134.735,65.09400000004098,0.155462646484375,-0.058459918975830076,0,0.08375835080320788,0.012217304763960306,1.2984551503137014,0,0,1.38,1,53
156,1547199.89,65.15499999979511,0.13461891174316407,0.01678160858154297,0,0.0915076126820627,0.010367255756846317,1.2983504305585818,0,0,1.372,1,53
157,1547265.136,65.24600000004284,0.12595148468017578,0.05388668060302734,0,0.096953039948285,0.0056374134839416844,1.298507510191261,0,0,1.363,1,53
158,1547330.444,65.30799999996088,0.13665206909179686,0.10196696472167968,0,0.09721483933608417,0.0008028514559173916,1.2980362712932227,0,0,1.37,1,53
159,1547395.385,64.94100000010803,0.1337894744873047,0.13709335327148436,0,0.09283406291357839,-0.001308996938995747,1.298577323361341,0,0,1.374,1,53
160,1547460.662,65.27700000000186,0.11774808502197266,0.1842984619140625,0,0.08964011038242878,0.0016929693744344998,1.2999386801778965,0,0,1.366,1,53
161,1547525.756,65.09400000004098,0.10795680236816406,0.24661412048339842,0,0.08040731863937876,0.000593411945678072,1.2999735867629365,0,0,1.365,1,53
162,1547590.972,65.2160000000149,0.10930309295654297,0.25394410705566406,0,0.07033676885537149,0.002181661564992912,1.3005669987086144,0,0,1.377,1,53
163,1547656.188,65.2160000000149,0.09596504211425781,0.2773346252441406,0,0.058485983234329984,0.002513274122871834,1.3004971855385348,0,0,1.386,1,53
164,1547721.252,65.06400000001304,0.080495849609375,0.31907757568359374,0,0.046879543708567686,0.0009948376736367678,1.300689171756254,0,0,1.381,1,53
165,1547786.346,65.09399999980815,0.08238593292236328,0.3732953796386719,0,0.033335788713091695,0.0011519173063162574,1.2998863203003368,0,0,1.396,1,53
166,1547851.776,65.43000000016764,0.08024071502685547,0.3551187438964844,0,0.020263272615654165,0.0005585053606381855,1.2978791916605432,0,0,1.406,1,53
167,1547916.778,65.00199999986216,0.08471847534179687,0.33904046630859375,0,0.0070685834705770355,0.0010995574287564276,1.2956800768030303,0,0,1.405,1,53
168,1547982.025,65.24699999997392,0.08024637603759766,0.33971966552734373,0,-0.003787364476827695,0.003298672286269283,1.2941441870612753,0,0,1.409,1,53
169,1548047.119,65.09400000004098,0.07636894226074219,0.3228824768066406,0,-0.013543754995475998,0.006003932626860492,1.2920323386663624,0,0,1.411,1,53
170,1548112.274,65.15500000002794,0.06836859130859375,0.2803876037597656,0,-0.022113321622768155,0.010768681484805013,1.2892747184482112,0,0,1.415,1,53
171,1548177.49,65.2160000000149,0.0552342529296875,0.22384283447265624,0,-0.03061307507998054,0.016336281798666925,1.28656945810762,0,0,1.428,1,53
172,1548242.706,65.2160000000149,0.030556385040283202,0.19756748962402343,0,-0.03616322210132251,0.02357939819444339,1.2837245714268692,0,0,1.422,1,53
173,1548307.8,65.09400000004098,0.009406903266906737,0.15895054626464844,0,-0.04134684997974567,0.030595621787460593,1.2802688195079206,0,0,1.428,1,53
174,1548373.168,65.36800000001676,-0.025929126739501953,0.11401300048828125,0,-0.04560545335461182,0.03789109806079689,1.278575850133486,0,0,1.432,1,53
175,1548438.232,65.06400000001304,-0.058625362396240235,0.07411412048339844,0,-0.04551818689201211,0.043406338497098976,1.276097482595654,0,0,1.433,1,53
176,1548503.387,65.15500000002794,-0.07976048278808594,0.0535322265625,0,-0.04546582701445229,0.0459196126199708,1.2736016617653019,0,0,1.438,1,53
177,1548568.511,65.12399999983609,-0.10357765197753906,0.016778491973876954,0,-0.04330161874197931,0.04803146101488394,1.273374768962543,0,0,1.442,1,53
178,1548633.728,65.21699999994598,-0.15010826110839845,-0.029713783264160156,0,-0.04239404753094226,0.04747295565424577,1.2712629205676296,0,0,1.448,1,53
179,1548699.127,65.39900000020862,-0.18993534851074217,-0.06203370666503906,0,-0.03888593573443366,0.04134684997974567,1.2700760966762736,0,0,1.428,1,53
180,1548764.16,65.03299999982119,-0.24270042419433593,-0.1039741439819336,0,-0.032340951039454925,0.040334559013588955,1.2683482207167993,0,0,1.423,1,53
181,1548829.437,65.27700000000186,-0.271372802734375,-0.12609980010986327,0,-0.020943951023931952,0.03750712562535814,1.2667948776825242,0,0,1.423,1,53
182,1548894.653,65.2160000000149,-0.3124881896972656,-0.13493901062011718,0,-0.014782938764391972,0.03152064629101759,1.2662014657368463,0,0,1.425,1,53
183,1548959.686,65.03300000005402,-0.34635626220703125,-0.1541741943359375,0,-0.009930923443847734,0.01764527873766267,1.2665156250022052,0,0,1.417,1,53
184,1549024.902,65.2160000000149,-0.3563772888183594,-0.16348692321777344,0,-0.004171336912266447,0.001553343034274953,1.2673184764581225,0,0,1.417,1,53
185,1549090.026,65.12400000006892,-0.31903646850585937,-0.17233248901367187,0,0.0008028514559173916,-0.015097098029750951,1.2695699511931953,0,0,1.408,1,53
186,1549155.303,65.27700000000186,-0.3236399230957031,-0.1703936004638672,0,0.010943214410004447,-0.030072023011862296,1.2724846510440257,0,0,1.407,1,53
187,1549220.489,65.18599999998696,-0.2877840270996094,-0.1665817565917969,0,0.02029817920069405,-0.04639085151800927,1.27417762041846,0,0,1.412,1,53
188,1549285.614,65.125,-0.2325498046875,-0.1812834777832031,0,0.024260076602721177,-0.06059783162924312,1.275189911384617,0,0,1.421,1,53
189,1549350.891,65.27700000000186,-0.16580401611328124,-0.1764224090576172,0,0.027192229746071654,-0.07009242276009228,1.2774588394122095,0,0,1.431,1,53
190,1549416.107,65.2160000000149,-0.13009576416015625,-0.17600416564941407,0,0.029897490086662867,-0.07380997406684019,1.2797103141472823,0,0,1.445,1,53
191,1549481.109,65.00199999986216,-0.10076296997070312,-0.17529261779785157,0,0.031328660073298216,-0.07344345492392139,1.2826424672906327,0,0,1.457,1,53
192,1549546.447,65.33799999998882,-0.057350799560546874,-0.17868563842773438,0,0.03602359576116296,-0.07113962031128887,1.2863251120123407,0,0,1.477,1,53
193,1549611.45,65.00300000002608,-0.029589485168457032,-0.15843646240234374,0,0.04387757739513744,-0.06728244266438141,1.2889431058903322,0,0,1.486,1,53
194,1549677.032,65.58199999993667,-0.024901819229125977,-0.17684793090820314,0,0.0528485697503883,-0.0488168591782814,1.2909676878226457,0,0,1.498,1,53
195,1549741.973,64.94100000010803,-0.011851469993591308,-0.1703961944580078,0,0.06489134158914917,-0.024521875990520327,1.2948946786396327,0,0,1.51,1,53
196,1549807.067,65.09400000004098,0.004403909683227539,-0.13080517578125,0,0.05581562947877866,-0.008621926504851989,1.2998514137152968,0,0,1.518,1,53
197,1549872.222,65.15500000002794,0.021110565185546874,-0.09329386138916015,0,0.04218460802070294,-0.003089232776029963,1.3037958578248041,0,0,1.522,1,53
198,1549937.53,65.30799999996088,0.017784578323364258,-0.08403623962402344,0,0.03860668305411457,-0.003543018381548489,1.3070596235260332,0,0,1.517,1,53
199,1550002.593,65.06300000008196,-0.0013868982791900636,-0.04535540390014649,0,0.038624136346634516,-0.008272860654453122,1.3095903509414253,0,0,1.516,1,53
200,1550067.84,65.24699999997392,0.0061066594123840336,-0.035134506225585935,0,0.038432150128915134,-0.010890854532444616,1.3125748639623356,0,0,1.509,1,53
201,1550132.843,65.00300000002608,0.015788406372070313,-0.015645219802856446,0,0.035238197597765517,-0.012391837689159739,1.314581992602129,0,0,1.504,1,53
202,1550198.089,65.24599999981001,0.02087495040893555,-0.007906722545623779,0,0.030682888250060315,-0.012845623294678265,1.3177933984257988,0,0,1.491,1,53
203,1550263.366,65.27700000000186,0.036858524322509766,-0.0072290563583374025,0,0.026284658535034602,-0.01265363707695889,1.3183344504939167,0,0,1.479,1,53
204,1550328.46,65.09400000004098,0.03012527275085449,-0.011171380996704101,0,0.021240656996770992,-0.01117010721276371,1.3195387276777928,0,0,1.479,1,53
205,1550393.615,65.15500000002794,0.04859900665283203,0.0030768494606018067,0,0.01944296786721683,-0.005881759579220891,1.3215284030250665,0,0,1.47,1,53
206,1550458.923,65.30799999996088,0.04411184692382813,-0.009043035507202148,0,0.01748819910498318,-0.0018151424220741027,1.3221043616782246,0,0,1.462,1,53
207,1550523.925,65.002000000095,0.03664593887329102,-0.01667674446105957,0,0.014329153158873445,-0.0010995574287564276,1.322593053868783,0,0,1.466,1,53
208,1550589.294,65.36899999994785,0.04431097412109375,-0.01393977165222168,0,0.01022762941668677,-0.0005585053606381855,1.3249317950664552,0,0,1.457,1,53
209,1550654.357,65.06300000008196,0.035533069610595706,-0.0258868465423584,0,0.005899212871740834,0.0004014257279586958,1.3298536235570793,0,0,1.461,1,53
210,1550719.482,65.125,0.04789452362060547,-0.028999380111694336,0,0.004328416544945937,-0.013578661580515882,1.3352466909457419,0,0,1.457,1,53
211,1550784.973,65.49099999992177,0.05766570663452148,-0.008065800666809082,0,-0.0007504915783575615,-0.05133013330115323,1.3411808104025225,0,0,1.456,1,53
212,1550849.853,64.87999999988824,0.09141563415527344,-0.0256628475189209,0,-0.003543018381548489,-0.09318312876397727,1.3451601610970696,0,0,1.458,1,53
213,1550915.008,65.15500000002794,0.14801705932617187,-0.045687786102294924,0,-0.003717551306747922,-0.12611749174911024,1.3490696986215371,0,0,1.457,1,53
214,1550980.377,65.36900000018068,0.216630126953125,-0.06045808029174805,0,-0.007470009198535731,-0.15292574905974315,1.3546372989353987,0,0,1.468,1,53
215,1551045.379,65.00199999986216,0.2915910949707031,-0.06915730285644531,0,-0.01350884841043611,-0.17165313193364232,1.3577614382964687,0,0,1.461,1,53
216,1551110.626,65.24699999997392,0.4061405944824219,-0.11917459106445312,0,-0.01345648853287628,-0.17711601249238457,1.3612520968004573,0,0,1.479,1,53
217,1551175.933,65.3070000000298,0.5196425170898438,-0.17776078796386718,0,-0.010855947947404729,-0.17868680881917945,1.3629974260524516,0,0,1.492,1,53
218,1551241.058,65.125,0.6371538696289063,-0.20999276733398436,0,-0.006771877497737999,-0.17940239381249715,1.365022007984765,0,0,1.55,1,53
219,1551306.304,65.24600000004284,0.726069091796875,-0.22455926513671876,0,0.001117010721276371,-0.17847736930894015,1.3668546036993592,0,0,1.501,1,53
220,1551371.429,65.125,0.815860595703125,-0.23294364929199218,0,0.012548917321839229,-0.17636552091402702,1.368442853318674,0,0,1.501,1,53
221,1551436.676,65.24699999997392,0.9169456787109375,-0.2581341857910156,0,0.026249751949994717,-0.17428857910415377,1.3702056358631884,0,0,1.509,1,53
222,1551501.892,65.2160000000149,0.9643223266601563,-0.23004681396484375,0,0.04153883619746504,-0.17357299411083607,1.3713575531695044,0,0,1.502,1,53
223,1551566.925,65.03300000005402,1.0467332763671875,-0.21820611572265625,0,0.0596204472481263,-0.17243853009703977,1.371479726217144,0,0,1.477,1,53
224,1551632.263,65.33799999998882,1.135627197265625,-0.17867741394042969,0,0.07728317927830891,-0.1667662100280582,1.3728061764486599,0,0,1.497,1,53
225,1551697.357,65.09400000004098,1.2072779541015626,-0.10981187438964844,0,0.08754571528003557,-0.16198400787759373,1.3744293326530146,0,0,1.473,1,53
226,1551762.573,65.2160000000149,1.2786429443359375,-0.09194208526611328,0,0.0932878485190969,-0.15905185473424324,1.3792638946810387,0,0,1.472,1,53
227,1551827.728,65.15499999979511,1.3535966796875,-0.05266228485107422,0,0.10311405220782499,-0.1425410400103769,1.3805030784499548,0,0,1.471,1,53
228,1551892.913,65.18500000005588,1.4424755859375,0.0156698579788208,0,0.1165879940332212,-0.11995647948957028,1.3815328227086316,0,0,1.468,1,53
229,1551958.007,65.09400000004098,1.570114013671875,0.04942444610595703,0,0.1293638041578197,-0.09855874286011979,1.3815328227086316,0,0,1.478,0,53
230,1552023.376,65.36899999994785,1.6467919921875,0.08892887878417968,0,0.13763666481227282,-0.07593927575427328,1.380485625157435,0,0,1.488,0,53
231,1552088.409,65.03300000005402,1.689099365234375,0.1490231475830078,0,0.13276719619920865,-0.04379031093253773,1.380154012599556,0,0,1.487,0,53
232,1552153.656,65.24699999997392,1.818228759765625,0.16742472839355468,0,0.11402236003278955,0.003961897402027128,1.381061583810593,0,0,1.495,0,53
233,1552218.719,65.06300000008196,1.7739095458984375,0.2389406280517578,0,0.09133307975686325,0.06225589441863774,1.3816375424637513,0,0,1.497,0,53
234,1552283.874,65.15500000002794,1.70048779296875,0.2914503173828125,0,0.0678409480250196,0.11808897718993633,1.3822135011169092,0,0,1.497,0,53
235,1552349.426,65.55199999990873,1.6318992919921875,0.40679827880859376,0,0.04468042885105484,0.1629090323811507,1.3818644352665104,0,0,1.528,0,53
236,1552414.276,64.85000000009313,1.473253173828125,0.444528076171875,0,0.02155481626212997,0.1978156174210373,1.3798224000416772,0,0,1.542,0,53
237,1552479.4,65.12399999983609,1.28277490234375,0.42734695434570313,0,-0.0038746309394274117,0.22156954854068012,1.3761397553199688,0,0,0,0,53
238,1552544.708,65.30800000019372,1.0960828857421876,0.46521099853515624,0,-0.032498030672134415,0.2364048471826319,1.3722476710880216,0,0,1.551,0,53
239,1552609.71,65.00199999986216,0.8914255981445313,0.4218614196777344,0,-0.05752605214573309,0.242845112122491,1.3686348395363934,0,0,1.555,0,53
240,1552675.018,65.30799999996088,0.7210865478515625,0.41931732177734377,0,-0.07450810576763793,0.23830725606730574,1.3655630600528832,0,0,1.581,0,53
241,1552740.142,65.12400000006892,0.518502197265625,0.35021707153320314,0,-0.08400269689848708,0.22991222236521303,1.3637479176308092,0,0,1.538,0,53
242,1552805.267,65.125,0.31850146484375,0.28042599487304687,0,-0.08906415172927064,0.21748547809101343,1.3627181733721325,0,0,1.544,0,53
243,1552870.635,65.36800000001676,0.13832418823242187,0.19979013061523437,0,-0.09021606903558688,0.2031737782246599,1.3617756955760556,0,0,1.523,0,53
244,1552935.699,65.06400000001304,-0.01896906661987305,0.12471556091308594,0,-0.08819148710327347,0.1897172896917836,1.362281841059134,0,0,1.522,0,53
245,1553000.793,65.09400000004098,-0.14357591247558593,0.06232401657104492,0,-0.08492772140204408,0.17819811662862106,1.361967681793775,0,0,1.516,0,53
246,1553066.192,65.39899999997579,-0.31301992797851563,0.023404739379882813,0,-0.07986626657126052,0.1605179313059185,1.3631370523926114,0,0,1.492,0,53
247,1553131.134,64.94200000003912,-0.46167660522460935,-0.006930284976959229,0,-0.07527605063851543,0.13009684244365732,1.365371073835164,0,0,1.489,0,53
248,1553196.35,65.2160000000149,-0.5475328979492188,-0.028504539489746093,0,-0.06852162643329737,0.09679596031560551,1.3670989497946382,0,0,1.43,0,53
249,1553261.505,65.15499999979511,-0.6069506225585938,-0.06120953369140625,0,-0.059027035302448225,0.057840211411092086,1.3701358226931086,0,0,1.424,0,53
250,1553326.751,65.24600000004284,-0.6698682861328125,-0.08920247650146484,0,-0.04769984845700503,0.015498523757709647,1.3716368058498236,0,0,1.399,0,53
251,1553392.089,65.33799999998882,-0.7463070678710938,-0.15604229736328126,0,-0.037716565135597464,-0.02822197400474831,1.3728934429112596,0,0,1.392,0,53
252,1553457.458,65.36900000018068,-0.7733422241210938,-0.27820611572265624,0,-0.028693212902786775,-0.06723008278682156,1.3732250554691385,0,0,1.426,0,53
253,1553522.399,64.9409999998752,-0.7761455688476563,-0.31823178100585936,0,-0.0182212373908208,-0.09955358053375654,1.3738533739998564,0,0,1.398,0,53
254,1553587.646,65.24699999997392,-0.6849158935546875,-0.2573143615722656,0,-0.007557275661135446,-0.12719959588534674,1.3753194505715316,0,0,1.429,0,53
255,1553652.679,65.03300000005402,-0.6259657592773438,-0.22134379577636717,0,0.014381513036433273,-0.15100588688254937,1.3750925577687725,0,0,1.437,0,53
256,1553718.048,65.36899999994785,-0.5183619384765625,-0.20117477416992188,0,0.03717551306747922,-0.1729446755801181,1.3754241703266512,0,0,1.473,0,53
257,1553783.02,64.97200000006706,-0.40867449951171875,-0.21725431823730468,0,0.059184114935127714,-0.18551104619447728,1.3754067170341315,0,0,1.506,0,53
258,1553848.236,65.2160000000149,-0.32844598388671875,-0.19785498046875,0,0.07230899091012506,-0.1924574566174147,1.3747260386258537,0,0,1.534,0,53
259,1553913.543,65.3070000000298,-0.22135931396484376,-0.22460256958007813,0,0.07778932476138727,-0.19230037698473523,1.3743944260679746,0,0,1.535,0,53
260,1553978.576,65.03299999982119,-0.111787109375,-0.22498631286621093,0,0.0817512221634144,-0.18257889305112684,1.375179824231372,0,0,1.551,0,53
261,1554043.731,65.15500000002794,0.0012707557678222656,-0.17574679565429688,0,0.07892378877518359,-0.17188002473640157,1.3757034230069705,0,0,1.574,0,53
262,1554109.1,65.36900000018068,0.06848360443115234,-0.14956495666503905,0,0.07939502767322205,-0.1561720614684526,1.3770996864085658,0,0,1.574,0,53
263,1554174.163,65.06299999984913,0.13957179260253907,-0.1124636001586914,0,0.07661995416255106,-0.1378286510299922,1.3769949666534462,0,0,1.577,0,53
264,1554239.379,65.2160000000149,0.1811490478515625,-0.06888949584960938,0,0.07216936456996552,-0.11786208438717707,1.3781468839597626,0,0,1.57,0,53
265,1554304.412,65.03300000005402,0.2329014892578125,-0.03802120971679687,0,0.07209955139988576,-0.0912283600017436,1.3793162545585986,0,0,1.569,0,53
266,1554369.659,65.24699999997392,0.3232651977539063,-0.025434146881103514,0,0.07037167544041137,-0.06384414403795256,1.380415811987355,0,0,1.569,0,53
267,1554434.936,65.27700000000186,0.3281602783203125,0.014477180480957032,0,0.06476916854150956,-0.040421825476188666,1.3815677292936714,0,0,1.56,0,53
268,1554500.061,65.125,0.36293515014648436,0.04859355926513672,0,0.05574581630869888,-0.01987930018021541,1.3811663035657127,0,0,1.57,0,53
269,1554565.185,65.12400000006892,0.38363851928710935,0.07722118377685547,0,0.046321038347929507,-0.0021642082724729686,1.3809394107629533,0,0,1.551,0,53
270,1554630.889,65.7039999999106,0.3725715637207031,0.09351891326904296,0,0.039496800972631675,0.015865042900628457,1.3804507185723949,0,0,1.577,0,53
271,1554695.526,64.63700000010431,0.3515939636230469,0.11837429809570313,0,0.032742376767413615,0.03214896482173556,1.3793686144361583,0,0,1.541,0,53
272,1554760.681,65.15500000002794,0.2911219177246094,0.13425546264648439,0,0.027366762671271087,0.0459545192050107,1.3785134031026813,0,0,1.539,0,53
273,1554825.836,65.15499999979511,0.2328985137939453,0.14819288635253905,0,0.02583087292951608,0.052569317070069205,1.377972351034563,0,0,1.524,0,53
274,1554891.082,65.24600000004284,0.17643785095214845,0.1766529083251953,0,0.020176006153054447,0.05241223743738972,1.3770996864085658,0,0,1.518,0,53
275,1554956.237,65.15500000002794,0.16097686767578126,0.17432862854003905,0,0.008621926504851989,0.04797910113732413,1.3766459008030474,0,0,1.51,0,53
276,1555021.423,65.18599999998696,0.11145639801025391,0.15538864135742186,0,-0.0029845130209103033,0.047263516144006444,1.377954897742043,0,0,1.5,0,53
277,1555086.547,65.12400000006892,0.05729409408569336,0.1641932830810547,0,-0.010088003076527224,0.047123889803846894,1.3791940815109591,0,0,1.497,0,53
278,1555151.824,65.27700000000186,0.019487154006958007,0.14540943908691406,0,-0.019844393595175525,0.04345869837465881,1.37898464200072,0,0,1.544,0,53
279,1555216.888,65.06400000001304,-0.02788080596923828,0.10353328704833985,0,-0.030421088862261168,0.03614576880880257,1.3800318395519162,0,0,1.503,0,53
280,1555282.226,65.33799999998882,-0.052612319946289066,0.0822346954345703,0,-0.039723693775390936,0.025708699881876473,1.381079037103113,0,0,1.503,0,53
281,1555347.167,64.9409999998752,-0.10198731231689454,0.04325755310058594,0,-0.03834488366631542,0.02118829711921116,1.3822309544094291,0,0,1.509,0,53
282,1555412.475,65.30800000019372,-0.1353702850341797,0.017633241653442384,0,-0.03429571980168858,0.01556833692778942,1.3831210723279463,0,0,1.517,0,53
283,1555477.6,65.125,-0.1702183380126953,0.0031937246322631834,0,-0.032724923474893676,0.005427973973702364,1.382841819647627,0,0,1.531,0,53
284,1555542.724,65.12399999983609,-0.15513475036621094,-0.02245394515991211,0,-0.030002209841782524,-0.006387905062299246,1.3834003250082654,0,0,1.538,0,53
285,1555607.849,65.125,-0.16328019714355468,-0.027731304168701173,0,-0.029199358385865133,-0.019984019935335072,1.3846220554846613,0,0,1.544,0,53
286,1555673.278,65.42900000000373,-0.14574873352050782,-0.05402029418945312,0,-0.028396506929947742,-0.031817352263856624,1.384203176464183,0,0,1.535,0,53
287,1555738.22,64.94200000003912,-0.1393726043701172,-0.07717820739746094,0,-0.021223203704251046,-0.034644785652087444,1.3911321335946003,0,0,1.535,0,53
288,1555803.588,65.36800000001676,-0.12762025451660156,-0.12019381713867187,0,-0.009285151620609835,-0.03906046865963309,1.4018135486168055,0,0,1.533,0,53
289,1555868.804,65.2160000000149,-0.14183151245117187,-0.1440028076171875,0,0.02155481626212997,-0.03892084231947355,1.4126694965642101,0,0,1.528,0,53
290,1555933.929,65.125,-0.1188992919921875,-0.11696659088134766,0,0.06269222673163631,-0.04654793115068877,1.4216928487970208,0,0,1.533,0,53
291,1555999.176,65.24699999997392,-0.15029026794433595,-0.039599105834960936,0,0.10470230182713981,-0.06188937527571892,1.4292326711656365,0,0,1.516,0,53
292,1556064.239,65.06300000008196,-0.027540748596191406,0.01075379753112793,0,0.14294246573833558,-0.07447319918259805,1.4351318840373775,0,0,1.52,0,53
293,1556129.364,65.125,0.06408346557617188,0.07821133422851563,0,0.16687092978317783,-0.08548622676268225,1.4399838993579215,0,0,1.527,0,53
294,1556194.763,65.39899999997579,0.0401684684753418,0.14552413940429687,0,0.18106045660189174,-0.0919090384100214,1.4441552362701882,0,0,1.534,0,53
295,1556259.704,64.9409999998752,0.08241591644287109,0.2463167266845703,0,0.18889698494334628,-0.09248499706317952,1.4482218534273348,0,0,1.592,0,53
296,1556324.951,65.24699999997392,0.135616943359375,0.33836935424804687,0,0.19736183181551878,-0.08377580409572781,1.4535276543533977,0,0,1.532,0,53
297,1556390.075,65.12400000006892,0.2065494384765625,0.429972412109375,0,0.19851374912183506,-0.07571238295151402,1.4578909774833835,0,0,1.539,0,53
298,1556455.23,65.15500000002794,0.24043667602539062,0.5207652587890625,0,0.19767599108087777,-0.06646213791594408,1.4606835042865745,0,0,1.535,0,53
299,1556520.568,65.33799999998882,0.26124951171875,0.6316474609375,0,0.19362682721625088,-0.05536184387326013,1.4618179683003707,0,0,1.581,0,53
300,1556585.937,65.36899999994785,0.3175278015136719,0.7096597290039063,0,0.18090337696921227,-0.04057890510886816,1.4622368473208494,0,0,1.541,0,53
301,1556650.726,64.78900000010617,0.3487454528808594,0.803255126953125,0,0.1625425132382319,-0.02401573050744197,1.4606660509940543,0,0,1.543,0,53
302,1556716.125,65.39899999997579,0.37263275146484376,0.921216552734375,0,0.14077825746586262,-0.009878563566287904,1.458327309796382,0,0,1.547,0,53
303,1556781.127,65.002000000095,0.3626844787597656,0.9559894409179688,0,0.11664035391078104,0.005358160803622591,1.454330505809315,0,0,1.562,0,53
304,1556846.343,65.2160000000149,0.37470010375976565,1.03312451171875,0,0.08916887148439029,0.018867009214058702,1.4487279989104132,0,0,1.572,0,53
305,1556911.437,65.09399999980815,0.3668153991699219,1.10715185546875,0,0.06295402611943547,0.031258846903218444,1.4439632500524686,0,0,1.561,0,53
306,1556976.654,65.21700000017881,0.30730938720703127,1.026151123046875,0,0.037088246604879506,0.04379031093253773,1.4391461413169642,0,0,1.542,0,53
307,1557041.87,65.2160000000149,0.2885606689453125,1.1092578125,0,0.0038048177693476384,0.04897393881096089,1.4340846864861807,0,0,1.546,0,53
308,1557106.903,65.03299999982119,0.2590224609375,1.09519970703125,0,-0.034348079679248404,0.051260320131073456,1.4301576956691933,0,0,1.549,0,53
309,1557172.088,65.18500000005588,0.17127540588378906,1.2220157470703126,0,-0.07145377957664786,0.04914847173616031,1.4266495838726847,0,0,1.52,0,53
310,1557237.426,65.33799999998882,0.13128799438476563,1.1019952392578125,0,-0.1090830782496456,0.04077089132658753,1.4271208227707235,0,0,1.494,0,53
311,1557302.368,64.94200000003912,0.09686063385009766,1.0850115966796876,0,-0.14179054843201933,0.03549999698556466,1.4254627599813288,0,0,1.5,0,53
312,1557367.645,65.27700000000186,0.02308077621459961,1.0013507690429688,0,-0.16821483330721348,0.03089232776029963,1.4254627599813288,0,0,1.524,0,53
313,1557432.769,65.12400000006892,-0.018577325820922853,0.8144642333984375,0,-0.18992672920202294,0.027436575841350862,1.4258467324167674,0,0,1.507,0,53
314,1557497.924,65.15500000002794,-0.08726616668701172,0.5816973266601563,0,-0.2031214183471001,0.021031217486531674,1.4268764766754443,0,0,1.222,0,53
315,1557563.201,65.27699999976903,-0.14532646179199218,0.4120437927246094,0,-0.20397662968057725,0.013980087308474581,1.430052975914074,0,0,1.494,0,53
316,1557628.326,65.125,-0.13619132995605468,0.2528657836914063,0,-0.1992293341151527,0.005811946409141117,1.434049779901141,0,0,1.497,0,53
317,1557693.45,65.12400000006892,-0.19399745178222655,0.02379143524169922,0,-0.1845162085208405,-0.00445058959258554,1.436179081588574,0,0,1.532,0,53
318,1557758.819,65.36899999994785,-0.21027049255371094,-0.13908052062988283,0,-0.1623854336055524,-0.015987215948268057,1.440193338868161,0,0,1.577,0,53
319,1557823.791,64.97200000006706,-0.19170867919921875,-0.26297210693359374,0,-0.13421581947836395,-0.029426251188624394,1.4422179208004742,0,0,1.514,0,53
320,1557889.007,65.2160000000149,-0.18659559631347655,-0.4134920349121094,0,-0.10339330488814408,-0.04207988826558329,1.4439283434674286,0,0,1.487,0,53
321,1557954.162,65.15500000002794,-0.18542349243164064,-0.4930869445800781,0,-0.06595599243286572,-0.04794419455228423,1.444783554800906,0,0,1.503,0,53
322,1558019.348,65.18599999998696,-0.21154989624023438,-0.5936112670898438,0,-0.027436575841350862,-0.051242866838553516,1.4450453541887052,0,0,1.468,0,53
323,1558084.564,65.2160000000149,-0.15151927185058595,-0.647186279296875,0,0.01075122819228507,-0.05539675045830002,1.4457783924745429,0,0,1.464,0,53
324,1558149.871,65.3070000000298,-0.09523483276367188,-0.5920123901367188,0,0.04967207051175862,-0.056007615696498037,1.4457958457670625,0,0,1.457,0,53
325,1558214.843,64.97200000006706,-0.09734681701660156,-0.601385498046875,0,0.08595746566072072,-0.05656612105713622,1.4448882745560256,0,0,1.44,0,53
326,1558280.334,65.49099999992177,-0.055501998901367186,-0.5409111938476563,0,0.11653563415566137,-0.05541420375081996,1.4433174782292306,0,0,1.443,0,53
327,1558345.306,64.97200000006706,0.0341080322265625,-0.3995077209472656,0,0.1359262421453184,-0.0528485697503883,1.4428113327461523,0,0,1.413,0,53
328,1558410.552,65.24599999981001,0.15762117004394532,-0.2643187255859375,0,0.1439896632895322,-0.03967133389783111,1.44357927761703,0,0,1.417,0,53
329,1558475.708,65.15600000019185,0.12749339294433593,-0.26395559692382814,0,0.14816100020179865,-0.019198621771937627,1.4463718044202207,0,0,1.403,0,53
330,1558540.863,65.15499999979511,0.061987453460693356,-0.17641136169433594,0,0.13569934934255912,0.001780235837034216,1.4492166911009716,0,0,1.538,0,53
331,1558606.17,65.3070000000298,0.05944182968139648,-0.13455435180664063,0,0.12283627275536091,0.01823869068334074,1.4556569560408308,0,0,1.399,0,53
332,1558671.234,65.06400000001304,0.03803263473510742,-0.0558728141784668,0,0.10967649019532365,0.02649409804527392,1.4605264246538947,0,0,1.411,0,53
333,1558736.358,65.12400000006892,0.041614776611328126,0.05518817138671875,0,0.09484119155337187,0.028239427297268253,1.4635982041374047,0,0,1.407,0,53
334,1558801.849,65.49099999992177,0.06135635375976563,0.15698727416992186,0,0.08028514559173915,0.025726153174396416,1.4667572500835147,0,0,1.424,0,53
335,1558866.76,64.9110000000801,0.03612614440917969,0.21139862060546874,0,0.0670380965691022,0.029077185338225526,1.4707715073631016,0,0,1.459,0,53
336,1558931.915,65.15500000002794,0.02573371696472168,0.22520716857910156,0,0.05068436147791532,0.02965314399138366,1.4739131000166914,0,0,1.428,0,53
337,1558997.314,65.39899999997579,0.00703755521774292,0.3135159301757813,0,0.03049090203234094,0.028012534494508988,1.4756933358537256,0,0,1.429,0,53
338,1559062.316,65.002000000095,-0.011028104782104493,0.3323073425292969,0,0.010733774899765127,0.02298598624876532,1.477665557908479,0,0,1.434,0,53
339,1559127.685,65.36899999994785,-0.049130126953125,0.3152364807128906,0,-0.008150687606813518,0.016982053621904827,1.4799519392285918,0,0,1.439,0,53
340,1559192.657,64.97199999983422,-0.06017767333984375,0.2946602783203125,0,-0.027366762671271087,0.008168140899333463,1.4823779468888638,0,0,1.449,0,53
341,1559257.781,65.12400000006892,-0.09005204772949219,0.22595233154296876,0,-0.03827507049623565,0.005934119456780722,1.4841756360184182,0,0,1.437,0,53
342,1559323.15,65.36899999994785,-0.12467761993408204,0.21106314086914063,0,-0.04817108735504349,0.0020943951023931952,1.4852751934471744,0,0,1.452,0,53
343,1559388.122,64.97200000006706,-0.12440901947021485,0.14457516479492188,0,-0.04406956361285682,-0.007993607974134028,1.4918201781421532,0,0,1.445,0,53
344,1559453.308,65.18599999998696,-0.19547615051269532,0.08553083038330078,0,-0.01792453141798176,0.004677482395344803,1.4976670311363343,0,0,1.456,0,53
345,1559518.432,65.12400000006892,-0.19319371032714844,0.018590160369873047,0,0.01446877949903299,0.041329396687225725,1.5027808458446774,0,0,1.454,0,53
346,1559583.679,65.24699999997392,-0.2129293975830078,-0.02964978790283203,0,0.04066617157146788,0.0849800812796039,1.508522979083739,0,0,1.454,0,53
347,1559648.895,65.2160000000149,-0.29596661376953126,0.009594826698303223,0,0.06473426195646968,0.12267919312268141,1.5151203236562774,0,0,1.471,0,53
348,1559714.05,65.15500000002794,-0.3334264526367188,0.06509600067138673,0,0.08532914713000277,0.14599679192932566,1.5209846299429786,0,0,1.465,0,53
349,1559779.235,65.18500000005588,-0.45816229248046875,0.13163197326660156,0,0.10173524209874947,0.16332791140162936,1.5258540985560425,0,0,1.47,0,53
350,1559844.421,65.18599999998696,-0.511562744140625,0.18533883666992187,0,0.10700613643977235,0.16884315183793144,1.5275470679304772,0,0,1.458,0,53
351,1559909.484,65.06299999984913,-0.5954712524414062,0.2688814697265625,0,0.10334094501058425,0.1666614902729385,1.528210293046235,0,0,1.488,0,53
352,1559974.639,65.15500000002794,-0.6933943481445313,0.3589928588867187,0,0.09325294193405702,0.1630661120138302,1.5294320235226309,0,0,1.466,0,53
353,1560039.855,65.2160000000149,-0.8429937744140625,0.4626518859863281,0,0.08032005217677905,0.15936601399960224,1.5310377264344655,0,0,1.472,0,53
354,1560105.041,65.18599999998696,-0.9450701293945313,0.5069724426269532,0,0.06914994496401533,0.15475834477433723,1.5332542945844987,0,0,1.423,0,53
355,1560170.257,65.2160000000149,-0.9830082397460937,0.5096497497558594,0,0.0549080582677416,0.14582225900412624,1.5328528688565395,0,0,1.41,0,53
356,1560235.382,65.125,-1.0777083740234374,0.5117945861816406,0,0.03584906283596352,0.12583823906879116,1.5323990832510213,0,0,1.401,0,53
357,1560300.506,65.12400000006892,-1.199012451171875,0.5079808349609375,0,0.013421581947836393,0.10213666782670816,1.532521256298661,0,0,1.402,0,53
358,1560365.905,65.39899999997579,-1.257364990234375,0.4748079833984375,0,-0.00942477796076938,0.07380997406684019,1.5325038030061409,0,0,1.388,0,53
359,1560430.938,65.03300000005402,-1.241136474609375,0.4680861206054687,0,-0.026022859147235452,0.04307472593922005,1.534318945428215,0,0,1.409,0,53
360,1560496.276,65.33799999998882,-1.2921229248046875,0.4708621215820312,0,-0.039584067435231386,0.005113814708343385,1.5366925932109274,0,0,1.402,0,53
361,1560561.614,65.33799999998882,-1.5328349609375,0.5886896362304688,0,-0.051242866838553516,-0.034574972482007665,1.5401657984223962,0,0,1.404,0,53
362,1560626.77,65.15599999995902,-1.7554461669921875,0.6183433837890625,0,-0.061819562105639145,-0.07070328799829029,1.5435517371712648,0,0,1.41,0,53
363,1560691.741,64.97099999990314,-1.8249849853515625,0.5795181274414063,0,-0.07333873516880172,-0.10847221301144758,1.5467456897024148,0,0,1.016,0,53
364,1560756.958,65.21700000017881,-1.61898876953125,0.45060574340820314,0,-0.08740608893987602,-0.14885913190259636,1.5493113237028464,0,0,1.299,0,53
365,1560822.021,65.06299999984913,-1.41922314453125,0.3485119934082031,0,-0.10454522219446034,-0.1861044581401554,1.5516326116079988,0,0,0.835,0,53
366,1560887.42,65.39899999997579,-1.2028282470703124,0.22136459350585938,0,-0.11939797412893209,-0.2160368548118581,1.5524529163564362,0,0,0.811,0,53
367,1560952.423,65.00300000002608,-1.2111126708984374,0.03174761390686035,0,-0.12164944886400476,-0.2353401963389154,1.5538666330505515,0,0,0.818,0,53
368,1561017.608,65.18500000005588,-1.024069091796875,-0.04370953369140625,0,-0.11187560505283653,-0.24418901564652665,1.5523656498938363,0,0,0.84,0,53
369,1561082.855,65.24699999997392,-0.8175541381835938,-0.11531256103515625,0,-0.08934340440958972,-0.24326399114296965,1.5508297601520813,0,0,0.86,0,53
370,1561147.949,65.09400000004098,-0.62126416015625,-0.1648066864013672,0,-0.06681120376634293,-0.24094270323781716,1.548752818342208,0,0,0.867,0,53
371,1561213.226,65.27700000000186,-0.03500987243652344,-0.29360739135742187,0,-0.044418629463255685,-0.2320415240526461,1.546640969947295,0,0,0.908,0,53
372,1561278.35,65.12400000006892,0.0651792449951172,-0.29318038940429686,0,-0.026354471705114374,-0.22214550719383827,1.5448781874027806,0,0,0.959,0,53
373,1561343.444,65.09399999980815,0.13905551147460937,-0.3112911682128906,0,-0.0014660765716752368,-0.20247564652386218,1.5423823665724288,0,0,1.439,0,53
374,1561408.813,65.36900000018068,0.34331561279296874,-0.5629752807617188,0,0.028082347664588763,-0.17174039839624203,1.5424521797425086,0,0,1.436,0,53
375,1561473.846,65.03299999982119,0.43228085327148436,-0.6027227172851563,0,0.05225515780471023,-0.13456488532876282,1.5436564569263844,0,0,1.441,0,53
376,1561539.093,65.24700000020675,0.5590631713867188,-0.5762075805664062,0,0.0724835238353245,-0.09697049324080495,1.5447909209401811,0,0,1.421,0,53
377,1561604.156,65.06299999984913,0.6352529296875,-0.48790130615234373,0,0.0973544656762437,-0.057246799465414,1.5476183543284119,0,0,1.432,0,53
378,1561669.403,65.24699999997392,0.670357177734375,-0.4036546630859375,0,0.1275137551507057,-0.010873401239924672,1.5527147157442354,0,0,1.398,0,53
379,1561734.649,65.24600000004284,0.6422496948242188,-0.3194096984863281,0,0.1460142452218456,0.027611108766550294,1.5559959347379848,0,0,1.401,0,53
380,1561799.682,65.03300000005402,0.6349458618164062,-0.21077847290039062,0,0.15664330036649107,0.06154030942532006,1.5591375273915742,0,0,1.397,0,53
381,1561864.837,65.15500000002794,0.6135943603515625,-0.10735691833496094,0,0.1538682268558201,0.08532914713000277,1.5605686973782098,0,0,1.375,0,53
382,1561930.175,65.33799999998882,0.5834329833984375,-0.006888364791870117,0,0.14402456987457207,0.10257300013970674,1.5595040465344931,0,0,1.377,0,53
383,1561995.117,64.94200000003912,0.5461385498046875,0.0773643569946289,0,0.1339191135055249,0.1218239817892042,1.5589455411738549,0,0,1.376,0,53
384,1562060.363,65.24599999981001,0.4707984924316406,0.16027578735351564,0,0.11379546723003027,0.1363800277508369,1.5574445580171399,0,0,1.38,0,53
385,1562125.518,65.15500000002794,0.41326513671875,0.21445668029785156,0,0.09037314866826639,0.1450019542556889,1.5546869377989887,0,0,1.377,0,53
386,1562190.704,65.18599999998696,0.326858642578125,0.2662069396972656,0,0.06761405522226033,0.14927801092307502,1.5523481966013164,0,0,1.385,0,53
387,1562255.92,65.2160000000149,0.22721853637695313,0.3130948181152344,0,0.04482005519121439,0.1481959067868385,1.5504457877166427,0,0,1.388,0,53
388,1562321.228,65.30799999996088,0.09735467529296875,0.36740435791015624,0,0.030019663134302467,0.1471836158206818,1.548473565661889,0,0,1.393,0,53
389,1562386.199,64.97100000013597,0.044697650909423826,0.3253863220214844,0,0.015515977050229588,0.13931218089418737,1.5474612746957324,0,0,1.399,1,53
390,1562451.538,65.3389999999199,-0.03990650177001953,0.3192160339355469,0,-0.00003490658503988659,0.12555898638847207,1.5444069485047422,0,0,1.403,0,53
391,1562516.54,65.002000000095,-0.15249293518066406,0.3632271423339844,0,0.0053058009260627615,0.08632398480363954,1.5429234186405472,0,0,1.417,0,53
392,1562581.787,65.24699999997392,-0.20884504699707032,0.4270216979980469,0,0.018832102629018813,0.015707963267948967,1.5403228780550755,0,0,1.397,0,53
393,1562646.881,65.09400000004098,-0.17528651428222655,0.444549560546875,0,0.0166504410640259,-0.045256387504212965,1.5377048841770842,0,0,1.403,0,53
394,1562712.097,65.2160000000149,-0.17186465454101563,0.4352127990722656,0,0.002513274122871834,-0.069254664719135,1.5353486896868918,0,0,1.406,0,53
395,1562777.313,65.2160000000149,-0.11104892730712891,0.3761612854003906,0,-0.019355701404617114,-0.0743335728424385,1.5329924951966996,0,0,1.398,0,53
