n,time,dt,vx,vy,vz,roll,pitch,yaw,x,y,z,detected,battery
0,149423.98,149423.98,1.7449032441163582e-10,-6.725346679559152e-10,0,0.009128071987930345,0.0006806784082777885,1.5885288719951591,0,0,0.242,0,50
1,149865.417,NaN,0,0,0,0.00020943951023931956,0.00005235987755982989,1.5886684983353183,0,0,0.242,0,50
2,149930.633,NaN,0,0,0,0.0003665191429188092,-0.00013962634015954637,1.5886859516278384,0,0,0.242,0,50
3,149995.788,65.15499999999884,0,0,0,0.0003665191429188092,-0.00019198621771937622,1.5890001108931975,0,0,0.242,0,50
4,150060.974,65.18599999998696,0,0,0,-0.00005235987755982989,0.00017453292519943296,1.5890524707707574,0,0,0.242,0,50
5,150126.312,65.33800000001793,0,0,0,0.00019198621771937622,0.00006981317007977319,1.5891746438183967,0,0,0.242,0,50
6,150191.345,65.03299999999581,0,0,0,0.00027925268031909274,-0.00022689280275926284,1.5893491767435963,0,0,0.242,0,50
7,150256.561,65.2159999999858,0,0,0,0.00027925268031909274,-0.0003665191429188092,1.5891746438183967,0,0,0.242,0,50
8,150321.746,65.18500000002678,0,0,0,0.0002617993877991494,-0.0005759586531581287,1.5896633360089554,0,0,0.242,0,50
9,150387.023,65.27699999997276,0,0,0,0.00034906585039886593,-0.0006108652381980154,1.5893142701585568,0,0,0.242,0,50
10,150452.239,65.2160000000149,0,0,0,0.00047123889803846896,-0.0005759586531581287,1.5896633360089554,0,0,0.242,0,50
11,150517.364,65.125,0,0,0,0.00047123889803846896,-0.0005235987755982988,1.5902043880770735,0,0,0.242,0,50
12,150582.519,65.15499999999884,0,0,0,0.0005585053606381855,-0.0006283185307179585,1.5895935228388756,0,0,0.242,0,50
13,150648.162,65.64300000001094,0,0,0,0.0008028514559173916,-0.0009250245035569946,1.5898902288117145,0,0,0.242,0,50
14,150712.86,64.69799999997485,0,0,0,0.00006981317007977319,-0.0014486232791552935,1.5898902288117145,0,0,0.242,0,50
15,150778.106,65.24600000001374,0,0,0,0.00027925268031909274,-0.001239183768915974,1.5891746438183967,0,0,0.242,0,50
16,150843.353,65.24700000000303,0,0,0,0.00038397243543875244,-0.0010471975511965976,1.5898029623491148,0,0,0.242,0,50
17,150908.508,65.15499999999884,0,0,0,0.00013962634015954637,-0.0013788101090755204,1.5901520281995134,0,0,0.242,0,50
18,150973.724,65.2159999999858,0,0,0,0.00047123889803846896,-0.0011519173063162574,1.5901694814920335,0,0,0.242,0,50
19,151038.94,65.2160000000149,0,0,0,0.00006981317007977319,-0.0018849555921538759,1.5901520281995134,0,0,0.242,0,50
20,151104.034,65.09400000001187,0,0,0,0.000593411945678072,-0.0016231562043547262,1.589715695886515,0,0,0.242,0,50
21,151169.403,65.36899999997695,0,0,0,0.00031415926535897925,-0.001553343034274953,1.590640720390072,0,0,0.243,0,50
22,151234.405,65.00200000000768,0,0,0,0.0005061454830783556,-0.001553343034274953,1.5904487341723528,0,0,0.242,0,50
23,151299.621,65.2160000000149,0,0,0,0.0004014257279586958,-0.001361356816555577,1.5896982425939952,0,0,0.242,0,50
24,151364.959,65.33799999998882,0,0,0,0.0004886921905584122,-0.0019198621771937623,1.5904836407573928,0,0,0.242,0,50
25,151430.053,65.09400000001187,0,0,0,0.0005759586531581287,-0.002373647782712288,1.5904836407573928,0,0,0.242,0,50
26,151495.178,65.125,0,0,0,0.0010297442586766543,-0.0032637657012293962,1.5906581736825922,0,0,0.242,0,50
27,151560.333,65.15499999999884,0,0,0,0.0009773843811168245,-0.004066617157146788,1.590326561124713,0,0,0.243,0,50
28,151625.518,65.18499999999767,0,0,0,0.0008377580409572782,-0.00445058959258554,1.5896109761313957,0,0,0.242,0,50
29,151690.887,65.36899999997695,0,0,0,0.0015184364492350666,-0.006352998477259359,1.590937426362911,0,0,0.243,0,50
30,151755.92,65.03300000002491,0,0,0,0.001291543646475804,-0.006981317007977318,1.5940790190165008,0,0,0.242,0,50
31,151821.166,65.24599999998463,0,0,0,0.0027401669256310974,-0.008342673824532893,1.5992626468949243,0,0,0.242,0,50
32,151886.26,65.09400000001187,0,0,0,0.006213372137099812,-0.010716321607245182,1.604934966963906,0,0,0.243,0,50
33,151951.507,65.24700000000303,0,0,0,0.013421581947836393,-0.014084807063594239,1.612509695917561,0,0,0.242,0,50
34,152016.723,65.2159999999858,0,0,0,0.0204378055408536,-0.015446163880149815,1.6188103345172606,0,0,0.241,0,50
35,152081.939,65.2160000000149,0,0,0,0.023038346126325153,-0.005777039824101231,1.6238019761779643,0,0,0.242,0,50
36,152147.094,65.15499999999884,0,0,0,0.017400932642383467,-0.0029321531433504737,1.6335583666966127,0,0,0.242,0,50
37,152212.371,65.27700000000186,0,0,0,0.0124965574442794,-0.01864011641129944,1.640173164561671,0,0,0.242,0,50
38,152277.465,65.09399999998277,0,0,0,0.015830136315588567,-0.020734511513692634,1.6399288184663918,0,0,0.242,0,50
39,152342.681,65.2160000000149,0,0,0,0.014433872913993106,-0.011047934165124106,1.64050477711955,0,0,0.241,0,50
40,152407.836,65.15499999999884,0,0,0,0.007976154681614086,0.0019198621771937623,1.6385674616498362,0,0,0.241,0,50
41,152473.052,65.2159999999858,0,0,0,-0.00047123889803846896,0.009232791743050004,1.6375202640986395,0,0,0.241,0,50
42,152538.574,65.5219999999972,-0.0036871981620788573,0.0008673783540725708,0,-0.0079412480965742,0.010454522219446033,1.1494040321933856,0,0,0.241,0,50
43,152603.607,65.03299999999581,-0.01924428176879883,0.00868402099609375,0,-0.00884881930761125,0.01350884841043611,1.148409194519749,0,0,0.247,0,50
44,152668.67,65.06300000002375,-0.03631710052490234,0.01273729419708252,0,0.00301941960595019,0.025551620249196983,1.1488455268327473,0,0,0.279,0,50
45,152734.1,65.42999999999302,-0.09573443603515625,-0.09307114410400391,0,-0.0035081117965086025,0.01876228945893904,1.1478157825740707,0,0,0.345,0,50
46,152799.102,65.00200000000768,-0.051377296447753906,-0.07015864562988282,0,-0.009808750396208132,0.002565634000431664,1.1476761562339113,0,0,0.388,0,50
47,152864.379,65.27699999997276,-0.02380461311340332,-0.0759236831665039,0,-0.008028514559173916,-0.013055062804917585,1.1482870214721093,0,0,0.48,0,50
48,152929.412,65.03300000002491,-0.007607320785522461,-0.06309660339355469,0,0.00031415926535897925,-0.017174039839624202,1.146506785635075,0,0,0.525,0,50
49,152994.689,65.27700000000186,0.009416022300720216,-0.06853079223632813,0,0.006126105674500097,-0.01572541656046891,1.1454770413763984,0,0,0.61,0,50
50,153059.997,65.30799999998999,0.014201257705688477,-0.058462074279785156,0,0.007120943348136864,-0.014259339988793671,1.143766618709444,0,0,0.688,0,50
51,153125.091,65.09399999998277,0.013293222427368164,-0.055499702453613284,0,0.006335545184739415,-0.014206980111233843,1.142178369090129,0,0,0.722,0,50
52,153190.277,65.18600000001607,-0.019029293060302734,-0.06176248931884765,0,0.010314895879286487,-0.00895353906273091,1.139717454844817,0,0,0.781,0,50
53,153255.554,65.27700000000186,-0.03680693054199219,-0.05885297393798828,0,0.014940018397071462,-0.0067369709126981125,1.1378324992526632,0,0,0.813,0,50
54,153320.617,65.06299999999464,-0.06460814666748046,-0.05594004821777344,0,0.02113593724165133,-0.008290313946973065,1.1358079173203497,0,0,0.818,0,50
55,153385.864,65.24700000000303,-0.07187786865234375,-0.049461395263671874,0,0.023753931119642822,-0.014102260356114183,1.1339753216057555,0,0,0.82,0,50
56,153450.958,65.09400000001187,-0.11124488830566406,-0.04743106842041016,0,0.022026055160168437,-0.019408061282176946,1.132997937224639,0,0,0.817,0,50
57,153516.174,65.2159999999858,-0.113492919921875,-0.03496953201293945,0,0.014695672301792253,-0.02691297706575256,1.1311129816324852,0,0,0.796,0,50
58,153582.061,65.88699999998789,-0.08855576324462891,-0.04357864761352539,0,0.009983283321407565,-0.03153809958353753,1.1293676523804907,0,0,0.777,0,50
59,153646.759,64.69800000000396,-0.07482102203369141,-0.05261101150512695,0,0.015550883635269476,-0.034260813216648686,1.1276048698359764,0,0,0.758,0,50
60,153711.73,64.97100000001956,-0.061012977600097655,-0.05168829345703125,0,0.02403318379996192,-0.03649483465920143,1.1257373675363425,0,0,0.738,0,50
61,153777.13,65.39999999999418,-0.02861785316467285,-0.042113479614257814,0,0.030874874467779687,-0.040299652428549076,1.124445823889867,0,0,0.716,0,50
62,153842.071,64.94099999999162,-0.0009075100421905518,-0.027993686676025392,0,0.037716565135597464,-0.03492403833240653,1.124393464012307,0,0,0.715,0,50
63,153907.318,65.24700000000303,0.04897525024414062,-0.011299571990966796,0,0.04036946559862884,-0.02553416695667704,1.1266274854548597,0,0,0.7,0,50
64,153972.473,65.15499999999884,0.05782276153564453,0.01183856964111328,0,0.03974114706791088,-0.014870205226991689,1.1289313200674922,0,0,0.697,0,50
65,154037.689,65.2160000000149,0.06918183135986328,0.04694146347045899,0,0.033807027611130164,-0.007539822368615503,1.129332745795451,0,0,0.698,0,50
66,154102.996,65.3070000000007,0.09016451263427734,0.0669186019897461,0,0.02694788365079245,0.005009094953223725,1.1284600811694538,0,0,0.698,0,50
67,154168.029,65.03299999999581,0.07470392608642579,0.08117842102050782,0,0.021642082724729686,0.020402898955813712,1.129943611033649,0,0,0.702,0,50
68,154233.276,65.24700000000303,0.061903282165527346,0.09349951171875,0,0.011815879036001611,0.025411993909037436,1.1303450367616075,0,0,0.716,0,50
69,154298.645,65.36899999997695,0.01886978530883789,0.10950935363769532,0,0.00942477796076938,0.024312436480281013,1.1321252725986417,0,0,0.725,0,50
70,154363.616,64.97100000001956,0.023117286682128906,0.10695033264160156,0,0.007382742735936014,0.014102260356114183,1.133643709047877,0,0,0.727,0,50
71,154428.955,65.33899999997811,0.0012898050546646118,0.1147891845703125,0,0.005672320068981571,0.007435102613495844,1.1346036401364736,0,0,0.739,0,50
72,154494.018,65.06300000002375,0.00031331419944763183,0.10275314331054687,0,-0.00027925268031909274,0.005916666164260778,1.1353890382998713,0,0,0.738,0,50
73,154559.234,65.2159999999858,0.01006247329711914,0.09648213958740234,0,-0.016441001553786583,0.0018151424220741027,1.135144692204592,0,0,0.741,0,50
74,154624.633,65.39900000000489,-0.011711318016052246,0.07396346282958985,0,-0.03682644721708035,-0.0045204027626653135,1.133277189904958,0,0,0.743,0,50
75,154689.697,65.06399999998393,-0.03282689666748047,0.06193389892578125,0,-0.04867723283812185,-0.005916666164260778,1.13263141808172,0,0,0.74,0,50
76,154754.76,65.06300000002375,-0.04788249969482422,0.02756043815612793,0,-0.04056145181634822,-0.0045204027626653135,1.1321776324762016,0,0,0.732,0,50
77,154820.281,65.52099999997881,-0.05725069427490234,-0.01481431484222412,0,-0.02064724505109292,0.0019024088846738192,1.1322823522313212,0,0,0.727,0,50
78,154885.284,65.00300000002608,-0.06617491912841797,-0.014151722908020019,0,-0.000890117918517108,0.0048520153205442364,1.1339229617281958,0,0,0.728,0,50
79,154950.469,65.18499999999767,-0.06620305633544922,-0.024045230865478516,0,0.015376350710070043,0.0004188790204786391,1.134847986231753,0,0,0.716,0,50
80,155015.563,65.09399999998277,-0.07679991149902343,-0.01647934341430664,0,0.024888395133439135,-0.008517206749732328,1.1362442496333485,0,0,0.716,0,50
81,155080.871,65.30800000001909,-0.048492332458496094,0.004661416053771973,0,0.027942721324429213,-0.026040312439755395,1.1383386447357415,0,0,0.715,0,50
82,155146.148,65.27699999997276,-0.022725631713867187,0.021571584701538086,0,0.03895574890451344,-0.029670597283903602,1.1420212894574497,0,0,0.712,0,50
83,155211.181,65.03300000002491,-0.012473283767700195,0.0272977294921875,0,0.04700171675620729,-0.026476644752753974,1.1447440030905607,0,0,0.712,0,50
84,155276.306,65.125,0.013183197021484376,0.06421681213378906,0,0.03890338902695361,-0.0216071761396898,1.1429114073759667,0,0,0.715,0,50
85,155341.705,65.39899999997579,0.02511572265625,0.08225438690185546,0,0.019582594207376378,-0.01607448241086778,1.1404155865456147,0,0,0.727,0,50
86,155406.768,65.06300000002375,0.020719568252563478,0.10271611785888672,0,0.0014660765716752368,-0.010506882097005862,1.137291447184545,0,0,0.729,0,50
87,155472.045,65.27700000000186,0.01759048843383789,0.10398894500732422,0,-0.010367255756846317,-0.006475171524898962,1.1338706018506362,0,0,0.73,0,50
88,155537.139,65.09399999998277,-0.006412063121795654,0.10032627105712891,0,-0.014189526818713898,-0.0027925268031909274,1.1313573277277644,0,0,0.736,0,50
89,155602.264,65.125,-0.01641286087036133,0.08293811798095703,0,-0.009878563566287904,-0.008429940287132611,1.1300308774962484,0,0,0.734,0,50
90,155667.633,65.36900000000605,-0.015331341743469238,0.08115771484375,0,-0.005375614096142535,-0.01860520982625955,1.1247076232776658,0,0,0.742,0,50
91,155732.696,65.06299999999464,-0.002031534433364868,0.07256761932373047,0,0.013055062804917585,-0.011239920382843481,1.0950719325788023,0,0,0.742,0,50
92,155797.76,65.06400000001304,0.010621706962585449,0.07350701141357421,0,0.0216071761396898,-0.0032114058236695662,1.0676353567374512,0,0,0.758,0,50
93,155863.128,65.36799999998766,-0.007315413951873779,0.09559503936767579,0,0.016929693744344998,0.002530727415391778,1.0459060075501219,0,0,0.756,0,50
94,155928.314,65.18600000001607,-0.022240274429321288,0.1235004653930664,0,0.007539822368615503,0.002513274122871834,1.027353157601422,0,0,0.755,0,50
95,155993.408,65.09399999998277,-0.02548477554321289,0.11988153839111328,0,0.009791297103688189,0.005951572749300664,1.0087828543602024,0,0,0.768,0,50
96,156058.593,65.18499999999767,-0.05143638610839844,0.11525628662109375,0,0.00932005820564972,0.00809832772925369,0.9927432785343746,0,0,0.78,0,50
97,156123.718,65.125,-0.06169430923461914,0.14110482788085937,0,0.005358160803622591,0.012775810124598492,0.9771051284365054,0,0,0.752,0,50
98,156189.056,65.33800000001793,-0.0788821029663086,0.16126873779296874,0,-0.007347836150896126,0.011205013797803597,0.9612575388283968,0,0,0.745,0,50
99,156254.089,65.03299999999581,-0.10185544586181641,0.16297467041015626,0,-0.01843067690106012,0.0010995574287564276,0.9466665862817243,0,0,0.74,0,50
100,156319.274,65.18499999999767,-0.10418548583984374,0.14759214782714844,0,-0.022130774915288098,-0.00603883921190038,0.9347285341980831,0,0,0.74,0,50
101,156384.613,65.33900000000722,-0.12412828063964844,0.10982484436035156,0,-0.03145083312093782,-0.013107422682477414,0.9237853197880788,0,0,0.727,0,50
102,156449.584,64.97099999999045,-0.10886658477783204,0.08902940368652344,0,-0.04482005519121439,-0.020839231268812295,0.912615212575315,0,0,0.743,0,50
103,156514.923,65.33900000000722,-0.11037593078613281,0.04768602752685547,0,-0.05345943498858631,-0.03129375348825832,0.9034871405873846,0,0,0.716,0,50
104,156579.986,65.06299999999464,-0.07907977294921875,-0.002213701009750366,0,-0.04879940588576145,-0.04003785304074992,0.896278930776648,0,0,0.712,0,50
105,156645.202,65.2159999999858,-0.035458454132080076,-0.05164804840087891,0,-0.038467056713955027,-0.04461061568097506,0.8896815862041094,0,0,0.699,0,50
106,156710.54,65.33800000001793,-0.03671256637573242,-0.07214865112304687,0,-0.013194689145077132,-0.04155628948998498,0.8836951068697688,0,0,0.686,0,50
107,156775.573,65.03299999999581,-0.01384968090057373,-0.06791392517089843,0,0.010978120995044333,-0.03536037064540511,0.8780053335082673,0,0,0.688,0,50
108,156840.728,65.15499999999884,0.008936999320983886,-0.033769180297851566,0,0.02366666465704311,-0.03639011490408177,0.8726122661196049,0,0,0.69,0,50
109,156906.097,65.36900000000605,0.039390968322753905,-0.012963371276855469,0,0.02623229865747477,-0.03888593573443366,0.8677253442140208,0,0,0.706,0,50
110,156971.16,65.06299999999464,0.08815154266357422,-0.005216148376464844,0,0.0209614043164519,-0.037960911230876665,0.8634492875466346,0,0,0.708,0,50
111,157036.315,65.15499999999884,0.089999755859375,0.011128142356872558,0,0.013962634015954637,-0.02754129559647052,0.8580038602804123,0,0,0.716,0,50
112,157101.531,65.2159999999858,0.12096239471435546,0.022390068054199217,0,0.01117010721276371,-0.01858775653373961,0.8530820317897884,0,0,0.717,0,50
113,157166.748,65.21700000000419,0.10827923583984375,0.02636901664733887,0,0.007906341511534314,-0.006841690667817772,0.8489106948775219,0,0,0.739,0,50
114,157231.994,65.24600000001374,0.08919488525390624,0.01904537010192871,0,0.01530653753999027,0.009843656981248018,0.8456294758837726,0,0,0.758,0,50
115,157297.119,65.125,0.08003807067871094,0.045080738067626955,0,0.018936822384138473,0.02548180707911721,0.843971413094378,0,0,0.759,0,50
116,157362.213,65.09399999998277,0.05718392562866211,0.07223563385009765,0,0.00869173967493176,0.03869394951671429,0.8410218066585076,0,0,0.77,0,50
117,157427.978,65.76500000001397,0.022875720977783204,0.10024916076660156,0,-0.0037350045992678655,0.04721115626644662,0.836588670358442,0,0,0.794,0,50
118,157492.584,64.60599999999977,-0.02467149543762207,0.11926226043701171,0,-0.0017453292519943296,0.053633967913785746,0.8336914238001315,0,0,0.788,0,50
119,157557.83,65.24599999998463,-0.05698215484619141,0.13025790405273438,0,0.004206243497306334,0.052447144022429594,0.8321031741808166,0,0,0.801,0,50
120,157622.955,65.125,-0.10622003936767578,0.15664132690429688,0,0.0020245819323134223,0.04084070449666731,0.8381943732702767,0,0,0.8,0,50
121,157688.171,65.2160000000149,-0.13535113525390624,0.19628131103515625,0,-0.000890117918517108,0.02176425577236929,0.8474620715983666,0,0,0.776,0,50
122,157753.54,65.36900000000605,-0.1390800323486328,0.17682630920410156,0,-0.0053058009260627615,0.007644542123735163,0.8569392094366958,0,0,0.776,0,50
123,157818.572,65.03199999997742,-0.09651351165771484,0.140669677734375,0,-0.01960004749989632,-0.0008203047484373349,0.8659974682545464,0,0,0.776,0,50
124,157883.697,65.125,-0.06134952926635742,0.12331885528564453,0,-0.03384193419617005,-0.014678219009272311,0.8743575953715993,0,0,0.798,0,50
125,157949.035,65.33800000001793,-0.06500997161865234,0.08715382385253906,0,-0.04874704600820162,-0.032271137869375154,0.8824384698083331,0,0,0.83,0,50
126,158014.068,65.03299999999581,-0.041148929595947265,0.04945880889892578,0,-0.06777113485493981,-0.03975860036043082,0.8895768664489897,0,0,0.848,0,50
127,158079.345,65.27700000000186,0.0038599910736083986,-0.007907291412353516,0,-0.07894124206770352,-0.03616322210132251,0.8950921068852917,0,0,0.873,0,50
128,158144.439,65.09400000001187,-0.0004329166412353516,0.19351063537597657,0,-0.08663814406899853,-0.03581415625092364,0.9002408281786752,0,0,0.895,0,50
129,158209.869,65.42999999999302,-0.022670528411865235,0.13873236083984375,0,-0.08052949168701835,-0.030717794835100197,0.9034696872948647,0,0,0.927,0,50
130,158275.085,65.2159999999858,-0.004773036956787109,0.08883509826660156,0,-0.07276277651564358,-0.032183871406775436,0.9057909752000173,0,0,1.014,0,50
131,158340.179,65.09400000001187,0.013934141159057617,0.0661671142578125,0,-0.07986626657126052,-0.03954916085019151,0.9073792248193319,0,0,1.01,0,50
132,158405.181,65.00200000000768,0.03337298583984375,0.02476703643798828,0,-0.08887216551155125,-0.046129052130210124,0.9065414667783748,0,0,1.017,0,50
133,158470.52,65.33899999997811,0.019324886322021485,-0.035750877380371096,0,-0.09419541973013398,-0.04534365396681268,0.9055466291047379,0,0,1.032,0,50
134,158535.552,65.03200000000652,0.03443163299560547,-0.10043427276611328,0,-0.10243337379954719,-0.040962877544306914,0.9025970226688675,0,0,1.057,0,50
135,158600.86,65.30799999998999,0.052422946929931644,-0.1515875549316406,0,-0.11211995114811574,-0.03466223894460738,0.9000837485459957,0,0,1.061,0,50
136,158666.168,65.30800000001909,0.07822689056396484,-0.21864759826660157,0,-0.11192796493039635,-0.023596851486963336,0.8973261283278445,0,0,1.088,0,50
137,158731.201,65.03299999999581,0.07219989013671875,-0.29995111083984377,0,-0.09890780871051864,-0.011623892818282234,0.8945510548171737,0,0,1.103,0,50
138,158796.447,65.24599999998463,0.05629076385498047,-0.380627685546875,0,-0.08662069077647858,-0.0008203047484373349,0.8926311926399799,0,0,1.142,0,50
139,158861.48,65.03300000002491,0.07634455871582031,-0.43709664916992186,0,-0.0688532389911763,0.005026548245743668,0.8889136413332319,0,0,1.124,0,50
140,158926.666,65.18599999998696,0.030387008666992187,-0.49208447265625,0,-0.03537782393792506,0.011501719770642632,0.8875522845166764,0,0,1.151,0,50
141,158992.034,65.36800000001676,0.04058708953857422,-0.52504345703125,0,0.002303834612632515,0.012095131716320704,0.8837474667473287,0,0,1.212,0,50
142,159057.037,65.00299999999697,0.016443294525146486,-0.498012939453125,0,0.0402298392584693,0.014154620233674012,0.8807804070189384,0,0,1.183,0,50
143,159122.253,65.2159999999858,0.005938264369964599,-0.48140179443359377,0,0.07620107514207243,0.018500490071139894,0.8764694437665125,0,0,1.223,0,50
144,159187.408,65.15499999999884,-0.00010448789596557618,-0.41250759887695315,0,0.09782570457428218,0.01773254520026239,0.8727169858747246,0,0,1.224,0,50
145,159252.655,65.24700000000303,-0.00017496836185455322,-0.3134082946777344,0,0.10499900779997887,0.012182398178920419,0.8699593656565736,0,0,1.245,0,50
146,159317.932,65.27700000000186,0.015328202247619629,-0.21993966674804688,0,0.09964084699635627,0.0031764992386296795,0.8665385203226647,0,0,1.278,0,50
147,159383.117,65.18499999999767,0.013376672744750977,-0.156445068359375,0,0.09258971681829918,-0.008429940287132611,0.8637983533970336,0,0,1.283,0,50
148,159448.211,65.09400000001187,0.023961822509765626,-0.13631924438476561,0,0.09025097562062678,-0.01117010721276371,0.8634667408391545,0,0,1.305,0,50
149,159513.58,65.36899999997695,0.03064677429199219,-0.10942330169677734,0,0.08033750546929898,-0.011501719770642632,0.864583751560431,0,0,1.328,0,50
150,159578.552,64.97200000000885,0.03552908706665039,-0.06364540481567382,0,0.06538003377970758,-0.015690509975429024,0.8648455509482302,0,0,1.342,0,50
151,159643.829,65.27700000000186,0.026429527282714842,-0.021577516555786134,0,0.055728363016178936,-0.015254177662430441,0.8660323748395863,0,0,1.359,0,50
152,159708.923,65.09400000001187,0.020527568817138672,0.00892402744293213,0,0.045134214456573354,-0.014137166941154071,0.866747959832904,0,0,1.362,0,50
153,159774.139,65.2159999999858,0.03351166152954101,0.0320947265625,0,0.032969269570172884,-0.014695672301792253,0.8681616765270194,0,0,1.37,0,50
154,159839.263,65.12400000001071,0.02882463836669922,0.04857949829101563,0,0.023649211364523165,-0.013945180723434694,0.8698546459014539,0,0,1.377,0,50
155,159904.51,65.24700000000303,0.02086884307861328,0.04992550659179688,0,0.021432643214490364,-0.007696902001294993,0.8709192967451703,0,0,1.38,0,50
156,159969.665,65.15499999999884,0.024680788040161133,0.049822551727294925,0,0.015987215948268057,-0.006440264939859076,0.8714079889357287,0,0,1.385,0,50
157,160035.003,65.33799999998882,0.01738724899291992,0.057725975036621094,0,0.01233947781159991,-0.006021385919380436,0.8711985494254895,0,0,1.385,0,50
158,160100.036,65.03299999999581,0.0223023796081543,0.05571642684936524,0,0.007120943348136864,-0.008569566627292158,0.8725424529495253,0,0,1.382,0,50
159,160165.313,65.27700000000186,0.025808721542358398,0.06255710220336914,0,0.0017278759594743865,-0.011309733552923255,0.8727867990448044,0,0,1.378,0,50
160,160230.407,65.09400000001187,0.015565471649169922,0.055637245178222654,0,-0.0028623399732707008,-0.013561208287995941,0.872594812827085,0,0,1.386,0,50
161,160295.623,65.2159999999858,0.043129535675048826,0.04066880798339844,0,-0.007120943348136864,-0.015812683023068628,0.8729438786774839,0,0,1.381,0,50
162,160360.9,65.27700000000186,0.038997875213623044,0.009662988662719727,0,-0.00481710873550435,-0.008621926504851989,0.8716174284459681,0,0,1.378,0,50
163,160426.055,65.15499999999884,0.035745193481445316,0.0034255895614624023,0,-0.007103490055616921,-0.007173303225696694,0.8725424529495253,0,0,1.395,0,50
164,160491.18,65.125,0.03787602996826172,-0.005090930938720703,0,-0.006440264939859076,-0.006056292504420323,0.8722282936841662,0,0,1.383,0,50
165,160556.671,65.49100000000908,0.02673834991455078,-0.012342875480651855,0,-0.004956735075663896,-0.004223696789826277,0.8733976642830025,0,0,1.381,0,50
166,160621.551,64.88000000000466,0.01368369197845459,-0.022615564346313476,0,-0.0050789081233034985,-0.005148721293383272,0.8724028266093656,0,0,1.385,0,50
167,160686.859,65.30799999998999,0.02161116409301758,-0.027044649124145507,0,-0.006911503837897546,-0.006213372137099812,0.8723853733168457,0,0,1.387,0,50
168,160751.892,65.03299999999581,0.015261748313903808,-0.030397802352905273,0,-0.002949606435870417,0.003961897402027128,0.8713905356432089,0,0,1.383,0,50
169,160817.138,65.24600000001374,0.023508583068847656,-0.06741117095947266,0,0.00003490658503988659,0.01043706892692609,0.8707971236975308,0,0,1.386,0,50
170,160882.476,65.33799999998882,0.00011747375130653381,-0.05626460266113281,0,0.003106686068549906,0.010349802464326372,0.8702211650443726,0,0,1.39,0,50
171,160947.509,65.03299999999581,0.007347342014312744,-0.06812628173828125,0,0.006998770300497261,0.009354964790689606,0.869208874078216,0,0,1.391,0,50
172,161012.634,65.125,-0.011103163719177246,-0.06770970153808593,0,0.006475171524898962,0.008813912722571364,0.8697150195612944,0,0,1.393,0,50
173,161077.972,65.33800000001793,-0.004547264099121094,-0.07540570831298828,0,0.00832522053201295,0.009494591130849153,0.8698197393164141,0,0,1.413,0,50
174,161143.035,65.06299999999464,-0.03521962738037109,-0.09900707244873047,0,0.014590952546672595,0.01001818990644745,0.8698720991939739,0,0,1.416,0,50
175,161208.282,65.24700000000303,-0.03109929847717285,-0.08092848205566407,0,0.018727382873899155,0.004537856055185257,0.8692612339557758,0,0,1.399,0,50
176,161273.406,65.1239999999816,-0.024745670318603516,-0.06707608795166016,0,0.024713862208239703,-0.003996803987067014,0.8684583824998585,0,0,1.402,0,50
177,161338.623,65.21700000000419,-0.044783344268798826,-0.059207130432128906,0,0.027349309378751144,-0.01392772743091475,0.866119641302186,0,0,1.407,0,50
178,161403.869,65.24600000001374,-0.026975286483764647,-0.05846323013305664,0,0.024713862208239703,-0.02467895562319982,0.8647233779005906,0,0,1.41,0,50
179,161468.994,65.125,-0.0005904680490493774,-0.03838013458251953,0,0.02113593724165133,-0.03159045946109736,0.863362021084035,0,0,1.416,0,50
180,161534.21,65.2159999999858,-0.0019476213455200196,-0.04101934814453125,0,0.02438224965036078,-0.03008947630438224,0.8631351282812757,0,0,1.416,0,50
181,161599.578,65.36800000001676,0.03855974197387695,-0.03791317367553711,0,0.02525491427635795,-0.029757863746503316,0.8638856198596332,0,0,1.427,0,50
182,161664.581,65.00299999999697,0.032879810333251956,-0.05263221740722656,0,0.0274540291338708,-0.027052603405912107,0.8638158066895536,0,0,1.441,0,50
183,161729.858,65.27700000000186,0.04076799011230469,-0.05867999649047852,0,0.030787608005179972,-0.023335052099164186,0.863955433029713,0,0,1.437,0,50
184,161795.013,65.15499999999884,0.06033285140991211,-0.051689022064208986,0,0.03344050846821135,-0.019792033717615693,0.8649502707033497,0,0,1.446,0,50
185,161860.137,65.1239999999816,0.03892105865478516,-0.050542274475097654,0,0.04155628948998498,-0.011885692206081384,0.8655960425265877,0,0,1.451,0,50
186,161925.598,65.46100000001024,0.05753762435913086,-0.02459087371826172,0,0.04838052686528282,-0.006370451769779303,0.8662418143498256,0,0,1.45,0,50
187,161990.509,64.91099999999278,0.04446688842773437,0.0054670763015747074,0,0.055710909723659,-0.0008552113334772215,0.8672890119010223,0,0,1.452,0,50
188,162055.694,65.18499999999767,0.03367095184326172,0.03241090774536133,0,0.061121430404841415,0.002513274122871834,0.868266396282139,0,0,1.433,0,50
189,162121.032,65.33800000001793,0.02391282653808594,0.08396923065185546,0,0.05895722213236845,-0.0005061454830783556,0.8680395034793797,0,0,1.451,0,50
190,162186.065,65.03299999999581,0.027598899841308595,0.09502894592285156,0,0.05120796025351363,-0.002478367537831948,0.8689645279829367,0,0,1.442,0,50
191,162251.312,65.24700000000303,0.049583148956298825,0.10095543670654297,0,0.044418629463255685,-0.001239183768915974,0.8692786872482957,0,0,1.452,0,50
192,162316.406,65.09399999998277,0.04290079879760742,0.13024259948730468,0,0.03705334001983962,0.00008726646259971648,0.8703433380920121,0,0,1.448,0,50
193,162381.683,65.27700000000186,0.048126380920410154,0.14461016845703126,0,0.030002209841782524,0.00017453292519943296,0.8690517944455365,0,0,1.461,0,50
194,162446.899,65.2160000000149,0.05461322021484375,0.14025151062011718,0,0.01816887751326097,-0.0026354471705114374,0.8688249016427773,0,0,1.457,0,50
195,162512.023,65.1239999999816,0.05303763961791992,0.1503719482421875,0,0.0037699111843077517,-0.005166174585903216,0.8678126106766205,0,0,1.469,0,50
196,162577.301,65.27800000002026,0.0757725601196289,0.1435939178466797,0,-0.004642575810304917,-0.003717551306747922,0.8676904376289809,0,0,1.471,0,50
197,162642.517,65.2159999999858,0.05497095489501953,0.11952458190917968,0,-0.007539822368615503,0,0.8655262293565079,0,0,1.479,0,50
198,162707.55,65.03299999999581,0.06150474548339844,0.10428462219238281,0,-0.009564404300928926,0.0019373154697137059,0.8640426994923127,0,0,1.469,0,50
199,162772.918,65.36800000001676,0.04832317733764648,0.09354477691650391,0,-0.013142329267517301,0.0022863813201125715,0.8622624636552786,0,0,1.475,0,50
200,162838.104,65.18599999998696,0.0449656982421875,0.07462422180175782,0,-0.013945180723434694,0.003682644721708035,0.8608836535462031,0,0,1.478,0,50
201,162903.259,65.15499999999884,0.02406697654724121,0.044487895965576174,0,-0.009599310885968814,0.008988445647770796,0.8599062691650862,0,0,1.485,0,50
202,162968.444,65.18499999999767,0.020961969375610352,0.027006467819213866,0,-0.0069464104229374326,0.008517206749732328,0.8588765249064096,0,0,1.487,0,50
203,163033.508,65.06400000001304,0.01494080924987793,0.03275124359130859,0,-0.007819075048934596,0.0007155849933176752,0.8589812446615291,0,0,1.483,0,50
204,163098.693,65.18499999999767,0.011625731468200683,0.018472909927368164,0,-0.00853466004225227,-0.008360127117052838,0.8581958464981317,0,0,1.493,0,50
205,163164.062,65.36900000000605,-0.0073278026580810545,0.005083269596099853,0,-0.0059690260418206065,-0.01265363707695889,0.8585449123485307,0,0,1.498,0,50
206,163229.125,65.06299999999464,0.0037700622081756592,-0.03262085342407227,0,0.00020943951023931956,-0.013334315485236677,0.8595048434371275,0,0,1.494,0,50
207,163294.372,65.24700000000303,0.009965710639953614,-0.04161126708984375,0,0.0036651914291880917,-0.01626646862858715,0.859644469777287,0,0,1.49,0,50
208,163359.436,65.06399999998393,0.0054258198738098146,-0.05258689880371094,0,0.006056292504420323,-0.016545721308906244,0.8603251481855647,0,0,1.491,0,50
209,163424.652,65.2160000000149,0.010185736656188965,-0.061751235961914064,0,0.009773843811168246,-0.01811651763570114,0.8623497301178783,0,0,1.482,0,50
210,163489.929,65.27700000000186,0.02418566131591797,-0.08029766082763672,0,0.012007865253720985,-0.018465583486100008,0.8628733288934765,0,0,1.475,0,50
211,163555.053,65.12400000001071,0.01645564842224121,-0.0761366195678711,0,0.01722639971718403,-0.013892820845874865,0.868283849574659,0,0,1.471,0,50
212,163620.178,65.125,0.021780696868896485,-0.09185916900634766,0,0.022706733568446227,-0.0091106186954104,0.8730835050176435,0,0,1.468,0,50
213,163685.546,65.36799999998766,0.03572412109375,-0.09540636444091796,0,0.02707005669843205,-0.003682644721708035,0.8781624131409468,0,0,1.462,0,50
214,163750.579,65.03299999999581,0.04914930725097656,-0.08210662078857422,0,0.02881538595042638,-0.0015184364492350666,0.8825955494410126,0,0,1.461,0,50
215,163815.917,65.33799999998882,0.043284839630126956,-0.07565362548828125,0,0.03066543495754037,-0.00020943951023931956,0.8878664437820354,0,0,1.455,0,50
216,163881.072,65.15499999999884,0.04359385299682617,-0.07851618957519531,0,0.032637657012293965,0.0026529004630313807,0.8912523825309043,0,0,1.453,0,50
217,163946.228,65.15600000001723,0.021324792861938478,-0.0677291488647461,0,0.0383797902513553,0.010454522219446033,0.8952666398104913,0,0,1.458,0,50
218,164011.474,65.24599999998463,0.013462675094604493,-0.04267718124389648,0,0.03906046865963309,0.011135200627723822,0.902439943036188,0,0,1.456,0,50
219,164076.599,65.125,0.025776117324829102,-0.02173383712768555,0,0.04146902302738527,-0.006475171524898962,0.9109746030784402,0,0,1.449,0,50
220,164141.784,65.18500000002678,0.022635183334350585,0.027094539642333985,0,0.05677556056737554,-0.04806636759992384,0.9170134422903407,0,0,1.456,0,50
221,164207.061,65.27699999997276,0.03771176528930664,0.06504432678222656,0,0.07972664023110097,-0.09473647179825219,0.9222843366313636,0,0,1.459,0,50
222,164272.064,65.00300000002608,0.07559996032714844,0.0651165771484375,0,0.10088003076527224,-0.13163273218541233,0.9249023305093551,0,0,1.454,0,50
223,164337.402,65.33799999998882,0.15715643310546876,0.10175418853759766,0,0.11576768928478387,-0.15535175672001528,0.9289340410814618,0,0,1.45,0,50
224,164402.465,65.06299999999464,0.2485103302001953,0.1507957763671875,0,0.12107349021084664,-0.16858135245013228,0.9327388588508095,0,0,1.453,0,50
225,164467.681,65.2160000000149,0.3470272216796875,0.21445960998535157,0,0.11833332328521554,-0.17215927741672069,0.938149379531992,0,0,1.463,0,50
226,164532.958,65.27700000000186,0.44672210693359377,0.2706912536621094,0,0.10627309815393474,-0.17299703545767794,0.9422159966891388,0,0,1.475,0,50
227,164598.052,65.09399999998277,0.529476806640625,0.30779391479492185,0,0.09365436766201572,-0.17050121462732606,0.9471901850573228,0,0,1.462,0,50
228,164663.299,65.24700000000303,0.7600799560546875,0.3267850341796875,0,0.08576547944300135,-0.1662426112524599,0.9509775495341504,0,0,1.456,0,50
229,164728.576,65.27700000000186,0.8543184204101563,0.3659903259277344,0,0.08520697408236316,-0.16318828506146982,0.9529672248814238,0,0,1.448,0,50
230,164793.609,65.03299999999581,0.9501962890625,0.4319222106933594,0,0.07864453609486449,-0.1676214213615354,0.9536304499971818,0,0,1.45,0,50
231,164858.947,65.33799999998882,1.039137451171875,0.4654955749511719,0,0.06866125277345693,-0.17277014265491866,0.9524959859833854,0,0,1.457,0,50
232,164923.95,65.00300000002608,1.1243089599609375,0.48819427490234374,0,0.05955063407804652,-0.1663996908851394,0.9511695357518696,0,0,1.462,0,50
233,164989.166,65.2159999999858,1.2140260009765624,0.4849156188964844,0,0.046739917368408136,-0.1464854841198841,0.9495987394250749,0,0,1.473,0,50
234,165054.443,65.27700000000186,1.285310302734375,0.4871676330566406,0,0.028850292535466268,-0.11679743354346053,0.9487609813841175,0,0,1.487,0,50
235,165119.72,65.27700000000186,1.297800537109375,0.46098593139648436,0,0.006632251157578452,-0.08452629567408539,0.9500525250305933,0,0,1.542,0,50
236,165184.844,65.12400000001071,1.2969188232421875,0.371330078125,0,-0.006649704450098395,-0.05047492196767601,0.9508553764865106,0,0,1.496,0,50
237,165250.213,65.36899999997695,1.394907470703125,0.34313186645507815,0,-0.011065387457644049,-0.010402162341886203,0.9507681100239109,0,0,1.493,0,50
238,165315.063,64.85000000000582,1.39898046875,0.36571005249023436,0,-0.008360127117052838,0.0333008821280518,0.9534908236570222,0,0,1.49,0,50
239,165380.218,65.15499999999884,1.3691683349609376,0.3772792053222656,0,-0.010873401239924672,0.07211700469240569,0.9548870870586176,0,0,1.481,0,50
240,165445.465,65.24700000000303,1.244626220703125,0.3556584167480469,0,-0.020071286397934786,0.10576695267085637,0.9546252876708183,0,0,1.465,0,50
241,165510.711,65.24600000001374,1.16501806640625,0.37608114624023437,0,-0.03256784384221419,0.13370967399528558,0.9569814821610109,0,0,1.494,0,50
242,165575.958,65.24700000000303,1.053463623046875,0.3443159484863281,0,-0.042498767286061924,0.15571827586293407,0.9564229768003726,0,0,1.498,0,50
243,165641.052,65.09399999998277,0.9076505126953125,0.3390299682617188,0,-0.04330161874197931,0.17613862811126776,0.9549918068137373,0,0,1.496,0,50
244,165706.207,65.15499999999884,0.7595696411132813,0.3481639404296875,0,-0.04583234615737109,0.1868549497185129,0.9548521804735779,0,0,1.498,0,50
245,165771.972,65.76500000001397,0.6234888305664062,0.318497314453125,0,-0.05628686837681713,0.1887573586031867,0.9537351697523013,0,0,1.521,0,50
246,165836.578,64.60599999999977,0.47827587890625,0.24470005798339844,0,-0.0637743308678728,0.1859648317999958,0.9523214530581859,0,0,1.498,0,50
247,165901.855,65.27700000000186,0.29889349365234374,0.2069540252685547,0,-0.06866125277345693,0.18320721158184475,0.9505237639286318,0,0,1.488,0,50
248,165967.041,65.18599999998696,0.13672982788085938,0.17595257568359374,0,-0.07328637529124189,0.17086773377024486,0.9514313351396688,0,0,1.481,0,50
249,166032.257,65.2160000000149,0.0009690160751342773,0.15635894775390624,0,-0.0759916356318331,0.15236724369910498,0.952635612323545,0,0,1.476,0,50
250,166097.534,65.27700000000186,-0.11853618621826172,0.10091732788085937,0,-0.08002334620394,0.1278279144160647,0.9545729277932586,0,0,1.474,0,50
251,166162.994,65.45999999999185,-0.217755615234375,0.04908400726318359,0,-0.08504989444968368,0.0972322926286041,0.9569814821610109,0,0,1.477,0,50
252,166227.783,64.78899999998976,-0.2821463928222656,-0.005733154773712158,0,-0.0872315560146766,0.06454227573875031,0.9594947562838827,0,0,1.474,0,50
253,166293.151,65.36800000001676,-0.39750177001953124,-0.09164386749267578,0,-0.0838107106807677,0.03666936758440086,0.9611528190732773,0,0,1.472,0,50
254,166358.154,65.00299999999697,-0.44927578735351564,-0.1489583740234375,0,-0.07099999397112931,0.011693705988362009,0.9628457884477117,0,0,1.478,0,50
255,166423.522,65.36799999998766,-0.47264556884765624,-0.1851112823486328,0,-0.059096848472528,-0.019390607989657003,0.9641547853867075,0,0,1.467,0,50
256,166488.494,64.97200000000885,-0.49644720458984376,-0.20768292236328126,0,-0.04476769531365455,-0.05251695719250937,0.9652717961079837,0,0,1.468,0,50
257,166553.802,65.30799999998999,-0.4702850036621094,-0.22886680603027343,0,-0.030700341542580258,-0.08354891129296854,0.9664237134143001,0,0,1.477,0,50
258,166618.988,65.18600000001607,-0.4190566101074219,-0.2522834167480469,0,-0.0183434104384604,-0.109885929705563,0.9663364469517003,0,0,1.49,0,50
259,166684.112,65.1239999999816,-0.3588211669921875,-0.29636407470703124,0,-0.007051130178057092,-0.13077752085193511,0.9665109798768998,0,0,1.518,0,50
260,166749.359,65.24700000000303,-0.298786376953125,-0.3404982604980469,0,0.004049163864626845,-0.14669492363012337,0.965865208053662,0,0,1.51,0,50
261,166814.605,65.24600000001374,-0.1236789321899414,-0.35306719970703127,0,0.017662732030182614,-0.15397294661093971,0.9660571942713814,0,0,1.51,0,50
262,166879.638,65.03299999999581,-0.11602470397949219,-0.35829867553710937,0,0.034714598822167216,-0.15041247493687132,0.9666156996320195,0,0,1.515,0,50
263,166944.946,65.30799999998999,-0.07214321899414063,-0.3610060729980469,0,0.046792277245967975,-0.14507176742576866,0.9671742049926577,0,0,1.5,0,50
264,167010.07,65.12400000001071,0.008621726989746094,-0.367202880859375,0,0.060929444187122046,-0.13076006755941516,0.9680468696186549,0,0,1.504,0,50
265,167075.317,65.24700000000303,0.06900365447998047,-0.32523828125,0,0.07056366165813074,-0.11524409050918556,0.9691813336324512,0,0,1.512,0,50
266,167140.502,65.18499999999767,0.11203449249267577,-0.2798377685546875,0,0.07798131097910664,-0.10175269539126942,0.970472877278927,0,0,1.508,0,50
267,167205.627,65.125,0.17001618957519532,-0.23658477783203125,0,0.08347909812288878,-0.08805186076311393,0.9728639783541593,0,0,1.51,0,50
268,167270.751,65.1239999999816,0.22988041687011718,-0.18811257934570313,0,0.0855036800552022,-0.072640603468004,0.9732828573746379,0,0,1.534,0,50
269,167336.12,65.36900000000605,0.26460888671875,-0.1510450439453125,0,0.08532914713000277,-0.05743878568313338,0.9745569477285937,0,0,1.497,0,50
270,167401.153,65.03299999999581,0.2748334045410156,-0.10062471008300782,0,0.08311257897996996,-0.04401720373529699,0.975359799184511,0,0,1.496,0,50
271,167466.644,65.49100000000908,0.30080490112304686,-0.04283092880249023,0,0.08025023900669927,-0.029234264970905022,0.9760579308853088,0,0,1.507,0,50
272,167531.585,64.94099999999162,0.3150684814453125,-0.004534145832061767,0,0.0838107106807677,-0.007278022980816354,0.979426416341658,0,0,1.489,0,50
273,167596.832,65.24700000000303,0.3126011962890625,0.04440235137939453,0,0.08363617775556827,0.013404128655316452,0.9816604377842106,0,0,1.494,0,50
274,167662.017,65.18499999999767,0.2879117736816406,0.08044694519042969,0,0.07787659122398698,0.028989918875625815,0.9822014898523289,0,0,1.513,0,50
275,167727.233,65.2160000000149,0.2519058837890625,0.14816084289550782,0,0.0723613507876849,0.04120722363958612,0.9833883137436851,0,0,1.483,0,50
276,167792.266,65.03299999999581,0.281008056640625,0.18536631774902343,0,0.06293657282691552,0.04831071369520304,0.9813637318113716,0,0,1.472,0,50
277,167857.666,65.39999999999418,0.1940817108154297,0.21478787231445312,0,0.051417399763752945,0.052586770362589144,0.9797580288995369,0,0,1.465,0,50
278,167922.668,65.00200000000768,0.16623121643066407,0.24492526245117188,0,0.042690753503781306,0.04731587602156627,0.9789202708585795,0,0,1.46,0,50
279,167987.945,65.27700000000186,0.12252581024169922,0.25874990844726564,0,0.035028758087526195,0.0409977841293468,0.9769305955113059,0,0,1.448,0,50
280,168053.039,65.09399999998277,0.10554913330078125,0.311906982421875,0,0.02192133540504878,0.038432150128915134,0.9788853642735396,0,0,1.438,0,50
281,168118.255,65.2160000000149,0.06936096954345704,0.2892919616699219,0,0.001553343034274953,0.03530801076784529,0.9895493260032251,0,0,1.441,0,50
282,168183.532,65.27700000000186,0.025119537353515624,0.2668524169921875,0,-0.021310470166850764,0.030682888250060315,0.9986075848210755,0,0,1.429,0,50
283,168248.657,65.125,0.027707422256469726,0.27852536010742185,0,-0.0432143522793796,0.023701571242082997,1.0055190886589733,0,0,1.433,0,50
284,168313.842,65.18499999999767,-0.018785860061645506,0.20781610107421875,0,-0.061819562105639145,0.018395770316020233,1.0111390488503949,0,0,1.435,0,50
285,168379.272,65.42999999999302,-0.04015695953369141,0.1548511962890625,0,-0.07717845952318925,0.01059414855960558,1.0171080748922157,0,0,1.474,0,50
286,168444.213,64.94099999999162,-0.064070068359375,0.0905284423828125,0,-0.08342673824532895,0.008674286382411817,1.022466235695838,0,0,1.44,0,50
287,168509.46,65.24700000000303,-0.09330329895019532,0.06365742492675781,0,-0.08696975662687743,0.0036477381366681488,1.0287494210030177,0,0,1.447,0,50
288,168574.615,65.15499999999884,-0.10095655059814453,0.004099135398864746,0,-0.0864287045587592,-0.004066617157146788,1.0345439141196389,0,0,1.454,0,50
289,168639.892,65.27700000000186,-0.11302449035644531,-0.03704750442504883,0,-0.0839328837284073,-0.013700834628155488,1.0399893413858612,0,0,1.456,0,50
290,168705.108,65.2160000000149,-0.11887220764160156,-0.10650485229492188,0,-0.08121017009529614,-0.023527038316883565,1.0436196262300095,0,0,1.459,0,50
291,168770.202,65.09399999998277,-0.10001219940185548,-0.180114501953125,0,-0.07606144880191287,-0.030839967882739797,1.0476687900946362,0,0,1.52,0,50
292,168835.571,65.36900000000605,-0.10339276123046875,-0.23443179321289062,0,-0.06342526501747393,-0.03183480555637657,1.0496235588568699,0,0,1.462,0,50
293,168900.634,65.06299999999464,-0.10646754455566407,-0.26993502807617187,0,-0.04874704600820162,-0.0341037335839692,1.0565525159872873,0,0,1.467,0,50
294,168965.728,65.09400000001187,-0.12140308380126953,-0.36546524047851564,0,-0.01752310569002307,-0.03597123588360313,1.0644937640838614,0,0,1.473,0,50
295,169030.944,65.2159999999858,-0.1037082977294922,-0.37313662719726565,0,0.03467969223712733,-0.031276300195738384,1.0724524654729557,0,0,1.46,0,50
296,169096.038,65.09400000001187,-0.11561888885498046,-0.32045693969726563,0,0.08997172294030768,-0.029059732045705586,1.0795210489435325,0,0,1.469,0,50
297,169161.254,65.2159999999858,-0.09257832336425781,-0.22575079345703125,0,0.13711306603667453,-0.033702307856010506,1.0855598881554331,0,0,1.46,0,50
298,169226.501,65.24700000000303,-0.07557063293457031,-0.15659397888183593,0,0.1738697000836751,-0.035883969421003414,1.0909180489590558,0,0,1.471,0,50
299,169291.656,65.15499999999884,-0.030484708786010742,-0.07479816436767578,0,0.19809487010135637,-0.032323497746934986,1.0984229647426313,0,0,1.469,0,50
300,169356.781,65.125,0.03262628173828125,0.05274152374267578,0,0.2112721059539136,-0.031171580440618726,1.1059104272336868,0,0,1.476,0,50
301,169422.149,65.36800000001676,0.04352516555786133,0.1659803009033203,0,0.2168047996827356,-0.02946115777366428,1.1110416952345503,0,0,1.479,0,50
302,169487.152,65.00299999999697,0.06839627075195312,0.2856534729003906,0,0.2166128134650162,-0.026214845364954827,1.1165569356708522,0,0,1.49,0,50
303,169552.429,65.27700000000186,0.1006869125366211,0.4196323852539062,0,0.2081305133003238,-0.02183406894244906,1.1202046738075206,0,0,1.486,0,50
304,169617.523,65.09399999998277,0.11788005828857422,0.5013994445800781,0,0.19641935401944186,-0.01649336143134641,1.1242887442571872,0,0,1.47,0,50
305,169682.739,65.2160000000149,0.11610993194580078,0.5610775756835937,0,0.18949039688902433,-0.006143558967020039,1.1272034441080179,0,0,1.523,0,50
306,169748.168,65.42900000000373,0.16341110229492187,0.6369641723632813,0,0.18017033868337462,0.0023387411976724015,1.1303799433466475,0,0,1.475,0,50
307,169813.171,65.00299999999697,0.16068522644042968,0.7611493530273438,0,0.1658411855245012,0.011239920382843481,1.132020552843522,0,0,1.476,0,50
308,169878.143,64.97200000000885,0.15430718994140624,0.8510115356445312,0,0.14768976130376016,0.016947147036864937,1.1318460199183227,0,0,1.504,0,50
309,169943.511,65.36799999998766,0.1434569396972656,0.935534912109375,0,0.1325053968114095,0.023858650874762487,1.130816275659646,0,0,1.482,0,50
310,170008.483,64.97200000000885,0.11343685913085938,1.040277587890625,0,0.10929251775988491,0.030543261909900768,1.1288964134824522,0,0,1.474,0,50
311,170073.699,65.2159999999858,0.08661872100830079,1.0792840576171876,0,0.08115781021773633,0.03621558197888234,1.1253184885158638,0,0,1.488,0,50
312,170138.854,65.15499999999884,0.054854557037353514,1.118346435546875,0,0.050056042947197364,0.039269908169872414,1.1217056569642356,0,0,1.467,0,50
313,170204.071,65.21700000000419,0.04340704727172852,1.0999542236328126,0,0.01649336143134641,0.03869394951671429,1.1161206033578537,0,0,1.465,0,50
314,170269.744,65.67300000000978,0.011482234954833984,1.1012918701171874,0,-0.017680185322702557,0.033562681515850956,1.1129091975341843,0,0,1.455,0,50
315,170334.411,64.66699999998673,-0.028298377990722656,0.9901839599609376,0,-0.05143485305627289,0.029792770331543206,1.10807463550616,0,0,1.451,0,50
316,170399.597,65.18600000001607,-0.07492459106445312,0.9743169555664063,0,-0.07778932476138727,0.029670597283903602,1.1036065926210545,0,0,1.429,0,50
317,170465.179,65.58199999999488,-0.11349454498291016,0.9192999877929687,0,-0.09770353152664257,0.02584832622203602,1.101599463981261,0,0,1.437,0,50
318,170530.67,65.49100000000908,-0.15346330261230468,0.824193359375,0,-0.11611675513518273,0.021589722847169857,1.0983007916949916,0,0,1.461,0,50
319,170595.489,64.81899999998859,-0.19646244812011718,0.6916045532226562,0,-0.13062044121925562,0.015655603390389135,1.0981611653548322,0,0,1.457,0,50
320,170660.339,64.85000000000582,-0.20059161376953125,0.5879256591796875,0,-0.1431519052485749,0.004014257279586958,1.097864459381993,0,0,1.459,0,50
321,170725.891,65.55199999999604,-0.24121084594726563,0.4697165222167969,0,-0.14948745043331432,-0.011501719770642632,1.0987196707154703,0,0,1.578,0,50
322,170791.046,65.15499999999884,-0.2581606750488281,0.33998919677734374,0,-0.1457698991265664,-0.024661502330679878,1.1005173598450244,0,0,1.518,0,50
323,170856.201,65.15499999999884,-0.24688893127441405,0.2021767578125,0,-0.1346346984988426,-0.036721727461960695,1.1006395328926641,0,0,1.471,0,50
324,170921.478,65.27700000000186,-0.2338734436035156,0.09144434356689453,0,-0.11885692206081383,-0.044558255803415235,1.099731961681627,0,0,1.483,0,50
325,170986.663,65.18499999999767,-0.2552218475341797,-0.00879139518737793,0,-0.10421360963658141,-0.049026298688520716,1.0981611653548322,0,0,1.472,0,50
326,171051.757,65.09400000001187,-0.25217897033691405,-0.07334356689453125,0,-0.08543386688512243,-0.05485569839018177,1.0971139678036355,0,0,1.485,0,50
327,171116.973,65.2159999999858,-0.19609495544433594,-0.1256383819580078,0,-0.0655894732899469,-0.06443755598363064,1.0959271439122793,0,0,1.447,0,50
328,171181.823,64.85000000000582,-0.10428584289550781,-0.20662098693847655,0,-0.04207988826558329,-0.0713141532364883,1.0955257181843208,0,0,1.461,0,50
329,171247.344,65.52100000000792,-0.15045266723632814,-0.26966525268554686,0,-0.016144295580947546,-0.07202973822980598,1.1010584119131428,0,0,1.441,0,50
330,171312.652,65.30799999998999,-0.12080654907226562,-0.32271566772460936,0,0.007243116395776467,-0.06928957130417489,1.1075684900230816,0,0,1.437,0,50
331,171377.685,65.03299999999581,-0.09459186553955078,-0.3437401123046875,0,0.028693212902786775,-0.06307619916707506,1.1115129341325887,0,0,1.439,0,50
332,171442.871,65.18600000001607,-0.04143596649169922,-0.34190518188476565,0,0.04806636759992384,-0.06216862795603802,1.1158064440924949,0,0,1.442,0,50
333,171508.209,65.33799999998882,-0.006248054981231689,-0.3245396118164062,0,0.06415830330331156,-0.06291911953439558,1.1213042312362769,0,0,1.43,0,50
334,171573.303,65.09400000001187,0.032100418090820315,-0.29614431762695315,0,0.07899360194526335,-0.06052801845916334,1.1258420872914623,0,0,1.509,0,50
335,171638.488,65.18499999999767,0.08645156860351562,-0.2811192321777344,0,0.08962265708990882,-0.057560958730772986,1.1292629326253711,0,0,1.439,0,50
336,171703.338,64.84999999997672,0.10704716491699219,-0.21371212768554687,0,0.09810495725460126,-0.0519235452468313,1.134446560503794,0,0,1.46,0,50
337,171768.615,65.27700000000186,0.11174214172363281,-0.18279278564453125,0,0.11109020688943907,-0.03745476574779831,1.1388971500963798,0,0,1.459,0,50
338,171834.106,65.49100000000908,0.142789306640625,-0.13299420166015624,0,0.11644836769306166,-0.026302111827554542,1.1438713384645636,0,0,1.471,0,50
339,171898.986,64.88000000000466,0.1732365264892578,-0.08674407196044921,0,0.10690141668465268,-0.009669124056048585,1.1509748285201806,0,0,1.461,0,50
340,171964.141,65.15499999999884,0.1740980224609375,-0.054279655456542966,0,0.09644689446520666,0.020978857608971842,1.1596142083175525,0,0,1.474,0,50
341,172029.907,65.76600000000326,0.12875898742675781,-0.040250301361083984,0,0.08848819307611251,0.06304129258203518,1.168759733598003,0,0,1.487,0,50
342,172094.665,64.75800000000163,0.09975138092041015,-0.01852053642272949,0,0.08646361114379908,0.1138478271075901,1.1767882481571768,0,0,1.488,0,50
343,172159.82,65.15499999999884,0.009352349281311035,0.01962613296508789,0,0.08716174284459681,0.1559800752507332,1.1844676968659515,0,0,1.509,0,50
344,172224.945,65.125,-0.10546525573730468,0.08052182006835938,0,0.0844913890890455,0.1827359726838063,1.1883423278053793,0,0,1.518,0,50
345,172290.039,65.09399999998277,-0.23746377563476562,0.148595703125,0,0.08026769229921922,0.19493582415524666,1.1909254150983308,0,0,1.538,0,50
346,172355.316,65.27700000000186,-0.32765960693359375,0.1849728546142578,0,0.07007496946757233,0.19853120241435498,1.1913617474113294,0,0,1.531,0,50
347,172420.745,65.42900000000373,-0.436770751953125,0.21028945922851563,0,0.05834635689417044,0.196366994141882,1.19115230790109,0,0,1.536,0,50
348,172485.656,64.91099999999278,-0.5491834716796875,0.23388783264160157,0,0.05073672135547516,0.19713493901275952,1.1922169587448066,0,0,1.534,0,50
349,172550.933,65.27700000000186,-0.6517883911132812,0.23772196960449218,0,0.0415213829049451,0.19146261894377795,1.191832986309368,0,0,1.553,0,50
350,172616.027,65.09400000001187,-0.8069931640625,0.28016583251953125,0,0.03295181627765294,0.18580775216731635,1.190803242050691,0,0,1.526,0,50
351,172681.304,65.27700000000186,-0.8956778564453125,0.27480014038085937,0,0.02453932928304027,0.1740616863013945,1.191780626431808,0,0,1.506,0,50
352,172746.429,65.125,-1.038166259765625,0.29455767822265627,0,0.018675022996339326,0.16406094968746698,1.1928278239830046,0,0,1.504,0,50
353,172811.706,65.27700000000186,-1.098295166015625,0.28409466552734375,0,0.009948376736367677,0.15159929882822748,1.1922867719148864,0,0,1.469,0,50
354,172876.892,65.18599999998696,-1.1936751708984374,0.2859015808105469,0,0.0026878070480712674,0.13473941825396224,1.1926009311802455,0,0,1.469,0,50
355,172942.047,65.15499999999884,-1.3026697998046874,0.29347274780273436,0,-0.0074176493209759005,0.10644763107913416,1.1921995054522867,0,0,1.439,0,50
356,173007.507,65.46000000002095,-1.4164722900390625,0.2974248962402344,0,-0.01090830782496456,0.07326892199872195,1.1920598791121269,0,0,1.429,0,50
357,173072.479,64.97199999997974,-1.4161165771484374,0.25307675170898436,0,-0.014154620233674012,0.03724532623755899,1.193316516173563,0,0,1.458,0,50
358,173137.573,65.09400000001187,-1.4336024169921875,0.22665153503417967,0,-0.01733111947230369,-0.000017453292519943296,1.193595768853882,0,0,1.41,0,50
359,173202.789,65.2159999999858,-1.3926268310546874,0.19747306823730468,0,-0.019669860669976093,-0.03815289744859604,1.1927754641054447,0,0,1.404,0,50
360,173267.944,65.15499999999884,-1.3522542724609374,0.1624484405517578,0,-0.023090706003884978,-0.08063421144213802,1.191780626431808,0,0,1.424,0,50
361,173333.099,65.15499999999884,-1.224710205078125,0.12730664825439453,0,-0.025202554398798118,-0.12154472910888511,1.19111740131605,0,0,0.9,0,50
362,173398.437,65.33800000001793,-1.220238037109375,0.1106807861328125,0,-0.024574235868080156,-0.15507250403969616,1.1913617474113294,0,0,1.424,0,50
363,173463.531,65.09399999998277,-1.1035830078125,0.06988307189941406,0,-0.02584832622203602,-0.18374826364996302,1.189982937302254,0,0,1.426,0,50
364,173528.625,65.09400000001187,-0.9633980712890625,0.053898406982421876,0,-0.024574235868080156,-0.20642009063336933,1.1876092895195416,0,0,0.935,0,50
365,173593.994,65.36900000000605,-0.7977940673828126,0.023677846908569337,0,-0.02398082392240209,-0.21944024685324706,1.1843280705257921,0,0,1.474,0,50
366,173658.996,65.00200000000768,-0.6337839965820312,-0.003372443437576294,0,-0.023806290997202655,-0.22633429739862468,1.1809072251918833,0,0,1.45,0,50
367,173724.273,65.27699999997276,-0.47666470336914063,-0.027958686828613282,0,-0.019687313962496036,-0.2241351825411118,1.1785510307016909,0,0,1.457,0,50
368,173789.367,65.09400000001187,-0.33092889404296877,-0.05239822769165039,0,-0.014119713648634126,-0.21245892984526976,1.1755665176807806,0,0,1.472,0,50
369,173854.583,65.2160000000149,-0.19822590637207033,-0.06745163726806641,0,-0.009704030641088473,-0.19434241220956858,1.1721456723468717,0,0,1.478,0,50
370,173919.86,65.27699999997276,-0.08668267059326172,-0.07490774536132813,0,-0.00022689280275926284,-0.15495033099205657,1.1697545712716397,0,0,1.531,0,50
371,173984.893,65.03300000002491,0.12881298828125,-0.46987008666992186,0,0.012164944886400474,-0.10716321607245181,1.169632398224,0,0,1.5,0,50
372,174050.048,65.15499999999884,0.18860295104980468,-0.5036752624511719,0,0.01933824811209717,-0.06702064327658225,1.1754094380481013,0,0,1.468,0,50
373,174116.058,66.00999999998021,0.25004153442382815,-0.5784503784179688,0,0.03562217003320427,-0.030106929596902185,1.1815180904300813,0,0,1.444,0,50
374,174180.358,64.30000000001746,0.2162017822265625,-0.47639089965820314,0,0.05797983775125163,-0.00034906585039886593,1.1848691225939105,0,0,1.475,0,50
375,174245.758,65.39999999999418,0.26902969360351564,-0.43033953857421875,0,0.0918392252399416,0.030281462522101617,1.190209830105013,0,0,1.432,0,50
376,174310.668,64.91000000000349,0.22712739562988282,-0.2864732360839844,0,0.1198517597344506,0.05368632779134557,1.1957250705413154,0,0,1.436,0,50
377,174376.068,65.39999999999418,0.22233735656738282,-0.18601463317871095,0,0.13812535700283124,0.06976081020221335,1.2005072726917798,0,0,1.453,0,50
378,174441.162,65.09400000001187,0.20927073669433593,-0.08046980285644531,0,0.14596188534428578,0.07751007208106817,1.2030030935221316,0,0,1.473,0,50
379,174506.378,65.2159999999858,0.20461520385742188,0.000339343398809433,0,0.1419825346497387,0.08255407361933179,1.2057781670328025,0,0,1.473,0,50
380,174571.533,65.15499999999884,0.1676990203857422,0.08755604553222657,0,0.13524556373704058,0.09260717011081912,1.2079249220127555,0,0,1.502,0,50
381,174636.962,65.42900000000373,0.14608087158203126,0.1598002014160156,0,0.12260937995260165,0.09443976582541316,1.2111188745439052,0,0,1.511,0,50
382,174701.934,64.97200000000885,0.10679067993164063,0.20548809814453126,0,0.1052957137728179,0.09599310885968812,1.2135099756191374,0,0,1.506,0,50
383,174767.272,65.33799999998882,0.07981251525878906,0.2435037078857422,0,0.08407251006856685,0.09606292202976788,1.2149411456057728,0,0,1.511,0,50
384,174832.336,65.06400000001304,0.04068064498901367,0.286232666015625,0,0.06230825429619756,0.09461429875061261,1.215202944993572,0,0,1.521,0,50
385,174897.583,65.24700000000303,-0.004633740425109863,0.3708598937988281,0,0.04091051766674708,0.08258898020437168,1.2190426693479595,0,0,1.522,0,50
386,174962.829,65.24599999998463,-0.022835983276367187,0.423595703125,0,0.007696902001294993,0.06752678875966062,1.2238946846685035,0,0,1.52,0,50
387,175027.984,65.15499999999884,0.002488595008850098,0.3861620788574219,0,-0.04729842272904633,0.05778785153353225,1.2290434059618869,0,0,1.525,1,50
388,175093.17,65.18600000001607,-0.026184587478637694,0.356190673828125,0,-0.09506808435613112,0.054838245097661824,1.2332147428741533,0,0,1,1,50
389,175158.416,65.24599999998463,-0.11798285675048828,0.1710347900390625,0,-0.0881565805182336,0.03377212102609028,1.2413305238959271,0,0,0.986,1,50
390,175223.541,65.125,-0.14239273071289063,0.09439667510986328,0,-0.02853613327010729,0.021362830044410593,1.245920739828672,0,0,0.962,0,50
391,175288.757,65.2160000000149,-0.17856401062011718,0.07980711364746093,0,0.038100537571036215,0.013561208287995941,1.2507378485641765,0,0,1.514,1,50
392,175353.881,65.1239999999816,-0.1506159210205078,0.17319894409179687,0,0.054646258879942455,-0.025289820861397836,1.2505982222240168,0,0,1.545,0,50
393,175419.128,65.24700000000303,-0.14498016357421875,0.2638904113769531,0,0.05120796025351363,-0.07309438907352252,1.2510869144145753,0,0,1.504,0,50
394,175484.313,65.18499999999767,-0.09754098510742187,0.3179848937988281,0,0.05318018230826722,-0.11753047182929814,1.2504236892988174,0,0,1.504,0,50
395,175549.438,65.125,0.06715769958496094,0.32984176635742185,0,0.02754129559647052,-0.15505505074717624,1.2506680353940967,0,0,1.483,0,50
396,175614.532,65.09400000001187,0.25635467529296874,0.3093186645507813,0,-0.012880529879718152,-0.17980381954045582,1.251418526972454,0,0,1.455,0,50
397,175679.84,65.30799999998999,0.3632353210449219,0.1715487060546875,0,-0.049480084294039245,-0.1865931503307138,1.2512614473397745,0,0,1.442,0,50
398,175744.903,65.06299999999464,0.3616375732421875,0.031167020797729494,0,-0.0736528944341607,-0.1775348915128632,1.2543332268232847,0,0,1.462,0,50
399,175810.18,65.27700000000186,0.43544558715820314,-0.019559043884277344,0,-0.09060004147102564,-0.16516050711622338,1.254944092061483,0,0,1.414,0,50
400,175875.549,65.36900000000605,0.5152525634765625,-0.08451292419433594,0,-0.09585348251952858,-0.1574636051149284,1.2580333248375126,0,0,1.414,0,50
401,175940.521,64.97200000000885,0.5969889526367187,-0.14743698120117188,0,-0.09532988374393027,-0.1559975285432532,1.2599182804296667,0,0,1.431,0,50
402,176005.737,65.2159999999858,0.6618087768554688,-0.1999237060546875,0,-0.0835314580004486,-0.155439023182615,1.2635485652738148,0,0,0.799,0,50
403,176070.892,65.15499999999884,0.720599609375,-0.2414553680419922,0,-0.06305874587455512,-0.14814354690927867,1.266550531587245,0,0,0.82,0,50
404,176136.016,65.12400000001071,0.9914824829101563,-0.56866748046875,0,-0.040927970959267035,-0.13482668471656195,1.2673359297506424,0,0,0.829,0,50
405,176201.354,65.33799999998882,1.06088525390625,-0.5858277587890625,0,-0.02595304597715568,-0.11789699097221695,1.2681736877916,0,0,1.345,0,50
406,176266.357,65.00299999999697,1.105597900390625,-0.578514404296875,0,-0.0004537856055185257,-0.09576621605692885,1.2683307674242792,0,0,1.335,0,50
407,176331.604,65.24700000000303,1.13201171875,-0.6276947631835937,0,0.036721727461960695,-0.05944591432292687,1.2695699511931953,0,0,1.331,0,50
408,176396.789,65.18499999999767,1.1228343505859375,-0.5716043090820313,0,0.06693337681398254,-0.01942551457469689,1.2717516127581883,0,0,1.319,0,50
