n,time,dt,vx,vy,vz,roll,pitch,yaw,x,y,z,detected,battery
0,34211.975,NaN,0,0,0,0.000017453292519943296,0,0.017941984710501707,0,0,0.242,0,73
1,34282.135,NaN,0,0,0,-0.000017453292519943296,0,0.01802925117310142,0,0,0.242,0,73
2,34347.503,NaN,0,0,0,0.00005235987755982989,0,0.018081611050661254,0,0,0.242,0,73
3,34412.506,NaN,0,0,0,0.000017453292519943296,0,0.01816887751326097,0,0,0.242,0,73
4,34477.691,NaN,0,0,0,0.00003490658503988659,0,0.01837831702350029,0,0,0.242,0,73
5,34542.907,65.21600000000035,0,0,0,0.0002617993877991494,-0.00013962634015954637,0.0182212373908208,0,0,0.242,0,73
6,34673.156,65.12400000000343,0,0,0,-0.00020943951023931956,-0.0006632251157578452,0.018884462506578648,0,0,0.243,0,73
7,34738.464,65.30799999999726,0,0,0,-0.00015707963267948963,-0.0006806784082777885,0.018779742751458987,0,0,0.242,0,76
8,34803.588,65.12400000000343,0,0,0,-0.00020943951023931956,-0.0008203047484373349,0.01902408884673819,0,0,0.242,0,76
9,34868.957,65.36899999999878,0,0,0,-0.00027925268031909274,-0.001064650843716541,0.01864011641129944,0,0,0.242,0,76
10,34934.417,65.45999999999913,0,0,0,-0.00031415926535897925,-0.001186823891356144,0.01905899543177808,0,0,0.243,0,76
11,34999.298,64.88100000000122,0,0,0,-0.00047123889803846896,-0.0013264502315156904,0.019041542139258134,0,0,0.243,0,76
12,35064.27,64.9719999999943,0,0,0,-0.0004886921905584122,-0.0015358897417550098,0.018832102629018813,0,0,0.242,0,76
13,35129.547,65.27700000000186,0,0,0,-0.0004188790204786391,-0.0017453292519943296,0.019303341527057285,0,0,0.243,0,76
14,35194.702,65.15499999999884,0,0,0,-0.00015707963267948963,-0.002181661564992912,0.019617500792416264,0,0,0.243,0,76
15,35259.887,65.18500000000495,0,0,0,-0.00022689280275926284,-0.0020245819323134223,0.019826940302655582,0,0,0.242,0,76
16,35325.073,65.18599999999424,0,0,0,-0.00038397243543875244,-0.0018849555921538759,0.019669860669976093,0,0,0.243,0,76
17,35390.38,65.3070000000007,0,0,0,0.000017453292519943296,-0.0025481807079117207,0.019512781037296607,0,0,0.243,0,76
18,35455.383,65.00300000000425,0,0,0,-0.00019198621771937622,-0.0019024088846738192,0.01996656664281513,0,0,0.243,0,76
19,35520.66,65.27700000000186,0,0,0,-0.00027925268031909274,-0.0021118483949131386,0.019739673840055868,0,0,0.243,0,76
20,35585.754,65.09399999999732,0,0,0,-0.00012217304763960306,-0.0018849555921538759,0.02012364627549462,0,0,0.243,0,76
21,35651.031,65.27700000000186,0,0,0,-0.00027925268031909274,-0.0023212879051524586,0.020315632493213994,0,0,0.243,0,76
22,35716.217,65.18599999999424,0,0,0,-0.00034906585039886593,-0.0020943951023931952,0.021310470166850764,0,0,0.243,0,82
23,35781.463,65.24600000000646,0,0,0,0.0002617993877991494,-0.002478367537831948,0.02113593724165133,0,0,0.243,0,82
24,35846.557,65.09399999999732,0,0,0,-0.0005410520681182421,-0.0023212879051524586,0.022322761133007473,0,0,0.243,0,82
25,36042.327,65.39899999999761,0,0,0,-0.00015707963267948963,-0.00312413936106985,0.023876104167282426,0,0,0.243,0,82
26,36107.299,64.97200000000157,0,0,0,-0.00003490658503988659,-0.002897246558310587,0.025429447201557383,0,0,0.243,0,82
27,36172.454,65.15499999999884,0,0,0,0.0003665191429188092,-0.0041887902047863905,0.02605776573227534,0,0,0.243,0,82
28,36237.609,65.15499999999884,0,0,0,-0.00031415926535897925,-0.004433136300065597,0.027715828521669955,0,0,0.243,0,82
29,36302.825,65.21600000000035,0,0,0,0.001361356816555577,-0.004276056667386107,0.03223623128433527,0,0,0.242,0,82
30,36368.072,65.24700000000303,0,0,0,0.008237954069413234,-0.005881759579220891,0.036791540632040466,0,0,0.243,0,82
31,36433.349,65.27700000000186,0,0,0,0.014416419621473161,-0.007592182246175334,0.037419859162758425,0,0,0.242,0,82
32,36498.413,65.06399999999849,0,0,0,0.0143116998663535,-0.004572762640225143,0.03885102914939378,0,0,0.242,0,82
33,36563.568,65.15499999999884,0,0,0,0.02139773662945048,0.0013439035240356337,0.04045673206122856,0,0,0.242,0,82
34,36628.753,65.18499999999767,0,0,0,0.033335788713091695,-0.001256637061435917,0.041713369122664476,0,0,0.242,0,82
35,36694,65.24700000000303,0,0,0,0.031415926535897934,-0.017348572764823635,0.039252454877352475,0,0,0.242,0,82
36,36759.094,65.09399999999732,0,0,0,0.024783675378319478,-0.032655110304813904,0.036791540632040466,0,0,0.241,0,82
37,36824.34,65.24599999999919,0,0,0,0.014189526818713898,-0.04352851154473858,0.03633775502652194,0,0,0.242,0,82
38,36889.617,65.27700000000186,0,0,0,0.007051130178057092,-0.03621558197888234,0.03733259270015871,0,0,0.241,0,82
39,36954.864,65.24700000000303,-0.17038768005371094,0.1537993621826172,0,0.00019198621771937622,-0.02150245638457014,0.6127152872051294,0,0,0.242,0,82
40,37020.05,65.18600000000151,-0.11971642303466797,0.06939164733886719,0,-0.012863076587198208,-0.021519909677090086,0.6144606164571237,0,0,0.242,0,82
41,37085.327,65.27699999999459,-0.06056676483154297,0.1621715087890625,0,-0.02438224965036078,-0.02410299697004169,0.6172007833827547,0,0,0.243,0,82
42,37150.39,65.06300000000192,-0.05372248077392578,0.003949609756469727,0,-0.03775147172063734,-0.02214822820780804,0.6212499472473816,0,0,0.251,0,82
43,37215.545,65.15499999999884,-0.02501192092895508,-0.11996372985839844,0,-0.029914943379182806,-0.014416419621473161,0.628510516935678,0,0,0.321,0,82
44,37280.792,65.24700000000303,0.0380457763671875,-0.1045827865600586,0,-0.011082840750163993,-0.0096342174710087,0.6313554036164288,0,0,0.436,0,82
45,37345.977,65.18499999999767,0.06197692108154297,-0.06800634002685547,0,-0.0024434609527920616,-0.007906341511534314,0.6325422275077848,0,0,0.5,0,82
46,37411.071,65.0940000000046,0.11271042633056641,-0.07889765930175781,0,0.0006283185307179585,-0.0026878070480712674,0.6332054526235428,0,0,0.621,0,82
47,37476.44,65.36899999999878,0.14970516967773437,-0.08171739196777343,0,0.0021642082724729686,0.004363323129985824,0.6309016180109103,0,0,0.731,1,82
48,37541.442,65.00200000000041,0.13113824462890625,-0.08790435028076173,0,0.004886921905584123,0.015184364492350668,0.6304303791128718,0,0,0.777,1,82
49,37606.689,65.24699999999575,0.07197665405273437,-0.08010712432861328,0,0.007923794804054257,0.02422517001768129,0.628178904377799,0,0,0.843,1,82
50,37671.783,65.0940000000046,0.019435853958129884,-0.08393495178222657,0,0.015847589608108514,0.027890361446869388,0.6271491601191224,0,0,0.855,1,82
51,37736.999,65.21600000000035,-0.024529935836791993,-0.0952725067138672,0,0.02663372438543347,0.026302111827554542,0.6259274296427264,0,0,0.867,1,82
52,37802.307,65.30799999999726,-0.06331163024902343,-0.10222216796875,0,0.03574434308084387,0.01987930018021541,0.6247929656289302,0,0,0.849,1,82
53,37867.37,65.06300000000192,-0.09399285888671875,-0.09265149688720703,0,0.04162610266006476,0.007557275661135446,0.6241995536832521,0,0,0.836,1,82
54,37932.525,65.15499999999884,-0.10939559936523438,-0.0747709732055664,0,0.042167154728183,-0.0069464104229374326,0.6236410483226138,0,0,0.803,1,82
55,37997.894,65.36899999999878,-0.10374546813964844,-0.06807661437988281,0,0.04129449010218584,-0.0136659280431156,0.6236759549076537,0,0,0.761,1,82
56,38062.896,65.00200000000041,-0.0843428955078125,-0.03916374588012695,0,0.037419859162758425,-0.018814649336498873,0.6240948339281325,0,0,0.743,1,82
57,38128.082,65.18600000000151,-0.05878406143188476,-0.023029544830322265,0,0.03026400922958167,-0.021659536017249632,0.6255434572072877,0,0,0.712,1,82
58,38193.267,65.18499999999767,-0.05209886169433594,-0.011142051696777344,0,0.026563911215353696,-0.013962634015954637,0.6253863775746081,0,0,0.698,1,82
59,38258.453,65.18600000000151,-0.046668495178222656,0.01592560863494873,0,0.02350958502436362,-0.009546951008408983,0.6277251187722805,0,0,0.684,0,82
60,38323.944,65.4910000000018,-0.03653217697143555,0.03464512634277344,0,0.016632987771505958,-0.010140362954087054,0.6283359840104785,0,0,0.678,0,82
61,38388.977,65.03299999999581,-0.02053014373779297,0.03536415481567383,0,0.007853981633974483,-0.01202531854624093,0.628510516935678,0,0,0.68,0,82
62,38454.071,65.0940000000046,0.005948904991149902,0.04871884155273438,0,0.0013962634015954637,-0.01069886831472524,0.6292261019289956,0,0,0.685,0,82
63,38519.592,65.52099999999336,0.0007956113815307617,0.02945419692993164,0,-0.0024260076602721182,-0.00598647933434055,0.6303954725278319,0,0,0.692,0,82
64,38584.259,64.66700000000128,-0.008939243316650391,0.021756492614746093,0,-0.002373647782712288,-0.0021642082724729686,0.6316346562967478,0,0,0.7,1,82
65,38649.566,65.3070000000007,-0.010711724281311036,0.011534931182861329,0,-0.0031415926535897933,-0.004799655442984407,0.6320709886097465,0,0,0.705,0,82
66,38714.66,65.0940000000046,-0.010533477783203125,-0.0009001527428627015,0,-0.0014311699866353504,-0.005689773361501514,0.6322106149499059,0,0,0.709,0,82
67,38779.846,65.18599999999424,-0.021785369873046877,-0.005221987247467041,0,0.0022165681500327986,-0.005340707511102648,0.6333276256711824,0,0,0.711,1,82
68,38845.214,65.36800000000221,-0.020926137924194337,-0.014866626739501954,0,0.006667157742618338,-0.005131268000863328,0.6334847053038618,0,0,0.717,1,82
69,38910.247,65.03300000000309,-0.01882700729370117,-0.014425910949707032,0,0.012775810124598492,-0.005044001538263612,0.6341304771270997,0,0,0.716,1,82
70,38975.341,65.09399999999732,-0.016886175155639647,-0.01744289779663086,0,0.014713125594312197,-0.00603883921190038,0.634619169317658,0,0,0.718,1,82
71,39040.771,65.43000000000029,-0.022084428787231446,-0.015680126190185547,0,0.014486232791552934,-0.00752236907609556,0.6341653837121396,0,0,0.714,1,82
72,39105.743,64.97200000000157,-0.04130759048461914,-0.015064207077026368,0,0.01741838593490341,-0.007243116395776467,0.633729051399141,0,0,0.719,1,82
73,39171.112,65.36899999999878,-0.022171892166137696,-0.01045506763458252,0,0.019844393595175525,-0.008639379797371931,0.633711598106621,0,0,0.715,1,82
74,39236.145,65.03299999999581,-0.02524298858642578,-0.0076452350616455075,0,0.018884462506578648,-0.01090830782496456,0.6335370651814217,0,0,0.712,1,82
75,39301.361,65.21600000000035,-0.0050369386672973636,0.014264372825622559,0,0.015236724369910496,-0.014556045961632708,0.6338163178617406,0,0,0.717,0,82
76,39366.76,65.39900000000489,-0.006258725166320801,0.005604602336883545,0,0.015132004614790836,-0.010157816246606997,0.6343922765148988,0,0,0.712,0,82
77,39431.762,65.00200000000041,-0.008048089981079101,0.0011965675354003906,0,0.02293362637120549,-0.0060911990894602095,0.6357187267464146,0,0,0.711,0,82
78,39496.887,65.125,0.0027792525291442873,0.021481382369995118,0,0.027960174616949163,-0.009128071987930345,0.6346540759026981,0,0,0.716,0,82
79,39562.5,65.61299999999756,0.004794736385345459,0.03359173583984375,0,0.0291469985083053,-0.009599310885968814,0.6351951279708162,0,0,0.719,0,82
80,39627.288,64.78800000000047,0.010920918464660645,0.051184535980224606,0,0.03214896482173556,-0.009546951008408983,0.6345842627326183,0,0,0.722,0,82
81,39692.565,65.27700000000186,0.022466604232788085,0.04744226837158203,0,0.02881538595042638,-0.008499753457212385,0.6335719717664616,0,0,0.728,0,82
82,39757.598,65.03299999999581,0.013745231628417969,0.07365736389160156,0,0.020734511513692634,-0.00778416846389471,0.6329960131133034,0,0,0.729,0,82
83,39822.845,65.24700000000303,0.012491744995117187,0.07667435455322266,0,0.012164944886400474,-0.010611601852125523,0.6324200544601453,0,0,0.731,1,82
84,39888.153,65.30799999999726,0.02469745635986328,0.07032763671875,0,0.00921533845053006,-0.01117010721276371,0.6317044694668277,0,0,0.733,1,82
85,39953.186,65.03300000000309,0.025445228576660157,0.07341304779052735,0,0.004677482395344803,-0.010506882097005862,0.6310237910585499,0,0,0.735,1,82
86,40018.341,65.15499999999884,0.025559139251708985,0.06523451995849609,0,-0.002565634000431664,-0.012164944886400474,0.63097143118099,0,0,0.737,1,82
87,40084.045,65.7039999999979,0.01976783561706543,0.043959430694580075,0,-0.00460766922526503,-0.008813912722571364,0.6359630728416938,0,0,0.736,1,82
88,40148.681,64.6359999999986,0.005942746639251709,0.026390008926391602,0,-0.0014660765716752368,-0.0011519173063162574,0.6884974833267231,0,0,0.735,1,82
89,40214.019,65.33800000000338,0.007483191013336181,0.0239206485748291,0,0.0016406094968746698,0.005061454830783556,0.7389374987093592,0,0,0.744,1,82
90,40279.083,65.06399999999849,-0.005648602962493896,0.009247832298278809,0,0.005916666164260778,0.009546951008408983,0.7790451649201889,0,0,0.748,1,82
91,40344.238,65.15499999999884,0.01349440574645996,0.013747413635253907,0,0.0029321531433504737,0.01059414855960558,0.8170060761510657,0,0,0.746,1,82
92,40409.606,65.36800000000221,-0.0002010154128074646,0.01333864688873291,0,-0.001256637061435917,0.013334315485236677,0.8540245095858653,0,0,0.75,1,82
93,40474.639,65.03300000000309,-0.03012331008911133,0.0036413404941558836,0,-0.0020769418098732523,0.021432643214490364,0.8892976137686708,0,0,0.748,1,82
94,40539.733,65.09399999999732,-0.05433510589599609,-0.00037129521369934083,0,-0.007225663103256523,0.030682888250060315,0.9214640318829261,0,0,0.746,1,82
95,40605.163,65.43000000000029,-0.06748148345947266,-0.004101466178894043,0,-0.017592918860102842,0.03551745027808461,0.9506633902687914,0,0,0.736,1,82
96,40670.349,65.18600000000151,-0.1097701416015625,-0.0068747086524963376,0,-0.02150245638457014,0.03769911184307752,0.9782744990353417,0,0,0.734,1,82
97,40735.534,65.18499999999767,-0.16519921875,-0.019362154006958007,0,-0.017575465567582896,0.03789109806079689,1.0032152540463406,0,0,0.725,1,82
98,40800.598,65.06399999999849,-0.19695384216308592,-0.03427262496948242,0,-0.010122909661567111,0.0339815605363296,1.0259918007848665,0,0,0.719,1,82
99,40865.661,65.06300000000192,-0.2165986328125,-0.031858352661132815,0,-0.005253441048502931,0.024713862208239703,1.047040471563918,0,0,0.706,0,82
100,40931.03,65.36899999999878,-0.23004350280761718,-0.02588638496398926,0,-0.004642575810304917,0.011013027580084218,1.067059398084293,0,0,0.7,0,82
101,40996.063,65.03300000000309,-0.24121957397460939,-0.029667633056640625,0,-0.0029845130209103033,-0.005899212871740834,1.0855598881554331,0,0,0.695,0,82
102,41061.218,65.15499999999884,-0.23662472534179688,-0.03469624710083008,0,0.003298672286269283,-0.01933824811209717,1.10498540273013,0,0,0.691,0,82
103,41126.617,65.39899999999761,-0.21781619262695312,-0.03640092086791992,0,0.00916297857297023,-0.025411993909037436,1.1248647029103453,0,0,0.692,0,82
104,41191.589,64.97200000000157,-0.20590997314453124,-0.029735719680786133,0,0.013596114873035827,-0.029269171555944905,1.1419863828724097,0,0,0.692,0,82
105,41256.866,65.27700000000186,-0.19247062683105468,-0.013700082778930664,0,0.01345648853287628,-0.036110862223762676,1.1571183874872006,0,0,0.699,0,82
106,41321.96,65.09399999999732,-0.15581582641601563,-0.0051739664077758785,0,0.01298524963483781,-0.04597197249753064,1.1712206478433147,0,0,0.703,0,82
107,41387.237,65.27700000000186,-0.12785717010498046,0.005229294776916504,0,0.015097098029750951,-0.048956485518440944,1.185916320145107,0,0,0.716,0,82
108,41452.484,65.24699999999575,-0.11326301574707032,-0.0014478092193603515,0,0.021589722847169857,-0.044732788728614664,1.1993204488004234,0,0,0.726,0,82
109,41517.547,65.06300000000192,-0.06316825485229492,0.011161165237426758,0,0.02267182698340634,-0.04223696789826277,1.2130387367210989,0,0,1.534,0,82
110,41582.672,65.125,-0.07166304779052735,0.008922974586486816,0,0.0170518667919846,-0.034260813216648686,1.2248371624645804,0,0,0.737,0,82
111,41648.132,65.45999999999913,-0.07394682312011719,0.02146512794494629,0,0.015166911199830723,-0.022689280275926284,1.2377351456368186,0,0,0.732,0,82
112,41713.043,64.91100000000006,-0.04703048324584961,0.021387231826782226,0,0.010157816246606997,-0.023474678439323732,1.2499000905232192,0,0,0.734,0,82
113,41778.289,65.24599999999919,-0.05285628890991211,0.02951975631713867,0,0.00715584993317675,-0.030229102644541785,1.260162626524946,0,0,0.725,0,82
114,41843.444,65.15500000000611,-0.03972820281982422,0.02894636917114258,0,0.002251474735072685,-0.03504621138004614,1.2689241793699573,0,0,0.718,0,82
115,41908.691,65.24699999999575,-0.01724383735656738,0.018259891510009764,0,-0.0030368728984701333,-0.035953782591083186,1.2771097735618107,0,0,0.719,0,82
116,41974.06,65.36899999999878,-0.008270977020263671,0.005669744968414306,0,-0.004886921905584123,-0.03429571980168858,1.2839340109371085,0,0,0.712,0,82
117,42039.093,65.03300000000309,0.00454608678817749,-0.004526366233825683,0,-0.004468042885105484,-0.027820548276789613,1.2944583463266344,0,0,0.71,0,82
118,42104.217,65.12399999999616,0.03265603637695313,-0.04668987655639648,0,0.003159045946109736,-0.013753194505715317,1.3040227506275635,0,0,0.706,0,82
119,42169.433,65.21600000000035,0.05582064437866211,-0.05794036865234375,0,0.0124965574442794,0.0027052603405912107,1.3105153754449823,0,0,0.719,0,82
120,42234.588,65.15500000000611,0.08765019989013671,-0.03643810653686524,0,0.01572541656046891,0.007138396640656808,1.316658934412002,0,0,0.734,0,82
121,42299.804,65.21599999999307,0.1105101547241211,-0.017440176010131835,0,0.015673056682909078,-0.0003665191429188092,1.320149592915991,0,0,0.777,0,82
122,42364.929,65.125,0.12471924591064452,-0.0057038326263427735,0,0.014817845349431856,-0.0065275314024587925,1.32346571849478,0,0,0.808,0,82
123,42430.114,65.18500000000495,0.12221623229980469,-0.007892200469970703,0,0.010838494654884786,-0.006230825429619756,1.3287017062507631,0,0,0.867,0,82
124,42495.422,65.30799999999726,0.1979427490234375,0.005147275924682618,0,0.007103490055616921,-0.001064650843716541,1.3333966419386278,0,0,0.938,0,82
125,42560.913,65.4910000000018,0.18137864685058594,0.017507125854492187,0,0.0018500490071139892,0.002879793265790644,1.3373236327556153,0,0,0.974,0,82
126,42625.823,64.90999999999622,0.14995164489746093,0.022381328582763673,0,-0.005253441048502931,0.003490658503988659,1.3408491978446437,0,0,1.043,0,82
127,42691.04,65.21700000000419,0.15939544677734374,0.0009894962310791015,0,-0.013334315485236677,0.010978120995044333,1.3422629145387592,0,0,1.119,0,82
128,42756.072,65.03199999999924,0.14014006042480467,-0.027348072052001952,0,-0.012426744274199625,0.01996656664281513,1.342629433681678,0,0,1.147,0,82
129,42821.197,65.125,0.11026651000976563,-0.026190134048461915,0,-0.005759586531581288,0.029356438018544623,1.3428039666068774,0,0,1.205,0,82
130,42886.383,65.18600000000151,0.07744552612304688,-0.03449361038208008,0,-0.0041887902047863905,0.044872415068774214,1.3440606036683131,0,0,1.226,1,82
131,42951.599,65.21600000000035,0.0331402473449707,-0.03912313842773438,0,0.0005759586531581287,0.0627271333166762,1.3470276633967038,0,0,1.273,1,82
132,43017.089,65.48999999999796,0.009702457427978515,-0.03146878433227539,0,-0.00731292956585624,0.06883578569865635,1.3470800232742635,0,0,1.317,1,82
133,43082.153,65.06399999999849,-0.041276165008544925,-0.0356475830078125,0,-0.02183406894244906,0.06499606134426883,1.3484762866758588,0,0,1.34,1,82
134,43147.186,65.03300000000309,-0.06905504608154298,-0.034487693786621094,0,-0.03529055747532534,0.05773549165597242,1.350273975805413,0,0,1.381,1,82
135,43212.432,65.24599999999919,-0.09168528747558594,-0.09105462646484375,0,-0.04719370297392667,0.05344198169606637,1.351530612866849,0,0,1.416,1,82
136,43277.679,65.24699999999575,-0.12550637817382812,-0.10270658874511719,0,-0.05227261109723017,0.05211553146455068,1.3525079972479657,0,0,1.451,1,82
137,43342.742,65.06300000000192,-0.1707681121826172,-0.14163243103027343,0,-0.05482079180514189,0.0497069770967985,1.3531712223637236,0,0,1.491,1,82
138,43407.806,65.06399999999849,-0.21305204772949218,-0.1738946838378906,0,-0.053773594253945296,0.04160864936754481,1.3544976725952393,0,0,1.525,1,82
139,43472.991,65.18500000000495,-0.2504096374511719,-0.20555184936523438,0,-0.052482050607469494,0.03073524812762014,1.3551434444184773,0,0,1.558,1,82
140,43538.33,65.33899999999994,-0.2835824890136719,-0.2153108367919922,0,-0.04747295565424577,0.020053833105414847,1.3565397078200727,0,0,1.578,1,82
141,43603.363,65.03299999999581,-0.31094912719726564,-0.22995664978027344,0,-0.03881612256435389,0.007400196028455957,1.3576392652488292,0,0,1.599,0,82
142,43668.518,65.15499999999884,-0.349310302734375,-0.24186766052246095,0,-0.0318871654339364,-0.00757472895365539,1.35742982573859,0,0,1.603,0,82
143,43733.947,65.42900000000373,-0.344583251953125,-0.25531459045410154,0,-0.01987930018021541,-0.023212879051524585,1.358267583779547,0,0,1.634,0,82
144,43798.858,64.91100000000006,-0.3419398193359375,-0.2974521484375,0,0.0008726646259971648,-0.04005530633326986,1.3593322346232637,0,0,1.655,0,82
145,43864.44,65.58200000000215,-0.3878481750488281,-0.3460170593261719,0,0.020472712125893484,-0.05368632779134557,1.3588435424327052,0,0,1.676,0,82
146,43929.321,64.88100000000122,-0.359245361328125,-0.31981500244140626,0,0.037803831598197175,-0.06520550085450814,1.3580057843917481,0,0,1.668,0,82
147,43994.445,65.12399999999616,-0.2967991943359375,-0.274782958984375,0,0.052482050607469494,-0.07545058356371487,1.35737746586103,0,0,1.685,0,82
148,44059.722,65.27700000000186,-0.23384197998046874,-0.230878173828125,0,0.06398377037811212,-0.0870744763819971,1.356138282092114,0,0,1.689,0,82
149,44124.816,65.09399999999732,-0.16160293579101562,-0.17653948974609374,0,0.07431611954991854,-0.09454448558053283,1.3554226970987964,0,0,1.703,0,82
150,44189.971,65.15499999999884,-0.09099382019042969,-0.12297412109375,0,0.07756243195862801,-0.097878064451842,1.3541311534523204,0,0,1.752,0,82
151,44255.34,65.36899999999878,-0.027732364654541014,-0.07004850769042968,0,0.07852236304722487,-0.09342747485925645,1.357656718541349,0,0,1.731,0,82
152,44320.312,64.97200000000157,0.031053102493286133,-0.019399959564208983,0,0.07358308126408093,-0.08749335540247573,1.3577788915889886,0,0,1.739,0,82
153,44385.62,65.30800000000454,0.08125323486328125,0.020165863037109374,0,0.062029001615878473,-0.08087855753741723,1.3569062269629915,0,0,1.764,0,82
154,44450.683,65.06299999999464,0.12132765197753906,0.04871691131591797,0,0.053808500838985175,-0.06576400621514633,1.3586690095075058,0,0,1.758,0,82
155,44515.899,65.21600000000035,0.14951730346679687,0.07455710601806641,0,0.044959681531373925,-0.048956485518440944,1.359855833398862,0,0,1.791,0,82
156,44581.329,65.43000000000029,0.16216354370117186,0.0889619140625,0,0.03497639820996636,-0.03220132469929538,1.3593845945008234,0,0,1.794,0,82
157,44646.24,64.91100000000006,0.16761811828613282,0.10029959106445313,0,0.025080381351158514,-0.0183434104384604,1.3585642897523862,0,0,1.794,0,82
158,44711.425,65.18500000000495,0.16831437683105469,0.10735520935058594,0,0.016824973989225337,-0.009599310885968814,1.3583723035346666,0,0,1.815,0,82
159,44776.763,65.3379999999961,0.16200341796875,0.1069607162475586,0,0.0069464104229374326,-0.0018675022996339327,1.3583373969496269,0,0,1.819,0,82
160,44841.766,65.00300000000425,0.15304815673828126,0.10858191680908204,0,0.0027925268031909274,0.009826203688728075,1.357970877806708,0,0,1.824,0,82
161,44907.073,65.30699999999342,0.16526129150390625,0.10320527648925781,0,-0.0006108652381980154,0.020088739690454733,1.3577439850039488,0,0,1.825,0,82
162,44972.167,65.0940000000046,0.17362168884277343,0.05841360092163086,0,-0.006579891280018623,0.023474678439323732,1.3578487047590686,0,0,1.837,0,82
163,45037.353,65.18600000000151,0.162150146484375,0.036271316528320316,0,-0.014294246573833557,0.02537708732399755,1.3566793341602321,0,0,1.869,0,82
164,45102.63,65.27699999999459,0.1396273651123047,0.045721420288085936,0,-0.01816887751326097,0.026965336943312393,1.3562080952621938,0,0,1.853,0,82
165,45167.724,65.0940000000046,0.11278024291992188,0.038076099395751954,0,-0.01837831702350029,0.03270747018237374,1.3568713203779514,0,0,1.864,0,82
166,45232.879,65.15499999999884,0.07276639556884766,0.013517581939697265,0,-0.014678219009272311,0.0369660735572399,1.3563477216023532,0,0,1.856,0,82
167,45298.217,65.3379999999961,0.06350253295898438,0.01354338550567627,0,-0.013037609512397642,0.036198128686362394,1.354968911493278,0,0,1.85,0,82
168,45363.403,65.18600000000151,0.02019711112976074,0.012088614463806152,0,-0.011938052083641213,0.0333008821280518,1.35430568637752,0,0,1.856,0,82
169,45428.558,65.15499999999884,0.011722057342529298,-0.0017368574142456056,0,-0.008168140899333463,0.030839967882739797,1.3538344474794815,0,0,1.843,0,82
170,45493.713,65.15500000000611,-0.0028554086685180662,-0.016918489456176758,0,-0.0069464104229374326,0.02605776573227534,1.3532759421188434,0,0,1.856,0,82
171,45558.776,65.06299999999464,-0.02385171890258789,-0.027718603134155275,0,-0.010367255756846317,0.01843067690106012,1.352438184077886,0,0,1.852,0,82
172,45624.084,65.30800000000454,-0.036964725494384766,-0.035260936737060544,0,-0.012304571226560023,0.01377064779823526,1.35121645360149,0,0,1.856,0,82
173,45689.178,65.09399999999732,-0.07133953094482422,-0.052580245971679686,0,-0.009564404300928926,0.010402162341886203,1.3510070140912505,0,0,1.853,0,82
174,45754.302,65.12400000000343,-0.0644390869140625,-0.08512258148193359,0,-0.003159045946109736,0.008639379797371931,1.3504834153156522,0,0,1.86,0,82
175,45819.732,65.43000000000029,-0.06587924194335938,-0.07996552276611328,0,-0.0007504915783575615,0.0015882496193148398,1.349663110567215,0,0,1.865,0,82
176,45884.704,64.9719999999943,-0.06764939117431641,-0.09570433044433593,0,0.001361356816555577,-0.007452555906015787,1.3479352346077405,0,0,1.872,0,82
177,45949.89,65.18600000000151,-0.07813858795166016,-0.11547120666503906,0,0.007016223593017205,-0.014503686084072877,1.3473418226620626,0,0,1.877,0,82
178,46015.075,65.18499999999767,-0.03102634620666504,-0.09485304260253906,0,0.011554079648202462,-0.021205750411731103,1.347463995709702,0,0,1.904,0,82
179,46080.23,65.15500000000611,-0.02397411918640137,-0.1080487289428711,0,0.013351768777756621,-0.027209683038591597,1.346591331083705,0,0,1.886,0,82
180,46145.507,65.27699999999459,-0.04195288848876953,-0.09153691101074218,0,0.020420352248333655,-0.028483773392547457,1.345683759872668,0,0,1.889,0,82
181,46210.601,65.0940000000046,-0.017324960708618165,-0.07643608093261718,0,0.021903882112528833,-0.02981022362406315,1.3450903479269898,0,0,1.892,0,82
182,46275.726,65.125,0.002338892698287964,-0.09583464813232422,0,0.024905848425959082,-0.02809980095710871,1.3446191090289514,0,0,1.905,0,82
183,46341.125,65.39899999999761,0.03224131774902344,-0.08370562744140625,0,0.02726204291615143,-0.0285012266850674,1.344776188661631,0,0,1.917,0,82
184,46406.188,65.06300000000192,0.054474445343017576,-0.07792881774902344,0,0.02614503219487506,-0.027488935718910687,1.3451427078045497,0,0,1.927,0,82
185,46471.435,65.24699999999575,0.0542081413269043,-0.07678141021728516,0,0.022008601867648494,-0.014172073526193957,1.3466960508388246,0,0,1.928,0,82
186,46536.56,65.125,0.10303049468994141,-0.08810772705078125,0,0.01806415775814131,0.001780235837034216,1.3507103081184115,0,0,2.015,0,82
187,46601.715,65.15499999999884,0.0817857437133789,-0.07307144927978515,0,0.010768681484805013,0.010489428804485921,1.3530141427310443,0,0,1.937,0,82
188,46666.992,65.27700000000186,0.07756560516357422,-0.07418952941894531,0,0.007871434926494426,0.013910274138394806,1.3581105041468675,0,0,1.956,0,82
189,46732.086,65.0940000000046,0.060983909606933596,-0.070537841796875,0,0.006178465552059926,0.015341444125030157,1.3621771213040144,0,0,1.956,0,82
190,46797.18,65.09399999999732,0.023274967193603516,-0.08346002960205078,0,0.009407324668249437,0.019216075064457567,1.365336167250124,0,0,1.952,0,82
191,46862.548,65.36800000000221,0.019211191177368164,-0.08622246551513672,0,0.011536626355682518,0.019844393595175525,1.3685650263663134,0,0,1.958,0,82
192,46927.551,65.00299999999697,0.018337202072143555,-0.07688665771484375,0,0.0143116998663535,0.017348572764823635,1.3717415256049432,0,0,1.988,0,82
193,46992.797,65.24599999999919,-0.012969749450683594,-0.07864881896972656,0,0.01837831702350029,0.014084807063594239,1.374010453632536,0,0,1.973,1,82
194,47057.891,65.0940000000046,-0.020586166381835937,-0.06413636779785156,0,0.022602013813326566,0.010821041362364843,1.3756336098368906,0,0,1.992,0,82
195,47123.107,65.21600000000035,-0.01845030403137207,-0.07586517333984374,0,0.027192229746071654,-0.0008552113334772215,1.3777105516467638,0,0,1.963,0,82
196,47188.385,65.27799999999843,-0.005798191070556641,-0.05247343826293945,0,0.028902652413026093,-0.023352505391684132,1.3788624689530802,0,0,1.97,0,82
197,47253.479,65.09399999999732,-0.010088403701782227,-0.05757331848144531,0,0.03295181627765294,-0.03251548396465436,1.3806950646676743,0,0,1.975,0,82
198,47318.969,65.48999999999796,0.017264629364013673,-0.0352916259765625,0,0.03628539514896211,-0.03262020371977402,1.3810964903956329,0,0,1.994,0,82
199,47383.972,65.00300000000425,0.032429912567138675,-0.018400457382202147,0,0.03789109806079689,-0.027401669256310976,1.3823531274570688,0,0,0,0,82
200,47448.974,65.00200000000041,0.054578243255615236,-0.015156702995300293,0,0.03682644721708035,-0.02193878869756872,1.3843428028043423,0,0,0,0,82
201,47514.251,65.27699999999459,0.04132646942138672,-0.01588508415222168,0,0.036093408931242736,-0.017086773377024488,1.3855470799882184,0,0,1.952,0,82
202,47579.315,65.06400000000576,0.042141452789306644,0.012135295867919922,0,0.03703588672731967,-0.01069886831472524,1.3870655164374535,0,0,1.971,0,82
203,47644.561,65.24599999999919,0.05503495788574219,0.008823798179626465,0,0.03937462792499207,-0.0023212879051524586,1.3879556343559707,0,0,1.96,0,82
204,47710.052,65.4910000000018,0.06129452896118164,0.02004837417602539,0,0.03736749928519859,0.0016929693744344998,1.3888981121520476,0,0,1.954,0,82
205,47775.054,65.00199999999313,0.05723239135742188,0.029178298950195313,0,0.03478441199224699,0.004310963252425994,1.3902245623835632,0,0,1.942,0,82
206,47840.179,65.125,0.04893296432495117,0.046953689575195315,0,0.03173008580125691,0.006841690667817772,1.3916382790776787,0,0,1.939,0,81
207,47905.456,65.27700000000186,0.04615238952636719,0.059913124084472656,0,0.02525491427635795,0.0077492618788548235,1.3923189574859565,0,0,1.929,0,81
208,47970.397,64.9409999999989,0.029550588607788086,0.061390487670898435,0,0.021903882112528833,0.008011061266653973,1.3948671381938682,0,0,1.937,0,81
209,48035.644,65.24700000000303,0.03558993911743164,0.05927291870117188,0,0.019250981649497453,0.010489428804485921,1.3949718579489878,0,0,1.932,0,81
210,48100.86,65.21600000000035,0.030651742935180665,0.06538088226318359,0,0.01462585913171248,0.01001818990644745,1.395861975867505,0,0,1.951,0,81
211,48165.985,65.125,0.028505336761474608,0.08061051177978516,0,0.006789330790257941,0.004363323129985824,1.3968393602486218,0,0,1.933,0,81
212,48231.262,65.27700000000186,0.02095006561279297,0.06704279327392579,0,0.004084070449666731,0.0028274333882308137,1.3967695470785417,0,0,1.93,0,81
213,48296.417,65.15499999999884,0.0011124861240386962,0.050685707092285155,0,0.00731292956585624,0.0045204027626653135,1.3964728411057028,0,0,1.927,0,81
214,48361.877,65.45999999999913,0.0019821648597717284,0.046021579742431644,0,0.008552113334772213,0.004084070449666731,1.3963332147655434,0,0,1.93,0,81
215,48427.215,65.3379999999961,-0.00170554518699646,0.03278551483154297,0,0.006178465552059926,0.00013962634015954637,1.3985497829155762,0,0,1.936,0,81
216,48491.851,64.63600000000588,0.011362153053283692,0.03583631134033203,0,0.0022165681500327986,-0.009337511498169663,1.4022498809298043,0,0,1.945,0,81
217,48557.098,65.24699999999575,0.00502275800704956,0.02151183319091797,0,0.0029146998508305304,-0.022078415037728265,1.4066481106448299,0,0,1.939,0,81
218,48622.253,65.15499999999884,0.019427581787109374,0.018185482025146485,0,0.00486946861306418,-0.036093408931242736,1.4082712668491846,0,0,1.945,0,81
219,48687.5,65.24700000000303,0.04633251190185547,0.0030458338260650635,0,0.0018849555921538759,-0.04855505979048225,1.4123204307138115,0,0,1.954,0,81
220,48752.777,65.27700000000186,0.027812211990356446,-0.011108582496643066,0,0.0030543261909900766,-0.05279620987282847,1.4150082377618827,0,0,1.957,0,81
221,48817.871,65.09399999999732,0.07733001708984374,-0.021029092788696288,0,0.004258603374866164,-0.05398303376418461,1.417381885544595,0,0,1.955,0,81
222,48883.026,65.15499999999884,0.10503890228271484,-0.054015041351318356,0,0.003926990816987242,-0.05351179486614614,1.419790439912347,0,0,1.961,0,81
223,48948.394,65.36800000000221,0.12902110290527344,-0.045165763854980466,0,0.004276056667386107,-0.052586770362589144,1.421081983558823,0,0,1.972,0,81
224,49013.366,64.97200000000157,0.14844088745117187,-0.05647522735595703,0,0.0059690260418206065,-0.04768239516448509,1.422670233178138,0,0,1.962,0,81
225,49078.643,65.27699999999459,0.16193264770507812,-0.08423005676269531,0,0.011187560505283653,-0.03935717463247213,1.4248868013281706,0,0,1.996,0,81
226,49143.707,65.06400000000576,0.18574295043945313,-0.09249750518798829,0,0.01902408884673819,-0.02806489437206882,1.4251835073010095,0,0,1.28,0,81
227,49208.923,65.21600000000035,0.145498291015625,-0.05531946182250977,0,0.024713862208239703,-0.01895427567665842,1.426928836553004,0,0,1.299,0,81
228,49274.23,65.3070000000007,0.1453940887451172,-0.04981863021850586,0,0.029426251188624394,-0.01457349925415265,1.4283250999545996,0,0,1.272,0,81
229,49339.324,65.09399999999732,0.1551315155029297,-0.047183086395263675,0,0.03399901382884954,-0.008970992355250854,1.4292501244581564,0,0,1.302,1,81
230,49404.449,65.125,0.1372085418701172,-0.0225320987701416,0,0.03799581781591655,-0.0035953782591083183,1.4295468304309955,0,0,1.277,1,81
231,49469.818,65.36899999999878,0.1337715301513672,-0.047474117279052735,0,0.045884706034930924,-0.005602506898901799,1.4296166436010753,0,0,1.932,1,81
232,49534.82,65.00200000000041,0.1583448028564453,0.005041743278503418,0,0.0665144977935039,-0.028763026072866547,1.430087882499114,0,0,1.937,1,81
233,49600.128,65.30799999999726,0.18980818176269532,0.055159873962402343,0,0.08946557745722933,-0.05743878568313338,1.4289185119002774,0,0,1.25,1,81
234,49665.191,65.06300000000192,0.26759503173828125,0.11118387603759766,0,0.10363765098342327,-0.0777195115913075,1.427801501179001,0,0,1.912,0,81
235,49730.438,65.24700000000303,0.32343740844726565,0.14139212036132812,0,0.11086331408667982,-0.08524188066740306,1.4281156604443601,0,0,1.249,0,81
236,49795.654,65.21600000000035,0.27956085205078124,0.16444332885742188,0,0.10515608743265835,-0.08529424054496287,1.4292501244581564,0,0,1.27,0,81
237,49860.778,65.12399999999616,0.33060858154296874,0.16286282348632813,0,0.08689994345679766,-0.07398450699203962,1.4320601045538672,0,0,1.275,0,80
238,49925.781,65.00300000000425,0.3554306335449219,0.16446670532226562,0,0.06782349473249966,-0.04824090052512327,1.4351144307448576,0,0,1.308,0,80
239,49991.363,65.58199999999488,0.3568569641113281,0.15185870361328124,0,0.05525712411814047,-0.01815142422074103,1.437051746214571,0,0,1.912,1,80
240,50056.457,65.0940000000046,0.468154296875,0.20350770568847656,0,0.04707152992628707,0.008272860654453122,1.4390763281468846,0,0,1.963,1,80
241,50121.551,65.09399999999732,0.49418417358398437,0.23008184814453125,0,0.04544837372193235,0.02483603525587931,1.440158432283121,0,0,1.909,1,80
242,50186.859,65.30799999999726,0.39720428466796875,0.23573747253417968,0,0.06455972903127025,0.03412118687648914,1.4402980586232805,0,0,1.909,1,80
243,50251.953,65.0940000000046,0.36521075439453127,0.30658706665039065,0,0.0850149878646438,0.042254421190782716,1.4413976160520368,0,0,1.927,1,80
244,50317.108,65.15499999999884,0.3230412292480469,0.36930160522460936,0,0.09808750396208131,0.05131268000863328,1.4421306543378747,0,0,1.914,1,80
245,50382.354,65.24599999999919,0.28300177001953125,0.390162109375,0,0.10627309815393474,0.0576482251933727,1.4422528273855142,0,0,1.925,1,80
246,50447.357,65.00300000000425,0.2350784149169922,0.4787655029296875,0,0.10852457288900741,0.061400683085160515,1.441467429222117,0,0,1.926,1,80
247,50513.153,65.79599999999482,0.21615972900390626,0.53336474609375,0,0.10538298023541762,0.06693337681398254,1.4402282454532007,0,0,1.939,1,80
248,50577.606,64.45300000000134,0.1572459716796875,0.5791577758789063,0,0.10183996185386912,0.06888814557621618,1.441589602269756,0,0,1.98,1,80
249,50643.066,65.45999999999913,0.12706329345703124,0.6510001220703125,0,0.09100146719898435,0.07068583470577033,1.441327802881957,0,0,1.957,1,80
250,50707.946,64.88000000000466,0.06996469116210938,0.6790825805664062,0,0.07559020990387441,0.07237880408020485,1.4395999269224828,0,0,1.966,1,80
251,50773.437,65.49099999999453,0.04926612091064453,0.6909808959960938,0,0.0632158255072346,0.0724486172502846,1.4397046466776027,0,0,1.985,1,80
252,50838.562,65.125,0.014464640617370605,0.7081932373046875,0,0.04729842272904633,0.07290240285580314,1.44054240471856,0,0,2.015,0,79
253,50903.717,65.15499999999884,-0.037940818786621096,0.7024152221679687,0,0.023195425759004636,0.07354817467904105,1.4392508610720838,0,0,2.015,0,79
254,50968.872,65.15500000000611,-0.09297716522216797,0.7031319580078125,0,-0.010053096491487336,0.0682947336305381,1.4392508610720838,0,0,2.03,0,79
255,51034.24,65.36799999999494,-0.13459678649902343,0.664015380859375,0,-0.045099307871533476,0.05558873667601939,1.4405598580110797,0,0,2.038,0,79
256,51099.243,65.00300000000425,-0.13648757934570313,0.6342137451171875,0,-0.0756251164889143,0.0402298392584693,1.441956121412675,0,0,2.068,0,79
257,51164.52,65.27699999999459,-0.160640625,0.5898255615234375,0,-0.09873327578531922,0.023544491609403508,1.4427415195760724,0,0,2.055,0,79
258,51229.614,65.0940000000046,-0.18184571838378907,0.5083952331542969,0,-0.1150870108765061,0.008796459430051421,1.4449231811410654,0,0,2.029,0,79
259,51294.83,65.21600000000035,-0.2229053955078125,0.4143439636230469,0,-0.12735667551802624,-0.003298672286269283,1.4470175762434587,0,0,2.029,0,79
260,51359.985,65.15499999999884,-0.24838243103027344,0.2950241394042969,0,-0.1346346984988426,-0.010454522219446033,1.4481869468422948,0,0,1.652,0,79
261,51425.231,65.24599999999919,-0.2265658721923828,0.18551617431640624,0,-0.13576916251263887,-0.01905899543177808,1.4466336038080199,0,0,1.664,0,79
262,51490.295,65.06399999999849,-0.18942721557617187,0.08240008544921874,0,-0.13082988072949495,-0.029164451800825247,1.4484312929375742,0,0,1.639,0,79
263,51555.694,65.39900000000489,-0.2107743682861328,-0.045479389190673826,0,-0.11925834778877253,-0.03614576880880257,1.4496181168289304,0,0,1.655,0,79
264,51620.727,65.03299999999581,-0.1869188690185547,-0.13046620178222657,0,-0.10320131867042472,-0.04214970143566306,1.4499148228017693,0,0,1.672,0,79
265,51685.943,65.21600000000035,-0.1835986785888672,-0.18395628356933594,0,-0.08651597102135891,-0.043179445694339715,1.4489723450056924,0,0,1.676,0,79
266,51751.037,65.09399999999732,-0.17719619750976562,-0.26019601440429685,0,-0.06670648401122328,-0.04214970143566306,1.4465114307603804,0,0,1.707,0,79
267,51816.253,65.21600000000035,-0.1806914520263672,-0.34679043579101565,0,-0.046181412007769956,-0.04129449010218584,1.444451942243027,0,0,2.075,0,79
268,51881.53,65.27700000000186,-0.18986380004882814,-0.4279669189453125,0,-0.026982790235832332,-0.040962877544306914,1.4425146267733133,0,0,2.039,0,79
269,51946.655,65.125,-0.19062059020996094,-0.4573951110839844,0,-0.006998770300497261,-0.03988077340807043,1.4394428472898033,0,0,2.044,0,79
270,52011.779,65.12400000000343,-0.17382162475585938,-0.44624789428710937,0,0.016947147036864937,-0.03937462792499207,1.4383781964460867,0,0,2.104,0,79
271,52077.209,65.43000000000029,-0.1474982452392578,-0.46820648193359377,0,0.043423791789618915,-0.03979350694547071,1.4349049912346181,0,0,2.035,0,79
272,52142.211,65.00200000000041,-0.12923065185546875,-0.43939273071289064,0,0.06766641509982015,-0.03988077340807043,1.4336134475881424,0,0,2.034,0,79
273,52207.489,65.27799999999843,-0.07467234802246094,-0.39813470458984374,0,0.08538150700756261,-0.03675663404700058,1.4322869973566263,0,0,2.002,0,79
274,52272.674,65.18499999999767,-0.06543647766113281,-0.3449457702636719,0,0.0999724595542352,-0.03600614246864302,1.4295991903085552,0,0,2.001,0,79
275,52337.829,65.15499999999884,-0.026279390335083006,-0.32286648559570313,0,0.1125562834611143,-0.0364424747816416,1.426283064729766,0,0,2.02,0,79
276,52403.167,65.33800000000338,-0.025141969680786132,-0.26852789306640623,0,0.11887437535333378,-0.03378957431861022,1.4230018457360165,0,0,1.995,0,79
277,52467.987,64.81999999999971,-0.023696468353271483,-0.21696739196777343,0,0.12128292972108597,-0.026302111827554542,1.4195111872320278,0,0,1.969,0,79
278,52533.203,65.21600000000035,0.03377744293212891,-0.15528717041015624,0,0.11646582098558161,-0.021973695282608605,1.416456861041038,0,0,1.926,0,79
279,52598.754,65.55099999999948,0.030405670166015624,-0.10880253601074219,0,0.11599458208754312,-0.017558012275062956,1.4141181198433654,0,0,1.871,0,79
280,52663.513,64.7589999999982,0.036823272705078125,-0.06678975677490234,0,0.11606439525762292,-0.013264502315156903,1.4126345899791704,0,0,1.852,0,79
281,52728.729,65.21600000000035,0.04600783920288086,-0.04552678680419922,0,0.11091567396423964,-0.009040805525330627,1.411552485842934,0,0,1.805,0,79
282,52793.853,65.12400000000343,0.038808425903320315,-0.009227714538574218,0,0.10260790672474661,-0.00809832772925369,1.4108194475570963,0,0,1.766,0,79
283,52859.069,65.21600000000035,0.033080780029296875,0.0469742660522461,0,0.09121090670922365,-0.011117747335203878,1.4109939804822955,0,0,1.702,0,79
284,52924.438,65.36899999999878,0.046802452087402344,0.07844300842285157,0,0.07990117315630041,-0.01329940890019679,1.4099118763460592,0,0,1.642,0,79
285,52989.44,65.00200000000041,0.026802539825439453,0.12761114501953125,0,0.06906267850141562,-0.0136659280431156,1.4096151703732203,0,0,1.612,0,79
286,53054.656,65.21600000000035,0.037711715698242186,0.14752093505859376,0,0.05935864786032714,-0.014433872913993106,1.4102434889039381,0,0,1.557,0,79
287,53120.239,65.58299999999872,0.03719266128540039,0.18191386413574218,0,0.05229006438975012,-0.013386675362796509,1.4094406374480206,0,0,1.477,0,79
288,53185.089,64.84999999999854,0.04426515960693359,0.22735610961914063,0,0.04682718383100786,-0.011780972450961723,1.4088995853799027,0,0,1.441,0,79
289,53250.305,65.21600000000035,0.061108901977539064,0.22874282836914062,0,0.039950586578150205,-0.008621926504851989,1.4091613847677018,0,0,1.374,0,79
290,53315.429,65.12399999999616,0.06494820404052734,0.28722222900390626,0,0.03092723434533952,-0.004363323129985824,1.4086726925771433,0,0,1.344,0,79
291,53380.615,65.18600000000151,0.06654231262207032,0.3052174072265625,0,0.01801179788058148,0.00003490658503988659,1.4075033219783073,0,0,1.276,0,79
292,53446.136,65.52100000000064,0.06980255126953125,0.3243985900878906,0,0.004101523742186674,0.0020594885173533086,1.4064735777196302,0,0,1.213,0,79
293,53510.986,64.84999999999854,0.06635654449462891,0.33828890991210936,0,-0.009128071987930345,0.005113814708343385,1.4052343939507144,0,0,1.184,0,79
294,53576.141,65.15500000000611,0.06277199554443359,0.3559271240234375,0,-0.025761059759436305,0.006544984694978735,1.4055834598011134,0,0,1.12,0,79
295,53641.784,65.64299999999639,0.04857091903686524,0.3604421081542969,0,-0.04221951460574283,0.008552113334772213,1.4049551412703956,0,0,1.062,0,79
296,53706.542,64.75800000000163,0.0324906005859375,0.35574664306640624,0,-0.059428461030406915,0.008779006137531478,1.4039603035967585,0,0,1.034,1,79
297,53771.759,65.21699999999691,0.014184913635253905,0.2970307006835938,0,-0.07408922674715929,0.009616764178488757,1.4026513066577628,0,0,0.945,1,79
298,53836.883,65.12400000000343,0.018901334762573243,0.21965548706054688,0,-0.08738863564735608,0.02192133540504878,1.3996318870518127,0,0,0.914,0,79
299,53902.13,65.24699999999575,0.032650108337402346,0.127201904296875,0,-0.10061823137747308,0.04721115626644662,1.395565269894666,0,0,0.845,0,79
300,53967.437,65.3070000000007,-0.0038443870544433594,0.03409123229980469,0,-0.10656980412677376,0.06401867696315201,1.3931392622343937,0,0,0.779,0,79
301,54032.47,65.03300000000309,-0.07234718322753907,-0.06929869079589844,0,-0.09904743505067819,0.06640977803838424,1.3923015041934366,0,0,0.739,0,79
302,54097.625,65.15499999999884,-0.1286151123046875,-0.16105982971191407,0,-0.08754571528003557,0.05881759579220891,1.3925807568737556,0,0,0.67,0,79
303,54162.963,65.33800000000338,-0.19889227294921874,-0.267676025390625,0,-0.06990043654237289,0.05129522671611334,1.3926680233363553,0,0,0.582,0,79
304,54228.057,65.09399999999732,-0.2629061279296875,-0.3485028076171875,0,-0.04817108735504349,0.03944444109507184,1.3929647293091945,0,0,0.543,0,79
305,54293.243,65.18600000000151,-0.32100762939453126,-0.38451284790039064,0,-0.023736477827122886,0.02535963403147761,1.3922840509009167,0,0,0.466,0,79
306,54358.367,65.12399999999616,-0.30553512573242186,-0.43113787841796875,0,-0.0024609142453120045,0.005044001538263612,1.3911146803020804,0,0,0.433,0,79
307,54423.919,65.55200000000332,-0.3239316101074219,-0.463911865234375,0,0.01865756970381938,-0.015271630954950384,1.389980216288284,0,0,0.367,0,79
308,54488.861,64.94199999999546,-0.3643772888183594,-0.479614990234375,0,0.03775147172063734,-0.033859387488689996,1.3897533234855248,0,0,0.308,0,79
309,54553.985,65.12400000000343,-0.38150619506835937,-0.46726058959960937,0,0.05211553146455068,-0.05057964172279567,1.389037738492207,0,0,0.285,0,79
310,54619.079,65.09399999999732,-0.3507497253417969,-0.4266092529296875,0,0.06684611035138281,-0.05899212871740834,1.389090098369767,0,0,0.25,0,79
311,54684.631,65.55200000000332,-0.3080623779296875,-0.3723505554199219,0,0.07414158662471912,-0.0739321471144798,1.3890726450772468,0,0,0,0,79
312,54749.664,65.03299999999581,-0.25749859619140625,-0.31303216552734375,0,0.07834783012202545,-0.08958775050486893,1.3894391642201658,0,0,0,0,79
313,54814.697,65.03300000000309,-0.19878643798828124,-0.25317236328125,0,0.08114035692521637,-0.09808750396208131,1.392406223948556,0,0,0,0,79
314,54879.882,65.18499999999767,-0.122822265625,-0.17584027099609376,0,0.08059930485709815,-0.08869763258635183,1.3982356236502171,0,0,0.243,0,79
315,54945.068,65.18600000000151,-0.021799005508422852,-0.08387478637695313,0,-0.003560471674068432,-0.030316369107141503,1.4268764766754443,0,0,0,0,79
