n,time,dt,vx,vy,vz,roll,pitch,yaw,x,y,z,detected,battery
0,837387.023,NaN,0,0,0,-0.000017453292519943296,0,1.1518125865611377,0,0,0.243,0,95
1,837457.214,NaN,0,0,0,-0.000017453292519943296,-0.00003490658503988659,1.1518649464386976,0,0,0.243,0,95
2,837597.747,NaN,0,0,0,-0.00022689280275926284,0.00006981317007977319,1.1519522129012973,0,0,0.243,0,95
3,837667.724,NaN,0,0,0,-0.0005585053606381855,0.00008726646259971648,1.1519696661938172,0,0,0.243,0,95
4,837732.849,NaN,0,0,0,-0.0007155849933176752,0.000296705972839036,1.1525456248469754,0,0,0.243,0,95
5,837798.248,65.39899999997579,0,0,0,-0.001308996938995747,0.00015707963267948963,1.1515682404658587,0,0,0.243,0,95
6,837863.22,64.97199999995064,0,0,0,-0.0014835298641951804,-0.0006632251157578452,1.1516729602209783,0,0,0.243,0,95
7,837928.344,65.12400000006892,0,0,0,-0.0015707963267948967,-0.0008377580409572782,1.1513588009556193,0,0,0.243,0,95
8,837993.56,65.2160000000149,0,0,0,-0.0018500490071139892,-0.0008552113334772215,1.1518998530237374,0,0,0.243,0,95
9,838058.715,65.15499999991152,0,0,0,-0.002181661564992912,-0.0010471975511965976,1.151707866806018,0,0,0.243,0,95
10,838123.87,65.15500000002794,0,0,0,-0.0024260076602721182,-0.0010122909661567112,1.1517951332686178,0,0,0.243,0,95
11,838189.025,65.15500000002794,0,0,0,-0.0026529004630313807,-0.0010122909661567112,1.1518823997312175,0,0,0.243,0,95
12,838254.15,65.125,0,0,0,-0.002897246558310587,-0.0010471975511965976,1.1513762542481392,0,0,0.243,0,95
13,838319.488,65.33799999998882,0,0,0,-0.0031764992386296795,-0.0011344640137963143,1.1523361853367362,0,0,0.243,0,95
14,838384.49,65.00199999997858,0,0,0,-0.0030368728984701333,-0.0011519173063162574,1.1510097351052204,0,0,0.243,0,95
15,838449.859,65.36900000006426,0,0,0,-0.0033684854563490563,-0.0012740903539558604,1.1513064410780596,0,0,0.243,0,95
16,838514.862,65.00299999990966,0,0,0,-0.003298672286269283,-0.0014660765716752368,1.151707866806018,0,0,0.243,0,95
17,838580.139,65.27700000000186,0,0,0,-0.003560471674068432,-0.0014486232791552935,1.150835202180021,0,0,0.243,0,95
18,838645.324,65.18500000005588,0,0,0,-0.004136430327226561,-0.0013439035240356337,1.152074385948937,0,0,0.243,0,95
19,838710.479,65.15500000002794,0,0,0,-0.004136430327226561,-0.0015707963267948967,1.151393707540659,0,0,0.243,0,95
20,838775.634,65.15499999991152,0,0,0,-0.004694935687864747,-0.0013788101090755204,1.1524758116768956,0,0,0.243,0,95
21,838841.308,65.67399999999907,0,0,0,-0.004904375198104066,-0.0016406094968746698,1.1526154380170552,0,0,0.243,0,95
22,838905.975,64.66700000001583,0,0,0,-0.0052010811709431014,-0.0017453292519943296,1.152074385948937,0,0,0.243,0,95
23,838971.16,65.18500000005588,0,0,0,-0.0053058009260627615,-0.001710422666954443,1.1529295972824143,0,0,0.243,0,95
24,839036.346,65.18599999998696,0,0,0,-0.005358160803622591,-0.0021467549799530253,1.1522314655816166,0,0,0.243,0,95
25,839101.593,65.24699999997392,0,0,0,-0.005113814708343385,-0.0022863813201125715,1.1532786631328131,0,0,0.243,0,95
26,839166.687,65.09400000004098,0,0,0,-0.005777039824101231,-0.002129301687433082,1.1528946906973743,0,0,0.243,0,95
27,839231.903,65.2160000000149,0,0,0,-0.005567600313861911,-0.002722713633111154,1.1531041302076137,0,0,0.243,0,95
28,839296.966,65.06299999996554,0,0,0,-0.005480333851262195,-0.002408554367752175,1.1524932649694157,0,0,0.243,0,95
29,839362.365,65.39899999997579,0,0,0,-0.005916666164260778,-0.0029845130209103033,1.152720157772175,0,0,0.243,0,95
30,839427.368,65.00300000002608,0,0,0,-0.005899212871740834,-0.003159045946109736,1.153680088860772,0,0,0.243,0,95
31,839492.736,65.36800000001676,0,0,0,-0.006161012259539982,-0.0032463124087094525,1.1546749265344085,0,0,0.243,0,95
32,839557.678,64.9419999999227,0,0,0,-0.006370451769779303,-0.00312413936106985,1.155198525310007,0,0,0.243,0,95
33,839622.863,65.18500000005588,0,0,0,-0.006335545184739415,-0.003490658503988659,1.1574674533375995,0,0,0.243,0,95
34,839687.988,65.125,0,0,0,-0.005323254218582705,-0.0029146998508305304,1.1603646998959098,0,0,0.242,0,95
35,839753.234,65.24600000004284,0,0,0,-0.0025481807079117207,-0.001064650843716541,1.1644662236380967,0,0,0.242,0,95
36,839818.298,65.06399999989662,0,0,0,0.007976154681614086,-0.008552113334772213,1.169964010781879,0,0,0.243,0,95
37,839883.666,65.36800000001676,0,0,0,0.023404865269243957,-0.009180431865490174,1.1762821026740984,0,0,0.242,0,95
38,839948.699,65.03300000005402,0,0,0,0.028955012290585926,-0.006597344572538566,1.1851309219817097,0,0,0.242,0,95
39,840013.916,65.21699999994598,0,0,0,0.023387411976724018,-0.002897246558310587,1.192356585084966,0,0,0.242,0,95
40,840079.071,65.15500000002794,0,0,0,0.008429940287132611,-0.004031710572106902,1.1990062895350644,0,0,0.242,0,95
41,840144.317,65.24600000004284,0,0,0,0.002775073510670984,0.001954768762233649,1.2021653354811743,0,0,0.241,0,95
42,840209.442,65.125,0,0,0,0.0008552113334772215,0.005899212871740834,1.202636574379213,0,0,0.243,0,95
43,840274.505,65.06299999996554,0,0,0,0.0064228116473391324,0.0068591439603377154,1.1993204488004234,0,0,0.242,0,95
44,840339.721,65.2160000000149,0.0021960983276367186,0.0036454970836639405,0,0.005550147021341968,0.0031415926535897933,0.6814987130262258,0,0,0.242,0,95
45,840405.029,65.30799999996088,0.015549108505249024,0.014704994201660156,0,0.0008552113334772215,0.00019198621771937622,0.6787934526856347,0,0,0.242,0,95
46,840470.031,65.00199999997858,0.00003116804361343384,-0.04424827194213867,0,-0.00022689280275926284,0.0009075712110370514,0.6759485660048838,0,0,0.243,0,95
47,840535.278,65.24700000009034,-0.007516402244567871,0.09603388214111327,0,-0.0007504915783575615,0.004258603374866164,0.6750235415013269,0,0,0.272,0,95
48,840600.372,65.09399999992456,0.0016532092094421386,0.04871525192260742,0,-0.008831366015091307,0.006475171524898962,0.6744650361406886,0,0,0.296,0,95
49,840665.527,65.15500000002794,-0.0049181699752807615,0.016527225494384765,0,-0.01577777643802874,0.003001966313430246,0.675267887596606,0,0,0.367,0,95
50,840730.773,65.24600000004284,0.014374155044555664,-0.0029336023330688477,0,-0.014800392056911913,0.0013962634015954637,0.6756518600320449,0,0,0.453,0,95
51,840795.928,65.15499999991152,0.01691786003112793,-0.01624246597290039,0,-0.013421581947836393,0.001553343034274953,0.6759136594198439,0,0,0.5,0,95
52,840861.175,65.24700000009034,-0.0008256986141204835,-0.02134421730041504,0,-0.01267109036947883,0.003089232776029963,0.6758787528348041,0,0,0.581,0,95
53,840926.605,65.42999999993481,-0.018829282760620118,-0.028484184265136717,0,-0.010192722831646883,0.003106686068549906,0.6750409947938468,0,0,0.655,0,95
54,840991.485,64.88000000000466,-0.026632436752319334,-0.033539783477783205,0,-0.005532693728822024,0.0010122909661567112,0.6755122336918853,0,0,0.691,0,95
55,841056.762,65.27700000000186,-0.03848088455200195,-0.035784961700439454,0,-0.001553343034274953,-0.003438298626428829,0.6744650361406886,0,0,0.757,0,95
56,841121.826,65.06400000001304,-0.07791635131835938,-0.04969507598876953,0,0.0018151424220741027,-0.009704030641088473,0.6731036793241332,0,0,0.782,0,95
57,841187.011,65.18500000005588,-0.09828326416015624,-0.05499127960205078,0,0.008377580409572781,-0.01661553447898602,0.672231014698136,0,0,0.813,0,95
58,841252.38,65.36899999994785,-0.1544481964111328,-0.06562914276123047,0,0.0166504410640259,-0.0239459173373622,0.6707998447115006,0,0,0.822,0,95
59,841317.413,65.0329999999376,-0.14923463439941406,-0.07979640197753907,0,0.021851522234969004,-0.030997047515419294,0.668845075949267,0,0,0.819,0,95
60,841382.537,65.12400000006892,-0.17597824096679687,-0.07861592864990234,0,0.025935592684635737,-0.037123153189919385,0.6684261969287884,0,0,0.807,0,95
61,841447.967,65.42999999993481,-0.17276473999023437,-0.08043545532226562,0,0.029199358385865133,-0.04232423436086249,0.6683912903437483,0,0,0.79,0,95
62,841512.939,64.97200000006706,-0.14370896911621095,-0.06766381072998047,0,0.03248057737961447,-0.04504694799397364,0.6681469442484691,0,0,0.786,0,95
63,841578.033,65.09400000004098,-0.11265345001220703,-0.0477149658203125,0,0.032253684576855214,-0.04384267081009756,0.6683738370512285,0,0,0.768,0,95
64,841643.28,65.24699999997392,-0.07943601989746094,-0.02548967170715332,0,0.02853613327010729,-0.040334559013588955,0.6700318998406231,0,0,0.758,0,95
65,841708.435,65.15500000002794,-0.047253524780273434,-0.012944072723388671,0,0.022863813201125717,-0.032742376767413615,0.6697875537453438,0,0,0.758,0,95
66,841773.742,65.30699999991339,-0.016726152420043945,0.0008647098541259766,0,0.01802925117310142,-0.026878070480712675,0.6704507788611018,0,0,0.707,0,95
67,841838.775,65.03300000005402,-0.0025451626777648925,0.024099010467529297,0,0.013055062804917585,-0.02054252529597326,0.6709220177591403,0,0,0.712,0,95
68,841903.93,65.15500000002794,0.033040264129638675,0.041271400451660153,0,0.007190756518216637,-0.01361356816555577,0.6718470422626972,0,0,0.7,0,95
69,841969.268,65.33799999998882,0.03871677398681641,0.02889211845397949,0,0.002565634000431664,-0.006876597252857658,0.6726848003036545,0,0,0.7,0,95
70,842034.24,64.97199999995064,0.04839413070678711,0.03127425575256348,0,-0.0013264502315156904,-0.0031415926535897933,0.6728767865213737,0,0,0.701,0,95
71,842099.426,65.18599999998696,0.046078292846679685,0.02899792671203613,0,-0.0032463124087094525,-0.0004188790204786391,0.6730862260316132,0,0,0.691,0,95
72,842164.581,65.15500000002794,0.03572256088256836,0.028995519638061525,0,-0.004782202150464463,0.00034906585039886593,0.6739937972426502,0,0,0.696,0,95
73,842229.705,65.1239999999525,0.03262187194824219,0.008386548995971679,0,-0.0015882496193148398,0.002408554367752175,0.6752155277190462,0,0,0.712,0,95
74,842295.104,65.3990000000922,0.02631329345703125,0.0027332630157470704,0,-0.000645771823237902,0.002251474735072685,0.6754947803993654,0,0,0.708,0,95
75,842360.168,65.06399999989662,0.02389918327331543,0.01586808967590332,0,-0.00019198621771937622,-0.00020943951023931956,0.6772401096513596,0,0,0.716,0,95
76,842425.17,65.002000000095,0.02782465934753418,0.006597495555877685,0,-0.0014660765716752368,-0.004241150082346221,0.6779382413521574,0,0,0.723,0,95
77,842490.661,65.49099999992177,0.0257923641204834,-0.00893390655517578,0,-0.0015707963267948967,-0.005009094953223725,0.6777986150119979,0,0,0.733,0,95
78,842555.633,64.97200000006706,0.01339006233215332,-0.011100034713745117,0,0.0015882496193148398,-0.003926990816987242,0.6782873072025563,0,0,0.745,0,95
79,842620.758,65.125,0.01670872688293457,-0.017208362579345705,0,0.003159045946109736,-0.004677482395344803,0.6784967467127956,0,0,0.741,0,95
80,842685.882,65.1239999999525,0.007977069854736328,-0.02923394203186035,0,0.007819075048934596,-0.0037699111843077517,0.678357120372636,0,0,0.736,0,95
81,842751.098,65.2160000000149,0.018117156982421875,-0.02713505744934082,0,0.010681415022205296,-0.00434586983746588,0.6788109059781545,0,0,0.733,0,95
82,842816.375,65.27700000000186,0.012137090682983399,-0.01889932632446289,0,0.011379546723003028,-0.003333578871309169,0.6799628232844709,0,0,0.731,0,95
83,842881.439,65.06400000001304,0.010309154510498048,-0.014766098976135254,0,0.007278022980816354,-0.005096361415823441,0.6800849963321104,0,0,0.732,0,95
84,842946.563,65.1239999999525,0.014299514770507813,-0.012241484642028809,0,0.00460766922526503,-0.002478367537831948,0.6800849963321104,0,0,0.728,0,95
85,843011.962,65.3990000000922,0.006451674461364746,-0.014122496604919434,0,0.001256637061435917,-0.001954768762233649,0.6796486640191118,0,0,0.728,0,95
86,843076.904,64.9419999999227,0.001354377031326294,-0.019447183609008788,0,-0.0011519173063162574,-0.0010471975511965976,0.6787410928080748,0,0,0.722,0,95
87,843142.12,65.2160000000149,0.009449934005737305,-0.02517213249206543,0,-0.002722713633111154,-0.002373647782712288,0.6786014664679153,0,0,0.718,0,95
88,843207.214,65.09400000004098,0.012451998710632324,-0.0290227108001709,0,-0.0026529004630313807,-0.0023212879051524586,0.6801548095021902,0,0,0.737,0,95
89,843272.583,65.36899999994785,0.006805404663085938,-0.036787189483642575,0,0.0007853981633974483,-0.0014486232791552935,0.681463806441186,0,0,0.711,0,95
90,843338.134,65.55099999997765,0.02034598922729492,-0.04324370956420898,0,0.009040805525330627,0.0005061454830783556,0.6819175920467044,0,0,0.716,0,95
91,843402.832,64.69800000009127,0.02080582618713379,-0.049971813201904296,0,0.0119729586686811,0.0005061454830783556,0.6823190177746632,0,0,0.722,0,95
92,843468.261,65.42900000000373,0.001075487732887268,-0.03851424789428711,0,0.01619665545850738,0.0004014257279586958,0.6838200009313783,0,0,0.712,0,95
93,843533.325,65.06399999989662,0.002974576711654663,-0.031825363159179686,0,0.020525072003453312,0,0.6834709350809794,0,0,0.708,0,95
94,843598.327,65.002000000095,0.039829231262207034,-0.022150352478027345,0,0.019093902016817967,0.005899212871740834,0.6533116456065174,0,0,0.708,0,95
95,843663.543,65.21599999989849,0.024153942108154296,-0.004604557037353516,0,0.006754424205218055,0.012601277199399059,0.6219655322406993,0,0,0.717,0,95
96,843728.668,65.125,0.004578874588012695,-0.010792524337768554,0,-0.004572762640225143,0.01595230936322817,0.600497982441169,0,0,0.711,0,95
97,843793.853,65.18500000005588,0.010749628067016601,-0.020285911560058593,0,-0.013805554383275147,0.01677261411166551,0.5810201079889122,0,0,0.715,0,95
98,843859.161,65.30799999996088,-0.01775265121459961,-0.035507667541503904,0,-0.019250981649497453,0.014940018397071462,0.559570011481902,0,0,0.716,0,95
99,843924.255,65.09400000004098,-0.0352536506652832,-0.0637392578125,0,-0.020594885173533087,0.0124965574442794,0.542605411152517,0,0,0.721,0,95
100,843989.471,65.2160000000149,-0.04341560363769531,-0.09345676422119141,0,-0.017296212887263806,0.013421581947836393,0.5260247832585709,0,0,0.729,0,95
101,844054.656,65.18499999993946,-0.04558934783935547,-0.12016941833496093,0,-0.008988445647770796,0.01223475805648025,0.5088507434189468,0,0,0.733,0,95
102,844119.75,65.09400000004098,-0.07032720184326172,-0.12947364807128905,0,0.00445058959258554,0.01001818990644745,0.49305551368839806,0,0,0.739,0,95
103,844184.906,65.15599999995902,-0.07522469329833985,-0.1465618438720703,0,0.01972222054753592,0.014940018397071462,0.4791801461350431,0,0,0.714,0,95
104,844250.061,65.15500000002794,-0.06674938201904297,-0.13874763488769531,0,0.031014500807939237,0.015638150097869192,0.4640830481052922,0,0,0.713,0,95
105,844315.216,65.15500000002794,-0.08225248718261718,-0.11867774200439453,0,0.04159119607502487,0.009913470151327791,0.4493175626334202,0,0,0.693,0,95
106,844380.493,65.27700000000186,-0.07340011596679688,-0.08872718811035156,0,0.049864056729478,0.00809832772925369,0.4358610741005439,0,0,0.691,0,95
107,844445.587,65.09400000004098,-0.06216903305053711,-0.053835933685302734,0,0.05270894341022875,0.013281955607676848,0.4231376238535053,0,0,0.687,0,95
108,844510.711,65.1239999999525,-0.0493471565246582,-0.008270055770874023,0,0.054262286444503705,0.020490165418413427,0.4113566514025435,0,0,0.702,0,95
109,844576.049,65.33799999998882,-0.06373362731933593,0.03620858001708984,0,0.05230751768227005,0.025028021473598682,0.40043089028505907,0,0,0.703,0,95
110,844641.113,65.06400000001304,-0.05779941558837891,0.06941782379150391,0,0.055134951070500864,0.026511551337793864,0.3894353159974947,0,0,0.698,0,95
111,844706.481,65.36800000001676,-0.06133120346069336,0.09804784393310546,0,0.05471607205002222,0.029548424236264,0.3769387585532154,0,0,0.693,0,95
112,844771.331,64.84999999997672,-0.09798698425292969,0.1518731689453125,0,0.05276130328778859,0.03384193419617005,0.36486108012941465,0,0,0.699,0,95
113,844836.547,65.2160000000149,-0.1082923812866211,0.1973148651123047,0,0.04715879638888678,0.034191000046568915,0.3547032638828076,0,0,0.7,0,95
114,844901.824,65.27700000000186,-0.11311994934082031,0.22952621459960937,0,0.03858922976159462,0.025446900494077326,0.34601152420787584,0,0,0.705,0,95
115,844966.796,64.97199999995064,-0.14141787719726562,0.26645693969726564,0,0.026197392072434884,0.006108652381980153,0.3360456941789882,0,0,0.706,0,95
116,845032.012,65.2160000000149,-0.12485642242431641,0.28061474609375,0,0.015498523757709647,-0.013805554383275147,0.32986722862692824,0,0,0.707,0,95
117,845097.351,65.33900000003632,-0.12742528533935546,0.29211578369140623,0,0.0011344640137963143,-0.03656464782928121,0.32470105404102506,0,0,0.719,0,95
118,845162.292,64.94099999999162,-0.092218017578125,0.2864687805175781,0,-0.018203784098300854,-0.050998520743274316,0.3193952531149623,0,0,0.716,0,95
119,845227.539,65.24699999997392,-0.04044390869140625,0.26757345581054687,0,-0.042411500823462206,-0.06089453760208216,0.31490975693733686,0,0,0.724,0,95
120,845292.724,65.18500000005588,-0.030878150939941406,0.20118814086914064,0,-0.06316346562967479,-0.06454227573875031,0.3122219498892656,0,0,0.728,0,95
121,845358.123,65.39899999997579,0.010111615180969239,0.14185780334472656,0,-0.07649778111491146,-0.06339035843243405,0.3101624613719123,0,0,0.734,0,95
122,845423.156,65.0329999999376,0.027874143600463867,0.09264141845703125,0,-0.08735372906231618,-0.06040584541152374,0.30602603104468573,0,0,0.74,0,95
123,845488.159,65.00300000002608,0.04405833053588867,0.03556180572509766,0,-0.08051203839449843,-0.05049237526019595,0.3058514981194863,0,0,0.743,0,95
124,845553.283,65.12400000006892,0.07721382141113281,-0.04166030120849609,0,-0.051399946471233006,-0.03640756819660171,0.3071430417659621,0,0,0.789,0,95
125,845618.835,65.55199999990873,0.17317533874511717,-0.04714328002929687,0,-0.032271137869375154,-0.028571039855147175,0.31075587331759036,0,0,0.782,0,95
126,845683.807,64.97200000006706,0.20725074768066407,-0.0729496841430664,0,-0.02398082392240209,-0.021746802479849343,0.31555552876057474,0,0,0.803,0,95
127,845749.053,65.24599999992643,0.21293963623046874,-0.09431128692626953,0,-0.012391837689159739,-0.004049163864626845,0.3226939254012316,0,0,0.843,0,94
128,845814.086,65.03300000005402,0.21006399536132814,-0.11480230712890625,0,-0.0035081117965086025,0.016632987771505958,0.32979741545684854,0,0,0.837,0,94
129,845879.272,65.18599999998696,0.18374484252929688,-0.10384894561767578,0,0.004223696789826277,0.03735004599267865,0.3369532653900253,0,0,0.884,0,94
130,845944.854,65.58200000005309,0.13588356018066405,-0.0866984634399414,0,0.012479104151759455,0.058259090431570716,0.3442312883708416,0,0,0.943,0,94
131,846009.613,64.75899999996182,0.14926235961914064,-0.04387390899658203,0,0.019826940302655582,0.07209955139988576,0.35170129756937735,0,0,0.977,0,94
132,846074.768,65.15500000002794,0.09754856109619141,-0.0033162441253662108,0,0.02485348854839925,0.07714355293814937,0.35906658701279337,0,0,1.046,0,94
133,846140.106,65.33799999998882,0.05763091278076172,0.0334383430480957,0,0.028902652413026093,0.07630579489719208,0.3632553772175798,0,0,1.117,0,94
134,846205.108,65.00199999997858,0.017712879180908202,0.058410018920898435,0,0.02658136450787364,0.06801548095021902,0.36582101121801147,0,0,1.153,0,94
135,846270.294,65.18599999998696,-0.019773372650146483,0.07108329010009766,0,0.021362830044410593,0.05935864786032714,0.36800267278300436,0,0,1.217,1,94
136,846335.51,65.2160000000149,-0.0245029296875,0.07643680572509766,0,0.014556045961632708,0.048712139423161736,0.3700447080078378,0,0,1.252,1,94
137,846400.634,65.1239999999525,-0.05723292541503906,0.08239093780517578,0,0.026406831582674206,0.02345722514680379,0.37222636957283073,0,0,1.31,1,94
138,846465.942,65.3080000000773,-0.098489013671875,0.1344273681640625,0,0.061243603452481025,-0.00466002910282486,0.3733782868791469,0,0,1.358,1,94
139,846531.005,65.06299999996554,-0.1312822265625,0.16211842346191407,0,0.10025171223455429,-0.008150687606813518,0.3747221904031825,0,0,1.395,1,94
140,846596.16,65.15500000002794,-0.1423587646484375,0.18623306274414062,0,0.1329068225393682,0.008150687606813518,0.37665950587289626,0,0,1.494,0,94
141,846661.804,65.64399999997113,-0.1428262176513672,0.24932675170898438,0,0.15550883635269475,0.023719024534602937,0.3787713542678094,0,0,1.467,0,94
142,846726.501,64.69700000004377,-0.13903945922851563,0.3692008972167969,0,0.1653175867489029,0.027942721324429213,0.3788062608528493,0,0,1.486,0,93
143,846791.748,65.24699999997392,-0.10941289520263672,0.4522799072265625,0,0.1543918256314184,0.01811651763570114,0.3762929867299774,0,0,1.497,0,93
144,846856.811,65.06299999996554,-0.107473876953125,0.5300228271484375,0,0.12561134626603188,-0.0028099800957108703,0.3735004599267865,0,0,1.522,0,93
145,846921.997,65.18599999998696,-0.08388587951660156,0.58216796875,0,0.0908618408588248,-0.022113321622768155,0.3708650127562751,0,0,1.564,0,93
146,846987.274,65.27700000000186,-0.053623130798339844,0.5904598999023437,0,0.05548401692089973,-0.03576179637336381,0.37076029300115537,0,0,1.554,0,93
147,847052.337,65.06300000008196,-0.044060928344726566,0.6040211791992187,0,0.020001473227855015,-0.04611159883769018,0.37156314445707284,0,0,1.565,0,93
148,847117.401,65.06399999989662,-0.009985430717468262,0.5884287109375,0,-0.010943214410004447,-0.05089380098815465,0.37238344920551014,0,0,1.575,0,93
149,847183.135,65.73400000005495,-0.004506227493286133,0.5570609741210938,0,-0.036791540632040466,-0.05276130328778859,0.37264524859330933,0,0,1.581,0,93
150,847247.772,64.63699999998789,-0.010458050727844238,0.5236351928710937,0,-0.05667084081225588,-0.05033529562751646,0.37369244614450586,0,0,1.599,0,93
151,847313.354,65.58200000005309,0.006459931373596192,0.5132332763671875,0,-0.07319910882864218,-0.04468042885105484,0.3732561138315073,0,0,1.343,0,93
152,847378.143,64.78899999998976,0.017203536987304688,0.45947613525390624,0,-0.0845786555516452,-0.03722787294503905,0.3734655533417466,0,0,1.612,0,93
153,847443.328,65.18499999993946,0.03555074691772461,0.35901861572265625,0,-0.09424777960769379,-0.03352777493081107,0.37404151199490476,0,0,1.288,0,93
154,847508.575,65.24699999997392,0.04942319488525391,0.2208812255859375,0,-0.09862855603019956,-0.028379053637427796,0.374268404797664,0,0,1.275,0,93
155,847573.669,65.09400000004098,0.056555747985839844,0.1646114501953125,0,-0.09698794653332489,-0.022165681500327987,0.3743382179677438,0,0,1.292,0,93
156,847638.793,65.1239999999525,0.06733235168457032,0.07851976776123047,0,-0.0904255085458262,-0.016249015336067207,0.3752806957638207,0,0,1.662,0,93
157,847704.162,65.36900000006426,0.04800948715209961,0.021118690490722656,0,-0.07747516549602829,-0.011763519158441782,0.37569957478429933,0,0,1.289,0,93
158,847769.104,64.94200000003912,0.053748748779296876,-0.013768470764160157,0,-0.063407811724954,-0.0077492618788548235,0.3760311873421783,0,0,1.308,0,93
159,847834.503,65.39899999997579,0.062109546661376955,-0.06598143005371093,0,-0.04838052686528282,-0.002897246558310587,0.3763802531925772,0,0,1.358,0,93
160,847899.536,65.0329999999376,0.05327224349975586,-0.09316560363769531,0,-0.03427826650916863,-0.0005759586531581287,0.37646751965517683,0,0,1.354,0,93
161,847964.63,65.09400000004098,0.03990217590332031,-0.10237265014648438,0,-0.01843067690106012,0.0018325957145940458,0.3768340387980957,0,0,1.733,0,93
162,848029.907,65.27700000000186,0.058151779174804685,-0.14200070190429687,0,-0.001658062789394613,0.003892084231947355,0.3771481980634547,0,0,1.734,0,93
163,848095.092,65.18499999993946,0.05116534805297852,-0.15422137451171875,0,0.009494591130849153,0.004590215932745087,0.3783699285398507,0,0,1.735,0,93
164,848160.308,65.2160000000149,0.055416973114013675,-0.15996412658691406,0,0.0200363798128949,0.0057246799465414016,0.3783350219548108,0,0,1.772,0,93
165,848225.616,65.3080000000773,0.054693599700927735,-0.14626138305664063,0,0.02925171826342496,0.0055152404363020815,0.37932985962844756,0,0,1.758,0,93
166,848290.557,64.94099999999162,0.04966286849975586,-0.139993408203125,0,0.03717551306747922,0.0034732052114687163,0.38018507096192483,0,0,1.77,0,93
167,848355.834,65.27700000000186,0.03449418258666992,-0.12162376403808593,0,0.04359832471481835,0.0038048177693476384,0.3801676176694049,0,0,1.77,0,93
168,848420.928,65.09399999992456,0.031086471557617186,-0.09998567199707031,0,0.04838052686528282,0.001239183768915974,0.38137189485328093,0,0,1.775,0,93
169,848486.145,65.2170000000624,0.044149471282958985,-0.08424310302734375,0,0.051888638661791414,0.001710422666954443,0.38172096070367983,0,0,1.787,0,93
170,848551.361,65.2160000000149,0.04772404098510742,-0.05480632781982422,0,0.052185344634630454,0.001361356816555577,0.38158133436352026,0,0,1.788,0,93
171,848616.424,65.06299999996554,0.04266481781005859,-0.026566211700439452,0,0.05071926806295522,-0.0002443460952792061,0.38168605411863993,0,0,1.802,0,93
172,848681.671,65.24699999997392,0.03540816116333008,-0.011234888076782227,0,0.04867723283812185,-0.0028623399732707008,0.3820525732615587,0,0,1.805,0,93
173,848746.948,65.27700000000186,0.03770798492431641,0.012678181648254395,0,0.04701917004872724,-0.003316125578789226,0.3823318259418778,0,0,1.816,0,93
174,848811.92,64.97200000006706,0.04844659423828125,0.03464300537109375,0,0.045326200674292744,-0.0026005405854715507,0.3822271061867581,0,0,1.818,0,93
175,848877.197,65.27700000000186,0.05740462875366211,0.0538507194519043,0,0.039461894387591796,-0.0016929693744344998,0.3830648642277154,0,0,1.832,0,93
176,848942.23,65.0329999999376,0.044105113983154295,0.07546089935302734,0,0.03710569989739944,0.0028623399732707008,0.38273325166983646,0,0,1.828,0,93
177,849007.812,65.58200000005309,0.045721336364746096,0.09119625091552734,0,0.034033920413889425,0.006841690667817772,0.3823841858194376,0,0,1.838,0,93
178,849072.723,64.91099999996368,0.06256385803222657,0.110078369140625,0,0.027925268031909273,0.006789330790257941,0.38213983972415844,0,0,1.867,0,93
179,849137.878,65.15500000002794,0.046270652770996096,0.11149493408203125,0,0.023858650874762487,0.00958185759344887,0.38255871874463715,0,0,1.85,0,93
180,849203.002,65.1239999999525,0.024269809722900392,0.1363064270019531,0,0.017767451785302275,0.012304571226560023,0.38231437264935786,0,0,1.859,0,93
181,849268.28,65.27800000004936,0.027499860763549804,0.13516065979003905,0,0.012810716709638379,0.01504473815219112,0.38322194386039493,0,0,1.857,1,93
182,849333.282,65.00199999997858,-0.0005331754684448243,0.13949900817871094,0,0.004694935687864747,0.014189526818713898,0.3824016391119576,0,0,1.87,1,93
183,849398.529,65.24699999997392,0.0007033263444900513,0.15638044738769533,0,-0.013020156219877697,-0.0070685834705770355,0.3822271061867581,0,0,1.86,1,93
184,849463.531,65.00199999997858,0.04929864501953125,0.17064089965820312,0,-0.028989918875625815,-0.05246459731494954,0.3827856115473963,0,0,1.861,1,93
185,849528.747,65.2160000000149,0.045037586212158205,0.17948953247070312,0,-0.03354522822333102,-0.0965516142203263,0.38419932824151176,0,0,1.46,0,93
186,849594.299,65.55200000002515,0.0675699234008789,0.155398681640625,0,-0.032934362985133,-0.1336747674102457,0.3846356605545103,0,0,1.45,0,93
187,849659.118,64.8190000000177,0.1390960693359375,0.09629183197021485,0,-0.0317649923862968,-0.1554041165975751,0.38339647678559435,0,0,1.462,0,93
188,849724.243,65.125,0.2008417510986328,0.039099235534667966,0,-0.030979594222899347,-0.1500459557939525,0.3818082271662796,0,0,1.455,0,93
189,849789.581,65.33799999998882,0.2994932556152344,-0.03296436309814453,0,-0.030630528372500482,-0.12981758976333824,0.38032469730208435,0,0,1.485,0,93
190,849854.522,64.94099999999162,0.3589505615234375,-0.05892056655883789,0,-0.02722713633111154,-0.10283479952750589,0.37891098060796896,0,0,1.562,0,93
191,849919.769,65.24699999997392,0.41047225952148436,-0.09164817810058594,0,-0.02377138441216277,-0.0749444380806365,0.37690385196817544,0,0,1.651,0,93
192,849984.893,65.12400000006892,0.4677890319824219,-0.12715574645996094,0,-0.018517943363659833,-0.04646066468808906,0.3759788274646185,0,0,1.553,0,93
193,850050.048,65.15499999991152,0.4937557678222656,-0.15214950561523438,0,-0.011205013797803597,-0.01895427567665842,0.3750538029610615,0,0,1.916,0,93
194,850115.356,65.3080000000773,0.4792660217285156,-0.15845748901367188,0,-0.0025481807079117207,0.006318091892219472,0.373657539559466,0,0,1.933,0,93
195,850180.45,65.09399999992456,0.46174285888671873,-0.16085755920410155,0,0.00598647933434055,0.0256388867117967,0.3732561138315073,0,0,1.609,0,93
196,850245.513,65.06300000008196,0.422908203125,-0.1542786865234375,0,0.017715091907742442,0.0459545192050107,0.37255798213070956,0,0,1.951,1,93
197,850310.913,65.39999999990687,0.39156643676757813,-0.13771589660644531,0,0.024574235868080156,0.05976007358828585,0.3715456911645529,0,0,1.981,1,93
198,850375.915,65.002000000095,0.33165283203125,-0.07873605346679688,0,0.011850785621041499,0.06197664173831864,0.3703414139806768,0,0,2.02,1,93
199,850441.07,65.15499999991152,0.384219482421875,-0.0935166015625,0,-0.021799162357409176,0.043563418129778465,0.36936402959956,0,0,2.012,1,93
200,850506.408,65.33800000010524,0.3965196228027344,-0.10438523864746094,0,-0.04953244417159907,0.029304078140984794,0.3685960847286824,0,0,2.027,1,93
201,850571.563,65.15499999991152,0.37432815551757814,-0.1408590545654297,0,-0.06822492046045835,0.022759093446006056,0.3673918075448063,0,0,2.045,1,93
202,850636.81,65.24700000009034,0.3041170959472656,-0.1683874816894531,0,-0.08176867545593433,0.020734511513692634,0.36587337109557133,0,0,2.047,1,93
203,850701.812,65.00199999997858,0.27172271728515623,-0.22019888305664062,0,-0.09306095571633764,0.01960004749989632,0.36470400049673507,0,0,2.055,1,93
204,850767.028,65.2160000000149,0.26205978393554685,-0.25999224853515623,0,-0.10526080718777801,0.017348572764823635,0.36222563295890314,0,0,2.066,1,93
205,850832.336,65.30799999996088,0.24575360107421876,-0.3259918212890625,0,-0.11328932174695192,0.017139133254584316,0.35964254566595155,0,0,2.053,1,93
206,850897.338,65.00199999997858,0.24469206237792968,-0.37837445068359377,0,-0.11252137687607443,0.020472712125893484,0.35739107093087885,0,0,2.077,1,93
207,850962.554,65.2160000000149,0.21261317443847655,-0.4461583251953125,0,-0.11061896799140061,0.024644049038159928,0.3551570494883261,0,0,2.047,1,93
208,851027.618,65.06400000001304,0.18362413024902344,-0.5125185546875,0,-0.10632545803149455,0.03073524812762014,0.35320228072609244,0,0,2.202,1,93
209,851092.834,65.2160000000149,0.13292724609375,-0.5790985107421875,0,-0.0937241808320955,0.03804817769347638,0.35074136648078047,0,0,2.003,1,93
210,851158.111,65.27700000000186,0.08131631469726562,-0.6135528564453125,0,-0.07564256978143423,0.04146902302738527,0.3493276497866651,0,0,1.985,1,93
211,851223.175,65.06400000001304,0.04539550399780273,-0.655535400390625,0,-0.05907939518000805,0.041730822415184415,0.3493974629567448,0,0,2.022,1,93
212,851288.299,65.1239999999525,0.013558357238769532,-0.6905906982421876,0,-0.03429571980168858,0.042743113381341125,0.3475648672421508,0,0,1.95,1,93
213,851353.759,65.45999999996275,-0.04569559097290039,-0.722976806640625,0,-0.004049163864626845,0.042010075095503516,0.346273323595675,0,0,1.908,1,93
214,851418.701,64.94200000003912,-0.09733782958984374,-0.6847865600585937,0,0.027715828521669955,0.0419228086329038,0.34587189786771627,0,0,1.894,0,93
215,851483.917,65.2160000000149,-0.11397476959228516,-0.6291087646484375,0,0.059498274200486694,0.04365068459237818,0.34567991164999695,0,0,1.881,0,93
216,851549.041,65.1239999999525,-0.1776981658935547,-0.6118055419921875,0,0.09529497715889039,0.05047492196767601,0.34644785652087445,0,0,1.873,0,93
217,851614.196,65.15500000002794,-0.22295770263671874,-0.5120743408203124,0,0.12342968470103899,0.05239478414486977,0.34651766969095416,0,0,1.871,0,93
218,851679.595,65.39899999997579,-0.26828866577148436,-0.39278350830078124,0,0.1397659664997059,0.04155628948998498,0.34487706019407954,0,0,1.922,1,93
219,851744.567,64.97200000006706,-0.2813038024902344,-0.26381646728515623,0,0.14571753924900657,0.016632987771505958,0.3423986926562475,0,0,1.906,1,93
220,851809.722,65.15499999991152,-0.25313194274902345,-0.15900587463378907,0,0.15196581797114628,-0.002478367537831948,0.34140385498261083,0,0,1.915,1,92
221,851875.03,65.3080000000773,-0.24827732849121092,-0.07701057434082031,0,0.1593485607070823,-0.004049163864626845,0.3441963817858017,0,0,1.888,1,92
222,851940.032,65.00199999997858,-0.23566168212890626,0.024392951965332033,0,0.1652128669937832,0.0029146998508305304,0.3487865977185468,0,0,1.892,1,92
223,852005.187,65.15500000002794,-0.2299783935546875,0.11934929656982422,0,0.1633802712791892,0.010402162341886203,0.3507762730658203,0,0,1.898,1,92
224,852070.343,65.15599999995902,-0.2289088134765625,0.23999868774414063,0,0.15997687923780024,0.019216075064457567,0.35316737414105254,0,0,1.955,1,92
225,852135.528,65.18500000005588,-0.24194503784179688,0.34113818359375,0,0.1507266342022303,0.02569124658935653,0.3552792225359658,0,0,1.915,0,92
226,852200.714,65.18599999998696,-0.22094497680664063,0.43220297241210937,0,0.13632766787327708,0.027174776453551708,0.35667548593756115,0,0,1.926,1,92
227,852265.869,65.15499999991152,-0.23867300415039064,0.5389918212890625,0,0.11814133706749617,0.018099064343181197,0.3574085242233988,0,0,1.92,1,92
228,852331.054,65.18500000005588,-0.22988282775878907,0.6270465698242188,0,0.09529497715889039,0.006178465552059926,0.35780994995135756,0,0,1.935,1,92
229,852396.392,65.33799999998882,-0.225353759765625,0.680693603515625,0,0.07021459580773187,-0.004101523742186674,0.3588571475025541,0,0,1.952,0,92
230,852461.395,65.00300000002608,-0.20300405883789063,0.7185223999023438,0,0.042411500823462206,-0.01075122819228507,0.36103880906754704,0,0,1.955,0,92
231,852526.55,65.15500000002794,-0.1955648956298828,0.7057105712890624,0,0.007766715171374767,-0.01764527873766267,0.3632553772175798,0,0,1.963,0,92
232,852591.644,65.09399999992456,-0.15964100646972657,0.68943310546875,0,-0.03275983005993356,-0.026371924997634317,0.3651926926872935,0,0,1.972,0,92
233,852656.829,65.18500000005588,-0.13194381713867187,0.6615281982421874,0,-0.07265805676052393,-0.034051373706409364,0.3686309913137223,0,0,1.987,0,92
234,852722.106,65.27700000000186,-0.09220225524902344,0.6332488403320312,0,-0.10405653000390193,-0.0404741853537485,0.3712140786066739,0,0,2.002,0,92
235,852787.17,65.06400000001304,-0.11616912078857422,0.5718363647460938,0,-0.12695524979006753,-0.042568580456141696,0.3731863006614276,0,0,2.029,1,92
236,852852.386,65.2160000000149,-0.14695063781738282,0.5078433227539062,0,-0.14294246573833558,-0.042690753503781306,0.3758741077094988,0,0,2.023,1,92
237,852917.846,65.45999999996275,-0.12997346496582032,0.43884490966796874,0,-0.1525417766243044,-0.05087634769563471,0.3795916590162467,0,0,2.031,1,92
238,852982.91,65.06400000001304,-0.13174464416503906,0.33540338134765624,0,-0.1566956602440509,-0.06606071218798538,0.38381535580607296,0,0,2.025,1,92
239,853048.065,65.15499999991152,-0.098466552734375,0.2563013916015625,0,-0.156364047686172,-0.0848579082319643,0.38849283820141783,0,0,1.627,1,92
240,853113.189,65.12400000006892,-0.02246733856201172,0.12551832580566405,0,-0.15460126514165773,-0.10440559585430079,0.3906919530589307,0,0,1.577,0,92
241,853178.344,65.15500000002794,0.05071025466918945,0.002798029899597168,0,-0.14624113802460487,-0.11721631256393918,0.39367646607984097,0,0,1.574,0,92
242,853243.621,65.27700000000186,0.10930567932128907,-0.11973917388916015,0,-0.13063789451177557,-0.11602948867258302,0.3953345288692356,0,0,1.55,0,92
243,853308.776,65.15499999991152,0.13049169921875,-0.2127403106689453,0,-0.1112647398146385,-0.09998991284675515,0.3933099469369222,0,0,1.577,1,92
244,853373.809,65.03300000005402,0.18983627319335938,-0.2736133728027344,0,-0.09143779951198293,-0.07883652231258387,0.39231510926328544,0,0,1.979,1,92
245,853439.208,65.39899999997579,0.22253102111816406,-0.38184963989257814,0,-0.06562437987498679,-0.05899212871740834,0.39315286730424265,0,0,1.626,1,92
246,853504.15,64.94200000003912,0.273615234375,-0.46807391357421874,0,-0.044244096538056256,-0.05489060497522166,0.3937462792499207,0,0,1.988,1,92
247,853569.458,65.30799999996088,0.3363681945800781,-0.477568603515625,0,-0.022567107228286677,-0.05550147021341968,0.39465385046095774,0,0,1.993,1,92
248,853634.552,65.09400000004098,0.33875967407226565,-0.463691162109375,0,0.004049163864626845,-0.05091125428067459,0.395509061794435,0,0,2.014,1,92
249,853699.676,65.1239999999525,0.39599502563476563,-0.47640966796875,0,0.027820548276789613,-0.0438601241026175,0.39606756715507324,0,0,2.021,1,92
250,853765.014,65.33799999998882,0.42067196655273437,-0.45947637939453123,0,0.049270644783799916,-0.031642819338657195,0.3959803006924735,0,0,1.971,1,92
251,853830.078,65.06400000001304,0.4293855895996094,-0.4178308410644531,0,0.06742206900454095,-0.019198621771937627,0.3955439683794749,0,0,1.976,1,92
252,853895.233,65.15500000002794,0.4570889892578125,-0.3601242980957031,0,0.08176867545593433,-0.001064650843716541,0.3955439683794749,0,0,1.969,0,92
253,853960.54,65.3070000000298,0.4807391052246094,-0.31804421997070315,0,0.09129817317182337,0.021746802479849343,0.39584067435231396,0,0,1.978,0,92
254,854025.543,65.00299999990966,0.47747796630859374,-0.2566842041015625,0,0.09651670763528641,0.04768239516448509,0.3963468198353923,0,0,1.967,0,92
255,854090.789,65.24600000004284,0.45277679443359375,-0.19653700256347656,0,0.10081021759519247,0.07417649320975901,0.39606756715507324,0,0,1.966,0,92
256,854155.853,65.06400000001304,0.41294290161132813,-0.10516191864013671,0,0.09869836920027934,0.09508553764865108,0.39538688874679545,0,0,1.979,0,92
257,854221.343,65.48999999999069,0.3600999755859375,-0.04048287963867187,0,0.09459684545809266,0.11253883016859437,0.393659012787321,0,0,1.955,0,92
258,854286.285,64.94200000003912,0.2617763366699219,0.031247634887695313,0,0.08843583319855268,0.12475613493255468,0.39159952426996775,0,0,1.947,0,92
259,854351.379,65.09399999992456,0.18613177490234376,0.11545748138427735,0,0.08138470302049558,0.12917181794010033,0.38999382135813293,0,0,1.978,1,92
260,854416.595,65.2160000000149,0.09117813873291016,0.17249647521972655,0,0.06850417314077742,0.12712978271526695,0.38849283820141783,0,0,1.984,1,92
261,854481.872,65.27700000000186,0.04838381195068359,0.23245655822753905,0,0.050998520743274316,0.1225919266600817,0.38610173712618556,0,0,1.922,1,92
262,854546.783,64.9110000000801,-0.03265180587768555,0.258254638671875,0,0.02659881780039358,0.11786208438717707,0.38477528689466983,0,0,1.91,1,92
263,854612.091,65.30799999996088,-0.08564608001708984,0.26072235107421876,0,0.00015707963267948963,0.11039207518864136,0.38451348750687075,0,0,1.912,1,92
264,854677.185,65.09400000004098,-0.1437015380859375,0.25559957885742185,0,-0.02694788365079245,0.0999375529691953,0.3839724354387525,0,0,1.893,1,92
265,854742.34,65.15499999991152,-0.20363121032714843,0.25370455932617186,0,-0.05017821599483697,0.08686503687175778,0.3843738611667112,0,0,1.88,1,92
266,854807.617,65.27700000000186,-0.28878643798828124,0.2191564636230469,0,-0.07007496946757233,0.07113962031128887,0.3859097509084662,0,0,1.872,1,91
267,854872.741,65.12400000006892,-0.3244744873046875,0.16940455627441406,0,-0.08927359123950995,0.05033529562751646,0.38826594539865855,0,0,1.867,1,91
268,854937.835,65.09399999992456,-0.36703286743164065,0.08024789428710938,0,-0.10402162341886204,0.03026400922958167,0.3898367417254534,0,0,1.894,1,91
269,855003.204,65.36900000006426,-0.4329923095703125,0.011668346405029296,0,-0.11346385467215137,0.009512044423369096,0.3924023757258851,0,0,1.871,1,91
270,855068.145,64.94099999999162,-0.44061993408203126,-0.05807248306274414,0,-0.1194852405915318,-0.015184364492350668,0.3954567019168752,0,0,1.889,1,91
271,855133.392,65.24699999997392,-0.4201318359375,-0.16303445434570313,0,-0.12028809204744918,-0.03993313328563026,0.397969976039747,0,0,1.902,1,91
272,855198.547,65.15500000002794,-0.4210540466308594,-0.24034794616699218,0,-0.10986847641304305,-0.06014404602372459,0.39905208017598354,0,0,1.905,1,91
273,855263.671,65.1239999999525,-0.4019879150390625,-0.27843838500976564,0,-0.09452703228801289,-0.08183848862601412,0.4013384614960961,0,0,1.902,1,91
274,855328.979,65.3080000000773,-0.32832440185546874,-0.3144124145507812,0,-0.07492698478811656,-0.10133381637079077,0.4026998183126516,0,0,1.913,1,91
275,855394.195,65.21599999989849,-0.2682857666015625,-0.3726051330566406,0,-0.05267403682518886,-0.11709413951629956,0.4030139775780106,0,0,1.913,1,91
276,855459.259,65.06400000001304,-0.18535421752929687,-0.3992166748046875,0,-0.03045599544730105,-0.1282293401440234,0.40325832367328984,0,0,1.924,1,91
277,855524.963,65.70400000002701,-0.06458620452880859,-0.41962188720703125,0,-0.010245082709206713,-0.1346870583764024,0.40322341708824994,0,0,1.952,1,91
278,855589.599,64.63600000005681,0.01279343318939209,-0.43251776123046876,0,0.016004669240788003,-0.13411109972324428,0.40296161770045086,0,0,1.96,1,91
279,855654.846,65.24699999997392,0.05200147247314453,-0.433423583984375,0,0.04209734155810323,-0.126815623449908,0.40322341708824994,0,0,1.871,1,91
280,855719.97,65.1239999999525,0.11556197357177735,-0.4397813720703125,0,0.06705554986162214,-0.11112511347447897,0.4037470158638482,0,0,2.375,1,91
281,855785.125,65.15500000002794,0.17710955810546875,-0.411436767578125,0,0.08997172294030768,-0.09210102462774078,0.40379937574140806,0,0,2.002,0,91
282,855850.372,65.24699999997392,0.2322339324951172,-0.3319803161621094,0,0.10835003996380799,-0.07120943348136864,0.4048640265851246,0,0,1.978,1,91
283,855915.466,65.09400000004098,0.28944729614257814,-0.25216778564453124,0,0.12250466019748199,-0.049288098076319856,0.4060333971839608,0,0,1.987,1,91
284,855980.621,65.15500000002794,0.3075372314453125,-0.19101678466796876,0,0.1301317490286972,-0.02631956512007449,0.40664426242215884,0,0,1.991,1,91
285,856046.051,65.42999999993481,0.3801955871582031,-0.1230377197265625,0,0.1352979236146004,-0.0020769418098732523,0.4083372317965933,0,0,1.992,0,91
286,856111.236,65.18500000005588,0.3713843994140625,-0.042204795837402345,0,0.1373748654244737,0.025202554398798118,0.4090004569123512,0,0,2.005,1,91
287,856176.269,65.0329999999376,0.3827572021484375,0.03877208709716797,0,0.1337620338728454,0.04914847173616031,0.40917498983755063,0,0,1.998,1,91
288,856241.333,65.06400000001304,0.3512368469238281,0.14084690856933593,0,0.12292353921796063,0.06787585461005946,0.4089306437422714,0,0,2.02,0,91
289,856306.549,65.2160000000149,0.3066880187988281,0.19827935791015625,0,0.10890854532444616,0.08389797714336743,0.4083023252115534,0,0,1.989,0,91
290,856371.795,65.24600000004284,0.26934808349609374,0.2908960876464844,0,0.09484119155337187,0.0968308669006454,0.40748202046311616,0,0,1.974,0,91
291,856436.828,65.0329999999376,0.2120411376953125,0.34175030517578125,0,0.07405432016211941,0.10222393428930789,0.4050909193878839,0,0,1.967,0,91
292,856501.983,65.15500000002794,0.1843096466064453,0.43179693603515623,0,0.0505098285527159,0.1010196571054318,0.4041658948843269,0,0,1.958,0,91
293,856567.352,65.36899999994785,0.12597383880615234,0.4669513244628906,0,0.02494075501099897,0.09634217471008698,0.4040611751292072,0,0,1.945,0,91
294,856632.232,64.88000000000466,0.06731783294677735,0.48489175415039065,0,-0.000296705972839036,0.08974483013754843,0.4036073895236887,0,0,1.994,0,91
295,856697.57,65.33799999998882,0.009812713623046875,0.5027762451171875,0,-0.026197392072434884,0.08007570608149985,0.4040786284217272,0,0,1.953,0,91
296,856762.634,65.06400000001304,-0.03748934173583984,0.48948843383789065,0,-0.0501084028247572,0.06939429105929454,0.4048465732926047,0,0,1.945,1,91
297,856827.819,65.18500000005588,-0.06430203247070312,0.44285467529296874,0,-0.06853907972581733,0.05991715322096532,0.40514327926544375,0,0,1.919,1,90
298,856893.066,65.24699999997392,-0.09793450927734375,0.37479275512695315,0,-0.08950048404226922,0.05002113636215748,0.4056494247485221,0,0,1.914,1,90
299,856958.16,65.09400000004098,-0.16581578063964844,0.31376052856445313,0,-0.1098161165354832,0.0409977841293468,0.40685370193239817,0,0,1.918,1,90
300,857023.254,65.09399999992456,-0.17438963317871095,0.20605288696289062,0,-0.12735667551802624,0.03089232776029963,0.40931461617771014,0,0,1.912,1,90
301,857088.623,65.36900000006426,-0.18809811401367188,0.08305038452148437,0,-0.1426283064729766,0.015201817784870609,0.41224676932106064,0,0,1.954,1,90
302,857153.594,64.97100000001956,-0.1934161376953125,-0.028237043380737306,0,-0.14761994813368037,0.0019198621771937623,0.41399209857305497,0,0,2.004,1,90
303,857218.811,65.21699999994598,-0.23792724609375,-0.12277716064453124,0,-0.14603169851436557,-0.012112585008840646,0.41540581526717035,0,0,1.987,1,90
304,857283.996,65.18500000005588,-0.23896585083007812,-0.2222457733154297,0,-0.13903292821386828,-0.027488935718910687,0.41739549061444386,0,0,2.071,1,90
305,857349.151,65.15499999991152,-0.23170771789550781,-0.3280828552246094,0,-0.12447688225223558,-0.0369660735572399,0.4170987846416048,0,0,2.02,1,90
306,857414.367,65.2160000000149,-0.19342437744140625,-0.38180477905273436,0,-0.10698868314725239,-0.044715335436094725,0.41620866672308776,0,0,1.985,1,90
307,857479.522,65.15500000002794,-0.16645724487304686,-0.4633075256347656,0,-0.08902924514423075,-0.05684537373745531,0.4159294140427687,0,0,2.035,1,90
308,857544.616,65.09400000004098,-0.11720114898681641,-0.5121581420898438,0,-0.06621779182066485,-0.06478662183402951,0.4150392961242516,0,0,0,1,90
309,857609.924,65.30799999996088,-0.10729813385009766,-0.540109619140625,0,-0.0372104196525191,-0.06632251157578452,0.41376520577029574,0,0,0,1,90
310,857674.987,65.06299999996554,-0.07441087341308594,-0.5569015502929687,0,-0.0076270888312152205,-0.06658431096358368,0.413049620776978,0,0,0,1,90
311,857740.234,65.24700000009034,-0.039775218963623044,-0.5348782348632812,0,0.025726153174396416,-0.06323327879975456,0.4106934262867857,0,0,2.047,0,90
312,857805.48,65.24599999992643,-0.0046786656379699705,-0.5065129699707032,0,0.05405284693426439,-0.05967280712568612,0.40812779228635404,0,0,2.059,0,90
313,857870.544,65.06400000001304,0.04102445220947266,-0.46146856689453125,0,0.07934266779566222,-0.05295328950550795,0.4066966222997187,0,0,2.08,0,90
314,857935.852,65.30799999996088,0.09987083435058594,-0.3923468933105469,0,0.09717993275104427,-0.047123889803846894,0.4047767601225249,0,0,2.089,0,90
315,858000.946,65.09400000004098,0.14800335693359376,-0.3099859313964844,0,0.10978120995044333,-0.036791540632040466,0.4039040954965277,0,0,2.102,0,90
316,858066.07,65.1239999999525,0.17345675659179688,-0.25125228881835937,0,0.1199739327820902,-0.022322761133007473,0.40308379074809036,0,0,2.109,0,90
317,858131.439,65.36900000006426,0.16773214721679688,-0.17953848266601563,0,0.12365657750379824,-0.006230825429619756,0.4018271536866545,0,0,2.127,0,90
318,858196.441,65.00199999997858,0.18913700866699218,-0.11818696594238282,0,0.11201523139299607,0.006928957130417489,0.4050036529252841,0,0,2.124,0,90
319,858261.627,65.18599999998696,0.18830827331542968,-0.06298664093017578,0,0.09916960809831782,0.022532200643246795,0.4099080281233882,0,0,2.133,0,90
320,858326.782,65.15500000002794,0.18472645568847657,-0.024656326293945312,0,0.08644615785127914,0.03775147172063734,0.4155628948998498,0,0,2.133,0,90
321,858391.906,65.1239999999525,0.1427901153564453,0.037863014221191406,0,0.06805038753525891,0.04855505979048225,0.4202927371727545,0,0,2.133,0,90
322,858457.305,65.3990000000922,0.15134078979492188,0.07868818664550781,0,0.05024802916491675,0.05328490206338688,0.4236263160440636,0,0,2.116,0,90
323,858522.338,65.0329999999376,0.11576451110839844,0.10944586181640625,0,0.034557519189487726,0.055728363016178936,0.42659337577245404,0,0,2.106,0,90
324,858587.463,65.125,0.09852943420410157,0.14376730346679686,0,0.02405063709248186,0.05808455750637129,0.43041564683432165,0,0,2.097,0,90
325,858652.832,65.36900000006426,0.06848714447021484,0.15340885925292969,0,0.010245082709206713,0.05485569839018177,0.4340459316784698,0,0,2.085,0,90
326,858717.773,64.94099999999162,0.053566688537597655,0.16238029479980468,0,-0.00019198621771937622,0.052778756580308527,0.43715261774701974,0,0,2.081,0,90
327,858783.02,65.24699999997392,0.004977408409118652,0.16222177124023437,0,-0.011746065865921838,0.05066690818539538,0.4400498643053303,0,0,2.074,0,90
328,858848.205,65.18499999993946,-0.03869242477416992,0.16564231872558594,0,-0.02469640891571976,0.04658283773572866,0.44334853659159956,0,0,2.072,0,90
329,858913.33,65.125,-0.06595726013183593,0.14441766357421876,0,-0.03495894491744642,0.0415213829049451,0.4466646621703888,0,0,2.072,0,90
330,858978.546,65.2160000000149,-0.09959342956542969,0.14226123046875,0,-0.045413467136892455,0.03248057737961447,0.4497713482389387,0,0,2.074,1,90
331,859043.67,65.12400000006892,-0.11067141723632813,0.0968368911743164,0,-0.05119050696099368,0.024277529895241123,0.4526162349196895,0,0,2.11,1,90
332,859108.764,65.09399999992456,-0.10452862548828125,0.06941485595703124,0,-0.0582939970166106,0.017592918860102842,0.4546931767295627,0,0,2.095,1,90
333,859174.133,65.36900000006426,-0.11532292938232422,0.039067684173583986,0,-0.06871361265101675,0.015533430342749534,0.45703191792723513,0,0,2.083,1,90
334,859239.105,64.97199999995064,-0.13750721740722657,-0.005038051605224609,0,-0.07693411342791005,0.01546361717266976,0.4587597938867095,0,0,2.106,1,90
335,859304.382,65.27700000000186,-0.15438926696777344,-0.03741061401367188,0,-0.07883652231258387,0.0158824961931484,0.4608367356965828,0,0,2.062,1,90
336,859369.415,65.03300000005402,-0.16905442810058594,-0.08404763031005859,0,-0.0764803278223915,0.015132004614790836,0.462599518241097,0,0,2.062,1,90
337,859434.692,65.27700000000186,-0.1917222137451172,-0.14237738037109374,0,-0.071715578964447,0.011641346110802179,0.46492080614624953,0,0,2.047,1,90
338,859499.908,65.2160000000149,-0.20723731994628905,-0.17018356323242187,0,-0.06544984694978735,0.0074176493209759005,0.4667883084458835,0,0,2.031,1,90
339,859564.941,65.0329999999376,-0.2078161926269531,-0.22953341674804686,0,-0.055955255818938204,0.003089232776029963,0.4683940113577182,0,0,2.049,1,90
340,859630.187,65.24600000004284,-0.2173414306640625,-0.25481260681152346,0,-0.047490408946765705,-0.002007128639793479,0.46959828854159424,0,0,2.051,1,90
341,859695.434,65.24699999997392,-0.21033462524414062,-0.28337646484375,0,-0.0366868208769208,-0.0062482787221397,0.47047095316759147,0,0,2.049,0,90
342,859760.406,64.97199999995064,-0.2019955139160156,-0.2895464782714844,0,-0.02516764781375823,-0.009983283321407565,0.4709421920656299,0,0,2.069,0,90
343,859825.653,65.24700000009034,-0.18411541748046875,-0.2941151123046875,0,-0.008866272600131194,-0.012775810124598492,0.47101200523570963,0,0,2.076,0,90
344,859890.747,65.09399999992456,-0.2006378173828125,-0.2726412658691406,0,0.00958185759344887,-0.01761037215262278,0.471221444745949,0,0,2.076,0,90
345,859955.963,65.2160000000149,-0.18514035034179688,-0.2631292724609375,0,0.026284658535034602,-0.02546435378659727,0.4705582196301911,0,0,2.083,0,90
346,860021.331,65.36800000001676,-0.14210116577148438,-0.2343568115234375,0,0.04141666314982544,-0.031258846903218444,0.4701742471947524,0,0,2.097,0,90
347,860086.425,65.09400000004098,-0.12202018737792969,-0.2217990264892578,0,0.04820599394008338,-0.03581415625092364,0.46879543708567695,0,0,2.111,0,90
348,860151.458,65.0329999999376,-0.10166170501708985,-0.19318482971191406,0,0.05342452840354643,-0.03858922976159462,0.46998226097703305,0,0,2.127,0,90
349,860216.827,65.36900000006426,-0.061400482177734375,-0.16354090881347655,0,0.049113565151120434,-0.04056145181634822,0.4743630373995388,0,0,2.128,0,90
350,860281.829,65.00199999997858,-0.03206584167480469,-0.13680035400390625,0,0.04406956361285682,-0.04480260189869444,0.4791626928425232,0,0,2.139,0,90
351,860347.045,65.2160000000149,0.010026453018188476,-0.10865841674804687,0,0.04319689898685966,-0.05017821599483697,0.48387508182290795,0,0,2.134,0,90
352,860412.139,65.09399999992456,0.021116493225097656,-0.09112120819091797,0,0.04427900312309614,-0.054087753519304275,0.48776716605485526,0,0,2.15,0,90
353,860477.386,65.24700000009034,0.06028631591796875,-0.07705046844482422,0,0.04277801996638102,-0.053337261940946706,0.4918861430895619,0,0,2.142,0,90
354,860542.572,65.18599999998696,0.08100099182128906,-0.06580673217773438,0,0.040962877544306914,-0.05042256209011617,0.49501028245063167,0,0,2.131,0,90
355,860607.666,65.09399999992456,0.11780262756347656,-0.04520615386962891,0,0.040421825476188666,-0.046321038347929507,0.4979075290089423,0,0,2.122,0,90
356,860672.912,65.24600000004284,0.14337582397460938,-0.030360029220581054,0,0.040893064374227135,-0.038414696836395194,0.49968776484597655,0,0,2.109,0,90
357,860738.22,65.30799999996088,0.18951455688476562,-0.0035616586208343506,0,0.03799581781591655,-0.03077015471266003,0.5015901737306504,0,0,2.155,0,90
358,860803.253,65.03300000005402,0.20842840576171875,0.022599014282226562,0,0.03645992807416154,-0.02314306588144481,0.503230783227525,0,0,2.106,0,90
359,860868.438,65.18499999993946,0.22495445251464843,0.04094598388671875,0,0.03656464782928121,-0.014049900478554355,0.5039463682208426,0,0,2.108,0,90
360,860933.532,65.09400000004098,0.23088337707519532,0.0616771240234375,0,0.03335324200561164,-0.003909537524467298,0.5050633789421191,0,0,2.097,0,90
361,860998.687,65.15500000002794,0.23332865905761718,0.0810002670288086,0,0.028518679977587343,0.004223696789826277,0.5064072824661547,0,0,2.092,0,90
362,861063.964,65.27700000000186,0.23986300659179688,0.09509351348876953,0,0.025499260371637158,0.011676252695842066,0.5071054141669524,0,0,2.098,0,90
363,861128.967,65.00299999990966,0.2294908905029297,0.10795720672607421,0,0.023684117949563047,0.01827359726838063,0.5085191308610678,0,0,2.095,0,90
364,861194.122,65.15500000002794,0.1858773193359375,0.13379542541503905,0,0.022287854547967587,0.025708699881876473,0.5090427296366661,0,0,2.104,0,90
365,861259.49,65.36800000001676,0.2030953369140625,0.14065660095214844,0,0.022514747350726852,0.03267256359733385,0.5086762104937473,0,0,2.102,0,90
366,861324.493,65.00300000002608,0.17672917175292968,0.15747566223144532,0,0.018517943363659833,0.03621558197888234,0.5083795045209083,0,0,2.103,0,90
367,861389.709,65.2160000000149,0.20738050842285155,0.15400250244140626,0,0.00947713783832921,0.039409534510031964,0.5074195734323115,0,0,2.105,0,90
368,861454.803,65.09399999992456,0.20740863037109375,0.1606278839111328,0,0.000296705972839036,0.04422664324553631,0.5045397801665208,0,0,2.091,0,90
369,861519.958,65.15500000002794,0.164426025390625,0.16190455627441405,0,-0.005881759579220891,0.04586725274241098,0.5026373712818469,0,0,2.058,0,90
370,861585.571,65.61300000001211,0.1590174560546875,0.1846228332519531,0,-0.009337511498169663,0.048485246620402475,0.5006127893495336,0,0,2.008,0,90
371,861650.36,64.78899999998976,0.12464099884033203,0.18246766662597655,0,-0.014119713648634126,0.04996877648459765,0.5009793084924523,0,0,1.98,0,90
372,861715.484,65.12400000006892,0.07736335754394531,0.18018951416015624,0,-0.01610938899590766,0.05064945489287544,0.49996701752629563,0,0,1.922,0,90
373,861780.853,65.36899999994785,0.0442410774230957,0.1985779571533203,0,-0.01785471824790199,0.046478117980608996,0.5000717372814153,0,0,1.862,1,90
374,861845.825,64.97199999995064,0.009566177368164062,0.19185501098632812,0,-0.023736477827122886,0.041661009245104644,0.5008396821522928,0,0,1.839,1,90
375,861911.01,65.18500000005588,-0.0019397964477539061,0.2109663848876953,0,-0.03104940739297912,0.041189770347066175,0.5017123467782899,0,0,1.763,1,90
376,861976.135,65.125,-0.045571659088134764,0.21284854125976563,0,-0.05007349623971732,0.04167846253762459,0.5033878628602045,0,0,1.728,1,90
377,862041.29,65.15500000002794,-0.05402751922607422,0.19072662353515624,0,-0.07230899091012506,0.040299652428549076,0.5048190328468398,0,0,1.653,1,90
378,862106.475,65.18499999993946,-0.09283572387695313,0.16249580383300782,0,-0.0959407489821283,0.0324107642095347,0.5065818153913542,0,0,1.6,1,90
379,862171.6,65.125,-0.11653138732910157,0.1279735565185547,0,-0.11295770918907301,0.022235494670407755,0.5105611660859013,0,0,1.559,1,90
380,862236.755,65.15500000002794,-0.16403469848632812,0.06366635513305664,0,-0.12660618393966866,0.010978120995044333,0.5134758659367318,0,0,1.49,1,90
381,862302.062,65.3070000000298,-0.198086669921875,-0.007368698120117188,0,-0.13477432483900212,-0.0006632251157578452,0.5166872717604013,0,0,1.431,1,90
382,862367.126,65.06400000001304,-0.22301284790039064,-0.07559806060791016,0,-0.13379694045788532,-0.013753194505715317,0.519270359053353,0,0,1.412,1,90
383,862432.25,65.1239999999525,-0.26179037475585937,-0.18469873046875,0,-0.12922417781766016,-0.030106929596902185,0.5207364356250281,0,0,1.321,1,90
384,862497.375,65.125,-0.28200103759765627,-0.2916495056152344,0,-0.11662290061826111,-0.0477696616270848,0.5209284218427476,0,0,1.291,1,90
385,862562.713,65.33799999998882,-0.29469802856445315,-0.369892333984375,0,-0.09562658971676932,-0.06047565858160352,0.5205095428222689,0,0,1.228,1,90
386,862628.021,65.30799999996088,-0.2809425354003906,-0.48996466064453126,0,-0.07105235384868915,-0.07440338601251827,0.5188863866179142,0,0,1.172,1,90
387,862693.023,65.002000000095,-0.2394081268310547,-0.5706102294921875,0,-0.036267941856442165,-0.08632398480363954,0.516146219692283,0,0,1.143,1,90
388,862758.148,65.125,-0.1870328826904297,-0.645650634765625,0,-0.0005061454830783556,-0.09443976582541316,0.5134933192292517,0,0,1.089,1,90
389,862823.516,65.36799999990035,-0.1367330780029297,-0.681031005859375,0,0.036250488563922226,-0.09224065096790031,0.5096012349973044,0,0,1.039,1,90
390,862888.458,64.94200000003912,-0.07165965270996094,-0.7609450073242188,0,0.0728849495632832,-0.08621926504851989,0.5062851094185151,0,0,1.013,1,90
391,862953.643,65.18500000005588,-0.02447344970703125,-0.7948060913085937,0,0.11145672603235787,-0.07522369076095559,0.5045746867515607,0,0,0.978,1,90
392,863018.798,65.15499999991152,0.054652122497558596,-0.797635009765625,0,0.14803882715415903,-0.05930628798276732,0.503230783227525,0,0,0.935,1,90
393,863083.984,65.18600000010338,0.121754150390625,-0.7017310791015625,0,0.1747598180021922,-0.04399975044277704,0.5018345198259295,0,0,0.916,0,90
394,863149.383,65.39899999997579,0.2229254608154297,-0.6471104125976562,0,0.19387117331153014,-0.027611108766550294,0.5009094953223726,0,0,0.852,0,90
395,863214.385,65.00199999997858,0.22915435791015626,-0.5123779296875,0,0.2027374459116613,-0.012810716709638379,0.4994783253357372,0,0,0.816,0,90
396,863279.449,65.06400000001304,0.3031198120117187,-0.3843836669921875,0,0.20507618710933373,-0.0038571776469074684,0.49905944631525856,0,0,0.742,0,90
397,863344.97,65.52099999994971,0.3720779724121094,-0.19106211853027344,0,0.19792033717615698,0.0029321531433504737,0.4990768996077785,0,0,0.702,0,90
398,863409.82,64.84999999997672,0.4289941101074219,-0.05263392639160156,0,0.18992672920202294,0.012042771838760872,0.4996004983833768,0,0,0.662,0,90
399,863475.006,65.18600000010338,0.49437454223632815,0.1130343017578125,0,0.17826792979870085,0.025097834643678457,0.49987975106369587,0,0,0.639,0,90
400,863540.222,65.21599999989849,0.559320068359375,0.2323076477050781,0,0.16228071385043275,0.04131194339470578,0.5000019241113355,0,0,0.57,0,90
401,863605.346,65.12400000006892,0.5698247680664063,0.34705740356445314,0,0.14348351780645383,0.06185446869067904,0.5001415504514951,0,0,0.506,0,90
402,863670.44,65.09399999992456,0.6133963012695313,0.478222412109375,0,0.11934561425137225,0.08532914713000277,0.5009444019074125,0,0,0.438,0,90
403,863735.656,65.2160000000149,0.5472316284179688,0.5251505737304687,0,0.0964643477577266,0.11030480872604163,0.5037020221255635,0,0,0.387,0,90
404,863801.086,65.43000000005122,0.46522357177734375,0.5569457397460937,0,0.07471754527787723,0.13405873984568445,0.5047841262618,0,0,0.323,0,90
405,863866.424,65.33799999998882,0.3676048889160156,0.5711494750976562,0,0.05358160803622591,0.15303046881486282,0.505709150765357,0,0,0.27,0,90
406,863931.121,64.69700000004377,0.2580164794921875,0.5725167846679687,0,0.03262020371977402,0.1659284519871009,0.5049237526019594,0,0,0.249,0,90
407,863996.307,65.18599999998696,0.1364890594482422,0.57242236328125,0,0.007539822368615503,0.16800539379697416,0.502026506043649,0,0,0.243,0,90
