n,time,dt,vx,vy,vz,roll,pitch,yaw,x,y,z,detected,battery
0,37713.928,NaN,0.0005688782334327697,0.0013216986656188964,0,0.03785619147575701,0.022060961745208326,-0.014835298641951801,0,0,0.243,0,35
1,37779.205,NaN,0.0005329885482788086,0.0012383196353912354,0,0.037803831598197175,0.021903882112528833,-0.014817845349431856,0,0,0.243,0,35
2,37844.268,NaN,0.0004993627071380615,0.0011602070331573487,0,0.03790855135331684,0.021729349187329404,-0.014835298641951801,0,0,0.243,0,35
3,37914.367,NaN,0.00046551886200904845,0.0010815808773040772,0,0.037821284890717115,0.02150245638457014,-0.01488765851951163,0,0,0.243,0,35
4,37979.614,65.24700000000303,0.0004361515343189239,0.0010133492946624756,0,0.03783873818323706,0.021519909677090086,-0.01488765851951163,0,0,0.243,0,35
5,38044.677,NaN,0.0004086369574069977,0.0009494208693504333,0,0.037803831598197175,0.021537362969610025,-0.014905111812031574,0,0,0.243,0,35
6,38109.893,NaN,0.00038285759091377257,0.0008895272612571716,0,0.037821284890717115,0.02150245638457014,-0.014922565104551517,0,0,0.243,0,35
7,38175.018,NaN,0.00035870251059532163,0.0008334113359451294,0,0.03764675196551769,0.021170843826691217,-0.01457349925415265,0,0,0.243,0,35
8,38240.112,65.0940000000046,0.0003360736966133118,0.0007808351516723633,0,0.03764675196551769,0.02118829711921116,-0.015184364492350668,0,0,0.243,0,35
9,38305.267,65.15499999999884,0.0003148670494556427,0.0007315827012062073,0,0.03750712562535814,0.020367992370773826,-0.015323990832510213,0,0,0.243,0,35
10,38370.391,65.12400000000343,0.0002950003445148468,0.0006854358911514282,0,0.03747221904031825,0.019826940302655582,-0.015132004614790836,0,0,0.243,0,35
11,38435.516,65.125,0.0002763885259628296,0.0006421959400177002,0,0.03735004599267865,0.019530234329816546,-0.015236724369910496,0,0,0.243,0,35
12,38500.762,65.24599999999919,0.00025895118713378904,0.0006016857624053955,0,0.03738495257771854,0.0192684349420174,-0.015271630954950384,0,0,0.243,0,35
13,38565.795,65.03299999999581,0.00024261371791362764,0.0005637300014495849,0,0.03731513940763876,0.01895427567665842,-0.015254177662430441,0,0,0.243,0,35
14,38630.95,65.15499999999884,0.00022730712592601777,0.0005281705856323242,0,0.03740240587023848,0.018675022996339326,-0.015236724369910496,0,0,0.243,0,35
15,38696.044,65.0940000000046,0.00021296514570713043,0.0004948545396327972,0,0.03735004599267865,0.018099064343181197,-0.015201817784870609,0,0,0.243,0,43
16,38761.26,65.21600000000035,0.00019952787458896637,0.0004636416435241699,0,0.03736749928519859,0.017453292519943295,-0.015533430342749534,0,0,0.243,0,43
17,38826.416,65.1559999999954,0.00018693983554840087,0.000434396892786026,0,0.037559485502917975,0.017208946424664088,-0.015428710587629874,0,0,0.243,0,43
18,38891.479,65.06300000000192,0.0001751466542482376,0.0004069855213165283,0,0.036948620264719956,0.017208946424664088,-0.015673056682909078,0,0,0.242,0,43
19,38956.665,65.18600000000151,0.0001640959233045578,0.0003813125193119049,0,0.03682644721708035,0.0166504410640259,-0.015533430342749534,0,0,0.242,0,43
20,39022.064,65.39899999999761,0.00015374402701854705,0.00035725656151771543,0,0.03677408733952053,0.016702800941585733,-0.015515977050229588,0,0,0.242,0,43
21,39086.914,64.84999999999854,0.00014404410123825074,0.0003347173035144806,0,0.03640756819660171,0.016318828506146982,-0.01579522973054868,0,0,0.242,0,43
22,39152.099,65.18500000000495,0.00013495606184005737,0.0003136070966720581,0,0.03675663404700058,0.015865042900628457,-0.01546361717266976,0,0,0.242,0,43
23,39217.224,65.125,0.00012644250690937043,0.00029382169246673585,0,0.03665191429188092,0.015969762655748117,-0.015603243512829304,0,0,0.243,0,43
24,39282.348,65.12399999999616,0.00011846429854631424,0.00027528858184814453,0,0.03654719453676126,0.015114551322270893,-0.015446163880149815,0,0,0.243,0,43
25,39347.564,65.21600000000035,0.00011099103093147278,0.00025792008638381956,0,0.03633775502652194,0.015184364492350668,-0.015498523757709647,0,0,0.243,0,43
26,39412.689,65.125,0.00010398775339126587,0.0002416551411151886,0,0.0366868208769208,0.014276793281313616,-0.014538592669112763,0,0,0.243,0,43
27,39477.905,65.21600000000035,0.00009742791950702667,0.0002264091968536377,0,0.03663446099936098,0.01446877949903299,-0.013840460968315033,0,0,0.243,0,43
28,39543.151,65.24599999999919,0.00009128122031688691,0.00021212480962276459,0,0.036267941856442165,0.014137166941154071,-0.013404128655316452,0,0,0.243,0,43
29,39608.123,64.97200000000157,0.00008552256226539612,0.0001987435519695282,0,0.036320301734002,0.014014993893514467,-0.012461650859239512,0,0,0.243,0,43
30,39673.278,65.15499999999884,0.00008012702316045762,0.00018621087074279785,0,0.03705334001983962,0.013718287920675431,-0.012566370614359173,0,0,0.243,0,43
31,39738.433,65.15499999999884,0.00007507197558879852,0.00017446304857730865,0,0.03682644721708035,0.01350884841043611,-0.011519173063162576,0,0,0.243,0,43
32,39803.588,65.15500000000611,0.00007033547759056091,0.00016345463693141936,0,0.03605850234620284,0.01291543646475804,-0.004677482395344803,0,0,0.242,0,43
33,39868.743,65.15499999999884,0.00006589843332767486,0.00015314680337905884,0,0.036896260387160124,0.013020156219877697,-0.0005759586531581287,0,0,0.243,0,43
34,39933.868,65.125,0.00006174109131097793,0.00014348256587982177,0,0.03616322210132251,0.012863076587198208,0.005602506898901799,0,0,0.243,0,43
35,39999.023,65.15499999999884,0.000057846732437610625,0.00013442692160606383,0,0.035569810155644435,0.013648474750595656,0.011152653920243765,0,0,0.243,0,43
36,40064.544,65.52100000000064,0.000054196152836084365,0.00012595954537391663,0,0.03792600464583678,0.011763519158441782,0.017400932642383467,0,0,0.242,0,43
37,40129.302,64.75800000000163,0.00005077782273292541,0.00011799991130828858,0,0.03478441199224699,0.012793263417118434,0.01790707812546182,0,0,0.242,0,43
38,40194.458,65.1559999999954,0.00004757428169250488,0.000110556960105896,0,0.03494149162492648,0.012461650859239512,0.01223475805648025,0,0,0.243,0,43
39,40259.582,65.12400000000343,0.00004457616433501244,0.00010355579853057861,0,0.02707005669843205,0.017191493132144145,0.0008552113334772215,0,0,0.242,0,43
40,40324.737,65.15499999999884,0.000041760966181755065,0.00009700968116521835,0,0.014503686084072877,0.012130038301360588,-0.014748032179352085,0,0,0.243,0,43
41,40389.831,65.09399999999732,0.00003912407159805298,0.00009088816493749618,0,0.0074176493209759005,0.005009094953223725,-0.020594885173533087,0,0,0.242,0,43
42,40454.956,65.125,0.00003665545955300331,0.00008515404164791108,0,0.0036302848441482054,0,-0.025935592684635737,0,0,0.242,0,43
43,40520.141,65.18500000000495,0.00003434360027313233,0.00007978559285402298,0,0.007906341511534314,-0.005689773361501514,-0.03530801076784529,0,0,0.242,0,43
44,40585.51,65.36899999999878,0.00003217742592096329,0.00007475522160530091,0,0.010524335389525807,-0.00757472895365539,-0.03614576880880257,0,0,0.242,0,43
45,40650.421,64.91100000000006,0.00003014749102294445,0.00007003993541002274,0,0.011239920382843481,-0.00752236907609556,-0.030997047515419294,0,0,0.242,0,43
46,40715.82,65.39899999999761,-0.03437922286987305,-0.11366670989990234,0,0.010262536001726656,-0.0019896753472735357,1.4476982546517365,0,0,0.243,0,42
47,40780.853,65.03300000000309,-0.016023000717163085,-0.09023540496826171,0,0.02022836603061428,0.009773843811168246,1.4564249009117083,0,0,0.243,0,42
48,40845.977,65.12399999999616,-0.017485696792602538,0.03975611114501953,0,0.05319763560078716,0.030525808617380825,1.47127765284618,0,0,0.242,0,42
49,40911.254,65.27700000000186,-0.047775558471679684,0.01204759693145752,0,0.0679631210726592,0.054262286444503705,1.4905460877881973,0,0,0.251,0,42
50,40976.226,64.97200000000157,-0.10258912658691406,0.029051231384277343,0,0.07492698478811656,0.06284930636431581,1.5109664400365308,0,0,0.281,0,42
51,41041.442,65.21600000000035,-0.06969115447998046,0.09904432678222656,0,0.06782349473249966,0.05482079180514189,1.5296414630328703,0,0,0.35,0,42
52,41106.994,65.55199999999604,-0.06439067077636719,0.04721390151977539,0,0.04625122517784973,0.0419228086329038,1.5424172731574686,0,0,0.445,0,42
53,41171.691,64.69700000000012,-0.05785813140869141,0.004460269927978515,0,0.019408061282176946,0.02441715623540067,1.5394502134290782,0,0,0.495,0,42
54,41236.846,65.15499999999884,-0.061023536682128905,-0.018213743209838866,0,-0.0011344640137963143,0.0044156830075456534,1.5345632915234944,0,0,0.595,0,42
55,41301.91,65.06400000000576,-0.053488216400146484,-0.012140357971191406,0,-0.007871434926494426,-0.009756390518648303,1.5282451996312747,0,0,0.642,0,42
56,41367.156,65.24599999999919,-0.07908620452880859,0.005960584163665772,0,-0.008761552845011535,-0.017121679962064373,1.5209322700654186,0,0,0.728,0,42
57,41432.312,65.1559999999954,-0.10156095886230469,0.016811920166015626,0,-0.00926769832808989,-0.02138028333693054,1.5148585242684782,0,0,0.773,1,42
58,41497.436,65.12400000000343,-0.09881559753417969,0.02301163101196289,0,-0.00890117918517108,-0.02633701841259443,1.5088545916416176,0,0,0.789,1,42
59,41562.53,65.09399999999732,-0.10376304626464844,0.03200555419921875,0,-0.007976154681614086,-0.03122394031817855,1.5040025763210736,0,0,0.805,1,42
60,41627.777,65.24700000000303,-0.10144193267822266,0.019256307601928712,0,-0.006806784082777885,-0.03422590663160881,1.5003199315993656,0,0,0.795,0,42
61,41692.749,64.97200000000157,-0.08495382690429687,0.007853508472442627,0,-0.006492624817418905,-0.034801865284766934,1.497719391013894,0,0,0.786,1,42
62,41758.056,65.30699999999342,-0.06514020538330079,-0.007320252418518067,0,-0.0029845130209103033,-0.03183480555637657,1.4953981031087415,0,0,0.764,1,40
63,41823.089,65.03300000000309,-0.054827388763427735,-0.022177011489868163,0,0.0011344640137963143,-0.029443704481144337,1.4935306008091074,0,0,0.752,0,40
64,41888.214,65.125,-0.03866769409179688,-0.04289863204956055,0,0.0063006385996995295,-0.025028021473598682,1.4918550847271932,0,0,0.722,0,40
65,41953.674,65.45999999999913,-0.0214110107421875,-0.06236386871337891,0,0.011588986233242348,-0.020507618710933373,1.4903715548629979,0,0,0.704,0,40
66,42018.768,65.09399999999732,-0.027587032318115233,-0.06304323196411132,0,0.016755160819145562,-0.01649336143134641,1.4896734231622,0,0,0.695,0,40
67,42083.831,65.06300000000192,-0.0214257755279541,-0.08169229888916016,0,0.020891591146372124,-0.013735741213195376,1.489463983651961,0,0,0.684,0,40
68,42148.956,65.125,-0.002940272808074951,-0.08109880828857421,0,0.023282692221604357,-0.0102799892942466,1.488853118413763,0,0,0.684,0,40
69,42213.989,65.03300000000309,0.01866976737976074,-0.08813408660888672,0,0.028082347664588763,-0.007557275661135446,1.4889403848763625,0,0,0.687,0,40
70,42279.174,65.18499999999767,0.007155802726745606,-0.07288379669189453,0,0.032498030672134415,-0.0018500490071139892,1.4898828626724394,0,0,0.695,0,40
71,42344.299,65.125,0.006484066963195801,-0.07714160919189453,0,0.035866516128483475,0.00010471975511965978,1.4901097554751987,0,0,0.699,0,40
72,42409.454,65.15499999999884,-0.009467254638671875,-0.068982421875,0,0.038432150128915134,-0.0009773843811168245,1.490266835107878,0,0,0.709,0,40
73,42474.639,65.18500000000495,0.002808711290359497,-0.053843982696533205,0,0.039182641707272696,-0.002565634000431664,1.4901446620602388,0,0,0.72,0,40
74,42539.733,65.09399999999732,0.0015234978199005127,-0.04724443435668945,0,0.04054399852382828,-0.003159045946109736,1.4892196375566815,0,0,0.724,0,40
75,42604.858,65.125,0.00959752368927002,-0.04058963394165039,0,0.04071853144902771,-0.004014257279586958,1.4883644262232043,0,0,0.729,0,40
76,42670.104,65.24599999999919,0.011402057647705079,-0.01738331604003906,0,0.03890338902695361,-0.005619960191421741,1.4886087723184835,0,0,0.731,0,40
77,42735.137,65.03300000000309,0.005899610996246338,-0.01335048484802246,0,0.03761184538047779,-0.0060911990894602095,1.4884516926858038,0,0,0.734,0,39
78,42800.323,65.18599999999424,0.01612395668029785,-0.007331689834594726,0,0.03797836452339661,-0.005934119456780722,1.488137533420445,0,0,0.737,0,39
79,42865.386,65.06300000000192,0.020565168380737305,-0.006749295711517334,0,0.039322268047432246,-0.005096361415823441,1.4881549867129649,0,0,0.738,0,39
80,42930.603,65.21700000000419,0.01714788055419922,-0.0029461066722869873,0,0.04237659423842232,-0.003490658503988659,1.4878059208625662,0,0,0.738,0,39
81,42995.788,65.18499999999767,0.020269790649414064,0.013980290412902833,0,0.042812926551420896,-0.005707226654021458,1.4873521352570476,0,0,0.738,0,39
82,43060.882,65.09399999999732,0.03134931945800781,0.024642980575561524,0,0.045169121041613254,-0.005602506898901799,1.4877710142775262,0,0,0.741,0,39
83,43126.037,65.15499999999884,0.040696414947509765,0.03900721740722656,0,0.042568580456141696,-0.004101523742186674,1.4880153603728057,0,0,0.74,0,39
84,43191.284,65.24700000000303,0.05768759918212891,0.05941450119018555,0,0.03937462792499207,-0.002495820830351891,1.4880502669578455,0,0,0.742,0,39
85,43256.317,65.03300000000309,0.04934585571289062,0.053315292358398436,0,0.03443534614184812,-0.00027925268031909274,1.487648841229887,0,0,0.742,0,39
86,43321.502,65.18499999999767,0.0436202621459961,0.060140296936035155,0,0.03155555287605748,0.0017278759594743865,1.4864794706310505,0,0,0.746,0,39
87,43386.596,65.09399999999732,0.04359977340698242,0.07376321411132812,0,0.02809980095710871,0.004118977034706617,1.4849959407668554,0,0,0.747,0,39
88,43451.782,65.18600000000151,0.0321953125,0.06660272216796875,0,0.0243473430653209,0.005550147021341968,1.482901545664462,0,0,0.75,0,39
89,43516.967,65.18499999999767,0.018434301376342773,0.07405329895019531,0,0.0243473430653209,0.0049741883681838385,1.482011427745945,0,0,0.751,0,39
90,43582.031,65.06400000000576,0.014230511665344238,0.08286204528808594,0,0.024521875990520327,0.0029845130209103033,1.481470375677827,0,0,0.752,0,39
91,43647.216,65.18499999999767,0.01385998821258545,0.07673977661132812,0,0.02403318379996192,0.00034906585039886593,1.480964230194748,0,0,0.751,0,39
92,43712.402,65.18600000000151,0.01542007064819336,0.07081180572509765,0,0.023701571242082997,-0.0005235987755982988,1.4806675242219092,0,0,0.752,0,38
93,43777.465,65.06299999999464,0.01516935157775879,0.07313724517822266,0,0.0210835773640915,-0.0004363323129985824,1.479829766180952,0,0,0.754,0,38
94,43842.681,65.21600000000035,0.013799753189086914,0.07121580505371093,0,0.01855284994869972,0.00017453292519943296,1.4956948090815805,0,0,0.751,0,38
95,43907.684,65.00300000000425,0.005672257900238037,0.0474253921508789,0,0.023422318561763907,0.002513274122871834,1.5665202701275105,0,0,0.753,0,38
96,43973.236,65.55199999999604,-0.008232833862304688,0.03391801071166992,0,0.026354471705114374,0.006632251157578452,1.6563872733126983,0,0,0.754,1,38
97,44038.116,64.88000000000466,-0.007786440372467041,0.04655439758300781,0,0.027244589623631483,0.012164944886400474,1.7547889365401388,0,0,0.761,0,38
98,44103.179,65.06299999999464,-0.012481390953063965,0.05232157897949219,0,0.024644049038159928,0.010576695267085637,1.8491065293179123,0,0,0.758,0,38
99,44168.334,65.15500000000611,-0.002873589277267456,0.06365590286254882,0,0.019949113350295186,0.0009599310885968812,1.9352559811963526,0,0,0.759,0,38
100,44233.52,65.18599999999424,-0.011539341926574707,0.07475935363769531,0,0.01504473815219112,-0.002617993877991494,2.0152095142302127,0,0,0.763,0,38
101,44298.553,65.03300000000309,-0.016141794204711915,0.07274181365966798,0,0.014940018397071462,0.001239183768915974,2.0824570503095545,0,0,0.764,0,38
102,44363.8,65.24700000000303,-0.005338973522186279,0.06030950546264648,0,0.03284709652253328,0.02345722514680379,2.103942053401604,0,0,0.761,0,38
103,44428.894,65.09399999999732,-0.05655835342407227,0.08070332336425781,0,0.05452408583230286,0.05384340742402506,2.103051935483087,0,0,0.76,0,38
104,44494.171,65.27700000000186,-0.0866782455444336,0.1418762664794922,0,0.04098033083682685,0.04729842272904633,2.092353067168362,0,0,0.763,0,38
105,44559.631,65.45999999999913,-0.10228153991699218,0.16080606079101561,0,0.015184364492350668,0.020106192982974672,2.0844467256568278,0,0,0.764,0,38
106,44624.359,64.72799999999552,-0.10394187164306641,0.13967433166503906,0,-0.0059690260418206065,-0.006073745796940267,2.0797168833839232,0,0,0.766,0,38
107,44689.575,65.21600000000035,-0.10252933502197266,0.10273631286621093,0,-0.018186330805780915,-0.020402898955813712,2.074254002825181,0,0,0.775,0,38
108,44754.76,65.18500000000495,-0.11038835906982422,0.08260195922851563,0,-0.025132741228718346,-0.028431413514987625,2.069035468361718,0,0,0.782,0,38
109,44819.793,65.03299999999581,-0.1065029525756836,0.06040824508666992,0,-0.030124382889422128,-0.03691371367968007,2.0638692937758147,0,0,0.785,0,38
110,44884.979,65.18600000000151,-0.1109062271118164,0.040243480682373045,0,-0.03138101995085805,-0.042044981680543395,2.0595234239383484,0,0,0.785,0,38
111,44950.073,65.09399999999732,-0.09908339691162109,0.0024128639698028564,0,-0.029234264970905022,-0.045029494701453704,2.0558407792166404,0,0,0.787,0,38
112,45015.258,65.18500000000495,-0.07577635192871093,-0.02478274154663086,0,-0.026965336943312393,-0.04743804906920587,2.0520185081547733,0,0,0.802,0,38
113,45080.474,65.21600000000035,-0.058622676849365236,-0.04343898391723633,0,-0.025499260371637158,-0.04792674125976429,2.048405676603145,0,0,0.812,0,38
114,45145.812,65.3379999999961,-0.03242456436157227,-0.07283475494384765,0,-0.02261946710584651,-0.04653047785816882,2.045037191146796,0,0,0.826,0,38
115,45210.723,64.91100000000006,-0.01926859474182129,-0.11579638671875,0,-0.015847589608108514,-0.040788344619107485,2.041267279962488,0,0,0.833,0,38
116,45275.909,65.18600000000151,-0.0036912164688110353,-0.11725518798828125,0,-0.0077492618788548235,-0.034714598822167216,2.0386667393770166,0,0,0.848,0,38
117,45340.911,65.00200000000041,-0.001432778835296631,-0.13096907043457032,0,-0.0009948376736367678,-0.029618237406343777,2.0359963856214653,0,0,0.856,0,38
118,45406.097,65.18600000000151,-0.006828563690185547,-0.13652044677734376,0,0.006824237375297828,-0.023352505391684132,2.0330293258930747,0,0,0.873,0,38
119,45471.191,65.09399999999732,0.01947534942626953,-0.14203558349609374,0,0.014084807063594239,-0.01827359726838063,2.0308302110355623,0,0,0.879,0,38
120,45536.376,65.18499999999767,0.03139431190490723,-0.14507835388183593,0,0.02129301687433082,-0.015917402778188285,2.0278107914296117,0,0,0.904,0,38
121,45601.562,65.18600000000151,0.036088790893554684,-0.12921665954589845,0,0.025289820861397836,-0.016406094968746697,2.0244772125583026,0,0,0.907,0,38
122,45666.687,65.125,0.045292522430419924,-0.1302737579345703,0,0.029164451800825247,-0.013648474750595656,2.0215101528299124,0,0,0.909,0,38
123,45736.816,70.12900000000081,0.044432533264160155,-0.10795490264892578,0,0.03248057737961447,-0.011047934165124106,2.017583162012925,0,0,0.915,0,37
124,45802.093,65.27700000000186,0.04961367416381836,-0.10224555206298828,0,0.03260275042725407,-0.00778416846389471,2.0152095142302127,0,0,0.916,0,37
125,45867.156,65.06300000000192,0.06797222137451171,-0.10042416381835938,0,0.03228859116189509,-0.002617993877991494,2.012067921576623,0,0,0.918,0,37
126,45932.25,65.09399999999732,0.06073553848266602,-0.09206053924560546,0,0.027838001569309555,0.006789330790257941,2.0125566137671815,0,0,0.916,0,37
127,45997.467,65.21699999999691,0.04706764602661133,-0.0778461685180664,0,0.01619665545850738,0.0013439035240356337,2.0136736244884577,0,0,0.917,0,37
128,46062.5,65.03300000000309,0.04778421401977539,-0.057551856994628905,0,0.0077492618788548235,-0.034260813216648686,2.014528835821935,0,0,0.922,0,37
129,46127.716,65.21600000000035,0.06876428985595703,-0.052479854583740236,0,0.005113814708343385,-0.0838107106807677,2.0155236734955717,0,0,0.917,0,37
130,46192.749,65.03300000000309,0.11637265777587891,-0.07083468627929687,0,0.008447393579652554,-0.12449433554475553,2.0162392584888895,0,0,0.914,0,37
131,46258.117,65.36799999999494,0.17380952453613283,-0.07792147064208985,0,0.01022762941668677,-0.154810704651897,2.0168152171420477,0,0,0.913,0,37
132,46323.364,65.24700000000303,0.2863247680664063,-0.09672093200683594,0,0.012374384396639796,-0.1734333677706765,2.017286456040086,0,0,0.922,0,37
133,46388.336,64.97200000000157,0.37826535034179687,-0.11612120056152343,0,0.015533430342749534,-0.1826661595137265,2.0176704284755247,0,0,0.91,0,37
134,46453.491,65.15499999999884,0.4701510314941406,-0.13065086364746092,0,0.016528268016386297,-0.19020598188234203,2.017565708720405,0,0,0.909,0,37
135,46518.676,65.18499999999767,0.5818576049804688,-0.13309681701660156,0,0.019285888234537342,-0.19305086856309278,2.017932227863324,0,0,0.917,0,37
136,46583.679,65.00299999999697,0.6849024047851563,-0.15263906860351562,0,0.024713862208239703,-0.1864884305755941,2.0190492385846004,0,0,0.91,0,37
137,46648.986,65.3070000000007,0.7707923583984375,-0.17898869323730468,0,0.031642819338657195,-0.17201965107656111,2.020096436135797,0,0,0.905,0,37
138,46713.989,65.00300000000425,0.88856396484375,-0.18050315856933594,0,0.03953170755767157,-0.14597933863680573,2.021161086979513,0,0,0.906,1,37
139,46779.205,65.21600000000035,0.952283203125,-0.16219386291503907,0,0.049637163926718735,-0.11278317626387356,2.024651745483502,0,0,0.907,0,36
140,46844.482,65.27700000000186,1.0031050415039062,-0.17988101196289064,0,0.07250097712784445,-0.09194394499506128,2.0285612830079693,0,0,0.903,0,36
141,46909.454,64.9719999999943,1.03984033203125,-0.12107749938964844,0,0.10000736613927509,-0.08065166473465797,2.032226474437157,0,0,0.905,0,36
142,46974.578,65.12400000000343,1.0645797119140625,-0.06050698089599609,0,0.11499974441390637,-0.06511823439190843,2.036345451471864,0,0,0.9,1,36
143,47039.825,65.24699999999575,1.06056591796875,-0.01898897933959961,0,0.12185888837424409,-0.044872415068774214,2.040185175826252,0,0,0.901,0,36
144,47104.858,65.03300000000309,1.0954810791015626,0.026129791259765625,0,0.12805480721882395,-0.032253684576855214,2.043396581649921,0,0,0.904,0,36
145,47170.074,65.21600000000035,1.061807861328125,0.09036734771728516,0,0.13611822836303777,-0.028483773392547457,2.0438678205479595,0,0,0.902,0,36
146,47235.107,65.03300000000309,1.1082578125,0.12727664947509765,0,0.13526301702956053,-0.009913470151327791,2.046573080888551,0,0,0.904,0,36
147,47300.292,65.18499999999767,1.0175755004882812,0.15695697021484376,0,0.12866567245702196,0.019041542139258134,2.0503778986578984,0,0,0.904,0,36
148,47365.539,65.24699999999575,0.5904548950195313,0.1529449920654297,0,0.1193630675438922,0.05143485305627289,2.0526817332705307,0,0,0.918,0,36
149,47430.633,65.0940000000046,-0.12315443420410156,-0.12630555725097656,0,0.10676179034449314,0.08269369995949134,2.0533449583862886,0,0,0.928,0,36
150,47495.697,65.06399999999849,-0.34419287109375,-0.2322496795654297,0,0.09482373826085191,0.09744173213884343,2.051931241692173,0,0,0.948,0,36
151,47561.004,65.3070000000007,0.0661439208984375,-0.046602363586425784,0,0.09072221451866525,0.08087855753741723,2.0473235724669085,0,0,1.926,0,36
152,47626.037,65.03299999999581,0.0833076400756836,-0.09700626373291016,0,0.09512044423369097,0.0372104196525191,2.041302186547528,0,0,1.103,0,36
153,47691.162,65.125,0.07678316497802734,-0.030193149566650392,0,0.10325367854798455,-0.008569566627292158,2.0355775066009865,0,0,1.095,0,36
154,47756.317,65.15500000000611,0.2283549346923828,0.07283935546875,0,0.10798352082088918,-0.03832743037379548,2.031947221756838,0,0,1.096,0,36
155,47821.594,65.27699999999459,0.4049697265625,0.2184522705078125,0,0.11171852542015702,-0.05167919915155209,2.02838675008277,0,0,1.061,0,36
156,47886.688,65.0940000000046,0.3038646240234375,0.231709716796875,0,0.10910053154216555,-0.054122660104344154,2.026536701075656,0,0,1.037,0,36
157,47951.843,65.15499999999884,0.39196502685546875,0.23382530212402344,0,0.0973195590912038,-0.040648718278947935,2.0267810471709353,0,0,0.997,0,36
158,48016.967,65.12399999999616,0.6389339599609375,0.42132781982421874,0,0.0769166601353901,-0.021031217486531674,2.027758431552052,0,0,0.958,0,36
159,48082.214,65.24700000000303,0.5755510864257812,0.43160409545898437,0,0.06028367236388414,0.0022165681500327986,2.0291372416611275,0,0,0.944,0,36
160,48147.216,65.00200000000041,0.32302374267578127,0.12738033294677734,0,0.04968952380427856,0.024888395133439135,2.0308825709131217,0,0,0.916,0,36
161,48212.341,65.125,0.304916748046875,0.1924365234375,0,0.045256387504212965,0.052883476335428184,2.032488273824957,0,0,0.902,0,36
162,48277.496,65.15499999999884,0.2078810577392578,0.13789271545410156,0,0.03808308427851627,0.0734085483388815,2.0340067102741917,0,0,0.906,0,36
163,48342.681,65.18499999999767,0.20132464599609376,0.21211793518066407,0,0.03597123588360313,0.0722391777400453,2.035437880260827,0,0,0.906,0,36
164,48408.081,65.40000000000146,0.19794886779785156,0.25873556518554686,0,0.039723693775390936,0.06005677956112487,2.036415264641944,0,0,0.915,0,36
165,48472.93,64.84900000000198,0.15574642944335937,0.313371826171875,0,0.045553093477052,0.046705010783368264,2.0379162477986585,0,0,0.931,0,36
166,48538.116,65.18600000000151,0.14896873474121095,0.31695367431640625,0,0.045779986279811266,0.034540065896967787,2.0391030716900147,0,0,1.2,0,36
167,48603.454,65.3379999999961,0.130991455078125,0.34723788452148435,0,0.03701843343479973,0.024242623310201238,2.0408309476494892,0,0,0.929,0,36
168,48668.334,64.88000000000466,0.12978857421875,0.3392385559082031,0,0.01869247628885927,0.008587019919812101,2.041651252397927,0,0,0.905,0,36
169,48733.52,65.18599999999424,0.14899365234375,0.33014956665039064,0,-0.002670353755551324,-0.004171336912266447,2.0399757363160123,0,0,0.902,0,36
170,48798.614,65.0940000000046,0.10770491790771484,0.09949517059326173,0,0.017872171540421936,-0.03797836452339661,1.9857832630415881,0,0,0.895,0,35
171,48863.8,65.18600000000151,-0.33527468872070315,-0.17434271240234375,0,0.022165681500327987,-0.04757767540936542,1.9951731344173178,0,0,0.886,0,35
172,48929.168,65.36799999999494,-0.3032193603515625,-0.21413095092773438,0,0.033196162372932145,-0.06511823439190843,2.007722051739157,0,0,0.88,0,35
173,48994.201,65.03300000000309,-0.26302264404296877,-0.21849508666992187,0,0.052045718294470904,-0.09218829109034049,2.0049818848135255,0,0,0.886,0,35
174,49059.326,65.125,0.00007841920852661133,-0.20455519104003905,0,0.07571238295151402,-0.11899654840097339,2.0028700364186127,0,0,0.876,0,35
175,49124.481,65.15499999999884,0.10287185668945313,-0.16824298095703125,0,0.09990264638415543,-0.13761921151975287,2.0007930946087393,0,0,0.873,0,35
176,49189.453,64.97200000000157,-0.02491929626464844,-0.08663456726074219,0,0.11201523139299607,-0.14090043051350223,1.9997458970575428,0,0,0.878,0,35
177,49254.669,65.21600000000035,0.004770833015441895,-0.0778924331665039,0,0.12051498485020845,-0.12651891747706895,2.0005312952209406,0,0,0.991,0,35
178,49319.732,65.06300000000192,0.01860089874267578,-0.0576329345703125,0,0.1252099205380732,-0.10327113184050447,2.001421413139458,0,0,0.902,0,35
179,49384.948,65.21599999999307,0.16575923156738281,-0.02784387969970703,0,0.12732176893298636,-0.0807912910748175,2.0011596137516583,0,0,1.044,0,35
180,49450.103,65.15500000000611,0.03894173049926758,-0.022397058486938477,0,0.12578587919123133,-0.06436774281355087,1.9993444713295845,0,0,0.905,0,35
181,49515.197,65.09399999999732,0.06788082885742187,-0.0036854262351989748,0,0.12185888837424409,-0.05024802916491675,1.9979831145130287,0,0,0.891,0,35
182,49580.352,65.15499999999884,0.03663238906860351,0.038916717529296874,0,0.11250392358355447,-0.0404741853537485,1.996674117574033,0,0,1.125,0,35
183,49645.599,65.24700000000303,0.058684196472167965,0.04416970825195313,0,0.10562732633069682,-0.0318871654339364,1.9951731344173178,0,0,1.091,0,35
184,49710.662,65.06299999999464,0.0050614013671875,0.07704118347167968,0,0.10674433705197318,-0.022165681500327987,1.9932183656550841,0,0,1.083,0,35
185,49775.787,65.125,0.05402216339111328,0.10674440765380859,0,0.10487683475233926,-0.017016960206944712,1.9894310011782563,0,0,0.805,0,35
186,49840.881,65.0940000000046,0.006912477016448974,0.13813349914550782,0,0.10447540902438056,-0.006230825429619756,1.9848582385380313,0,0,0.799,0,35
187,49906.066,65.18499999999767,0.07730204010009765,0.19681120300292967,0,0.10431832939170109,0.009948376736367677,1.9784005203056523,0,0,1.018,0,35
188,49971.221,65.15499999999884,0.09049504089355469,0.1921593780517578,0,0.09813986383964116,0.024260076602721177,1.9703196458689187,0,0,0.743,0,35
189,50036.376,65.15499999999884,0.04006165313720703,0.22354763793945312,0,0.09210102462774078,0.031014500807939237,1.9616802660715467,0,0,0.722,0,35
190,50101.47,65.0940000000046,0.08619918823242187,0.26429339599609375,0,0.07990117315630041,0.038100537571036215,1.955135281376568,0,0,0.719,0,35
191,50166.717,65.24699999999575,0.0968774642944336,0.25134318542480466,0,0.05372123437638546,0.03354522822333102,1.949899293620585,0,0,0.71,0,35
192,50232.055,65.33800000000338,0.08395301818847656,0.2969480895996094,0,0.027349309378751144,0.023701571242082997,1.9297407407600506,0,0,0.708,0,35
193,50296.905,64.84999999999854,-0.024273197174072267,0.043569438934326174,0,0.047403142484165994,-0.008045967851693859,1.8945549030398445,0,0,0.687,0,35
194,50362.091,65.18600000000151,-0.187890380859375,-0.07098079681396484,0,0.051626839273992274,-0.02467895562319982,1.8635578555244254,0,0,0.684,0,35
195,50427.398,65.3070000000007,-0.17251058959960938,-0.11596135711669922,0,0.06267477343911637,-0.044052110320336874,1.8563845522987288,0,0,0.681,0,35
196,50492.462,65.06399999999849,-0.11642747497558593,-0.04509801483154297,0,0.09091420073638462,-0.054576445709862684,1.8651461051437401,0,0,0.686,0,35
197,50557.617,65.15499999999884,-0.07100247192382812,0.03452642822265625,0,0.12341223140851904,-0.05977752688080578,1.8713071174032803,0,0,0.681,0,35
198,50622.741,65.12400000000343,-0.07195191955566406,0.04183456802368164,0,0.13966124674458627,-0.058712876037089246,1.8756878938257857,0,0,0.682,0,35
199,50687.957,65.21600000000035,-0.061864990234375,0.055242565155029295,0,0.1685115392800525,-0.06606071218798538,1.879946497200652,0,0,0.975,0,35
200,50752.99,65.03299999999581,-0.03028190803527832,0.20569000244140626,0,0.20498892064673396,-0.08021533242165939,1.8840829275278788,0,0,0.971,0,35
201,50818.176,65.18600000000151,0.06573282623291016,0.3352008666992187,0,0.22771310750770016,-0.08484045493944435,1.8918845492842933,0,0,0.964,0,34
202,50883.3,65.12400000000343,0.18319253540039063,0.52297998046875,0,0.22650883032382407,-0.07215191127744558,1.9025485110139786,0,0,0.961,0,34
203,50948.425,65.125,0.15208500671386718,0.5059450988769532,0,0.242234246884293,-0.04459316238845512,1.8599973838503567,0,0,0.641,0,34
204,51013.549,65.12399999999616,-0.24687284851074218,0.06284299850463868,0,0.28220228675496317,-0.03682644721708035,1.8364703455334734,0,0,0.644,0,34
205,51078.674,65.125,-0.3405851135253906,0.024963523864746092,0,0.27872908154349446,-0.01233947781159991,1.8282498447565803,0,0,0.628,0,34
206,51143.737,65.06300000000192,-0.20675131225585938,0.14893601989746094,0,0.27103217954219944,-0.002897246558310587,1.8371510239417512,0,0,0.621,0,34
207,51209.014,65.27700000000186,-0.17844839477539062,0.28757550048828123,0,0.26518532654801846,-0.008621926504851989,1.8427186242556128,0,0,0.615,0,34
208,51274.047,65.03299999999581,-0.20393336486816407,0.26052859497070313,0,0.28386034954435774,-0.0011519173063162574,1.7255023116916741,0,0,0.601,0,34
209,51339.202,65.15499999999884,-0.186806396484375,0.37474722290039064,0,0.2764252469308619,-0.0013962634015954637,1.628845977716228,0,0,0.598,0,34
210,51404.357,65.15500000000611,-0.09153666687011719,0.3316942138671875,0,0.27035150113392165,-0.0014486232791552935,1.4932688014213085,0,0,0.601,0,34
211,51469.665,65.30799999999726,-0.149309814453125,0.19406076049804688,0,0.2908940264298949,-0.011536626355682518,1.4154271167823613,0,0,0.593,0,34
212,51534.729,65.06399999999849,-0.17250238037109375,0.005207487106323242,0,0.35616934045448284,-0.023439771854283843,1.4079920141688653,0,0,0.605,0,34
213,51599.914,65.18499999999767,-0.07704997253417968,0.1493818359375,0,0.35512214290328625,-0.05914920835008782,1.4239443235320937,0,0,0.597,0,34
214,51664.916,65.00200000000041,-0.03040211868286133,0.29116552734375,0,0.32690016889853796,-0.07297221602588291,1.4673681153217126,0,0,0.596,0,34
215,51730.224,65.30800000000454,-0.02730865478515625,-0.0021068801879882814,0,0.39400807863771986,-0.03855432317655474,1.4567041535920273,0,0,0.601,0,34
216,51795.227,65.00299999999697,0.00038408875465393064,0.12482087707519532,0,0.39653880605311165,-0.009773843811168246,1.4508573005978462,0,0,0.625,0,32
217,51860.412,65.18499999999767,0.011799772262573243,0.21423123168945313,0,0.44905576324562096,0.006667157742618338,1.482046334330985,0,0,0.632,0,32
218,51925.537,65.125,0.008210721969604493,0.26217098999023436,0,0.5014330940979709,0.008395033702092724,1.47745611839824,0,0,0.662,0,32
219,51990.722,65.18500000000495,-0.024159502029418946,0.29716799926757814,0,0.5566378583385515,0.01223475805648025,1.4813307493376673,0,0,0.673,0,32
220,52055.877,65.15499999999884,-0.038023033142089845,0.2319625549316406,0,0.613430872198447,0.011658799403322121,1.478712755459676,0,0,0.731,0,32
221,52121.002,65.125,-0.050005210876464846,0.14923550415039064,0,0.6764372581954423,0.03146828641345776,1.478346236316757,0,0,0.727,0,32
222,52186.096,65.09399999999732,-0.04132650756835937,0.05524076461791992,0,0.7388502322467596,0.05007349623971732,1.4738432868466116,0,0,0.756,0,32
223,52251.678,65.58200000000215,-0.0154703369140625,-0.12702076721191408,0,0.8765218036440723,0.05585053606381855,1.4683978595803893,0,0,1.413,0,32
224,52316.406,64.7280000000028,-0.11928350830078124,-0.9487564697265625,0,1.0349278865550775,0.06791076119509937,1.4777179177860391,0,0,1.876,0,32
225,52381.591,65.18499999999767,-0.16782928466796876,0.12062889099121094,0,1.2159185299868895,0.06539748707222752,1.4576815379731443,0,0,1.357,0,32
226,52446.685,65.09399999999732,0,0,0,1.425951452171887,0.04700171675620729,1.5112456927168498,0,0,1.403,0,32
227,52511.871,65.18600000000151,-0.07688330841064453,0.7184968872070312,0,1.2882100676044947,0.0027052603405912107,1.5369020327211669,0,0,1.914,0,32
228,52577.026,65.15499999999884,0,0,0,1.3737137476596968,-0.06201154832335853,1.4523757370470813,0,0,1.358,0,32
229,52642.12,65.0940000000046,0,0,0,1.3980785440175376,-0.14104005685366178,1.4588509085719803,0,0,1.688,0,32
230,52747.314,105.19399999999587,0,0,0,1.5211591628681778,-0.3036698365544934,1.2876166556588167,0,0,1.615,0,32
231,52852.905,105.59100000000035,0,0,0,1.6021773467457545,-0.22120302939776132,1.339784547000927,0,0,1.591,0,32
232,52957.702,104.79699999999866,0,0,0,1.598320169098847,-0.047123889803846894,1.3182122774462772,0,0,1.586,0,32
233,53022.918,65.21600000000035,0,0,0,1.527023469154879,0.009023352232810684,1.3458931993829073,0,0,1.587,0,32
234,53128.265,105.34700000000157,0,0,0,1.5277739607332361,0.042010075095503516,1.328719159543283,0,0,1.586,0,32
235,53233.581,105.3159999999989,0,0,0,1.4395999269224828,0.1124341104134747,1.3234308119097402,0,0,1.574,0,32
236,53338.684,105.1030000000028,0.12072808074951172,5.14361279296875,0,1.3589831687728648,0.09583602922700862,1.3373236327556153,0,0,1.555,0,32
237,53403.747,65.06300000000192,0.1129503173828125,3.272953369140625,0,1.2554327842520412,0.08000589291142006,1.3498201901998945,0,0,1.549,0,32
238,53508.941,105.19399999999587,0.1016692886352539,1.7915244140625,0,1.034491554242079,0.06878342582109652,1.3812186634432726,0,0,1.123,0,32
239,53614.471,105.52999999999884,0.09204523468017578,0.9533305053710938,0,0.5268625412995283,0.10677924363701309,1.4492341443934915,0,0,1.543,0,32
240,53719.451,104.9800000000032,0.08249327850341796,0.8193595581054688,0,-0.4220206131322289,0.05291838292046808,1.4034017982361204,0,0,0,0,32
241,53827.728,108.27700000000186,0.07477127075195313,1.0331993408203124,0,-0.8749335540247575,-0.15992451936024044,1.3269563769987687,0,0,0.324,0,32
242,53889.831,62.10299999999552,0.07173933410644531,1.480996337890625,0,-1.145267601866159,-0.2801951581151696,1.292049791958882,0,0,0.329,0,32
243,53995.117,105.28600000000006,0,0,0,-1.6191244937826197,-0.5161287663997631,1.347202196321903,0,0,2.09,0,32
244,54100.311,105.19400000000314,0,0,0,-1.9733739720599086,-0.6363121386920927,1.569993475338979,0,0,0.243,0,32
245,54205.596,105.28499999999622,0,0,0,-2.0845688987044673,-0.8223118770771284,1.7376148967005147,0,0,0.243,0,32
246,54270.812,65.21600000000035,0,0,0,-2.175378379685732,-1.0291683000234961,1.836854317968912,0,0,0.244,0,32
247,54376.098,105.28600000000006,0,0,0,-2.667596135333173,-1.4726390096627358,2.3677311165480273,0,0,0.242,0,32
248,54481.475,105.37700000000041,0,0,0,1.50196054109624,-1.4256372929065284,-1.699688892054678,0,0,0.243,0,32
249,54586.486,105.0109999999986,0,0,0,0.513406052766652,-1.5178081307043487,-0.668530916683908,0,0,0.243,0,32
250,54651.55,65.06400000000576,0,0,0,-0.0024609142453120045,-1.4944207187276246,-0.1360135086079181,0,0,0.245,0,32
251,54756.988,105.43799999999464,0,0,0,0.4580442088933918,-1.4080967339239852,-0.6509379978238051,0,0,0,0,32
252,54862.152,105.16400000000431,-2.85094287109375,-2.254217041015625,0,0.7080451709490595,-1.267510462675842,-0.9278868435302654,0,0,0.243,0,32
253,54967.437,105.28499999999622,-1.8917562255859375,-1.141712158203125,0,0.6082646976125438,-1.1537149954458115,-0.8435525340738994,0,0,0.243,0,32
254,55032.501,65.06399999999849,-1.616685302734375,-0.6613631591796875,0,0.4585852609615101,-1.1106053629215518,-0.6865776211495294,0,0,0.242,0,32
255,55137.756,105.25500000000466,-1.369216064453125,-0.1640755157470703,0,0.17072810743008532,-1.0792417962632135,-0.3511427922087391,0,0,0.243,0,32
256,55243.133,105.37700000000041,-1.076460205078125,0.11433517456054687,0,-0.08274605983705116,-0.9999165817600713,0.013561208287995941,0,0,0.243,0,32
257,55348.236,105.10299999999552,-0.8948988647460937,0.2605069580078125,0,-0.2989923541591486,-0.9458288282407671,0.2111150263212341,0,0,0.257,0,32
258,55456.573,108.33699999999953,-0.6934578857421875,0.16481391906738282,0,-0.2540850325053345,-0.8236034207236043,0.20814796659284376,0,0,0.246,0,32
259,55518.615,62.04200000000128,-0.6184595336914063,0.13583859252929686,0,-0.23855160216258497,-0.7757115860488797,0.19058995431778078,0,0,0.356,0,32
260,55623.748,105.13300000000163,-0.5223323974609375,0.12924557495117187,0,-0.2906147737495758,-0.7061602153569058,0.2763728870533021,0,0,0.317,0,32
261,55729.064,105.3159999999989,-0.4484656982421875,0.10167283630371093,0,-0.2762856205907024,-0.6474298860272966,0.3135134935357414,0,0,0.3,0,32
262,55834.228,105.16400000000431,-0.39476165771484373,0.08104425811767578,0,-0.25158921167498255,-0.6169913438725154,0.3081553327321188,0,0,0.304,0,32
263,55899.566,65.3379999999961,-0.35994476318359375,0.067531005859375,0,-0.23347269403928148,-0.5770407572943651,0.3227811918638313,0,0,0.3,0,32
264,56004.638,105.07200000000012,-0.30743917846679686,0.04882910919189453,0,-0.20638518404832948,-0.4882034983678538,0.3958581276448339,0,0,0.296,0,32
265,56109.863,105.22499999999854,-0.263841796875,0.03736972427368164,0,-0.20432569553097618,-0.38634608322146474,0.4675038934392011,0,0,0.311,0,32
266,56215.118,105.25500000000466,-0.22910842895507813,0.029839000701904296,0,-0.22530455313994802,-0.2832843908911996,0.5264262089865296,0,0,0.328,0,32
267,56280.334,65.21600000000035,-0.21152047729492188,0.02556277847290039,0,-0.2337694000121205,-0.2268753494667429,0.5589940528287438,0,0,0.345,0,32
268,56385.681,105.3469999999943,-0.18741322326660156,0.01944400978088379,0,-0.2428800187075309,-0.1426981196430564,0.5996602244002117,0,0,0.381,0,32
269,56491.027,105.346000000005,-0.16738243103027345,0.014501612663269043,0,-0.2460216113611207,-0.06988298324985295,0.6440090406933876,0,0,0.408,0,32
270,56595.886,104.85899999999674,-0.05037287139892578,-0.05658282089233398,0,-0.23645720706019177,-0.01377064779823526,0.6884276701566433,0,0,0.274,0,32
271,56661.193,65.3070000000007,-0.047194759368896486,-0.05315238571166992,0,-0.2236639436430733,0.013177235852557187,0.7121117881062063,0,0,0.28,0,32
272,56766.326,105.13300000000163,-0.04252271270751953,-0.04810027313232422,0,-0.2183406894244906,0.046949356878647465,0.7450286977988194,0,0,0.275,0,32
273,56871.459,105.13300000000163,0.0015108282566070556,-0.03692319107055664,0,-0.20804324683772407,0.08194320838113378,0.7746992950827232,0,0,0.296,0,32
274,56976.806,105.3469999999943,0.014210129737854004,-0.03143900299072266,0,-0.19210839076701586,0.10094984393535202,0.805818515645782,0,0,0.304,0,32
275,57084.747,107.94100000000617,0.010432125091552735,-0.025860279083251954,0,-0.14456562194269032,0.10861183935160713,0.8314050424800189,0,0,0.314,0,32
276,57147.277,62.529999999998836,0.008448310852050781,-0.04155010604858399,0,-0.1091703447122453,0.11049679494376101,0.848596535612163,0,0,0.33,0,32
277,57252.41,105.13300000000163,0.005100576877593994,-0.03825635147094727,0,-0.041172317054546236,0.09354964790689607,0.8647757377781504,0,0,0.562,0,32
278,57357.94,105.52999999999884,-0.01763929557800293,-0.01529282283782959,0,0.040823251204147364,0.05864306286700947,0.872263200269206,0,0,0.554,0,32
279,57463.409,105.46899999999732,-0.015861220359802246,-0.013782285690307617,0,0.06869615935849681,0.03827507049623565,0.8786685586240253,0,0,0.543,0,32
280,57528.076,64.66700000000128,-0.01485491180419922,-0.012917470932006837,0,0.04806636759992384,0.02642428487519415,0.8743401420790793,0,0,0.545,0,32
281,57633.331,105.25499999999738,-0.013372557640075684,-0.011635197639465331,0,0.08169886228585456,0.03118903373313867,0.9002233748861551,0,0,0.536,0,32
282,57738.433,105.10199999999895,-0.012031893730163574,-0.010529007911682129,0,0.1252099205380732,0.014521139376592822,0.9188983978824946,0,0,0.529,0,32
283,57843.719,105.28600000000006,0.0034073078632354736,-0.00212171745300293,0,0.13486159130160186,0.057368972513053604,0.9165422033923022,0,0,0.52,0,32
284,57908.782,65.06300000000192,0.003197634935379028,-0.0020250568389892577,0,0.18114772306449142,0.08117526351025627,0.9260018879381113,0,0,0.436,0,32
285,58014.526,105.74399999999878,0.002869550943374634,-0.001802309513092041,0,0.20331340456481944,0.02473131550075965,0.9462826138462858,0,0,0.419,0,32
286,58119.415,104.88900000000285,0.002583700656890869,-0.0015899220705032349,0,0.2027548992041813,-0.03569198320328404,0.961816044189035,0,0,0.395,0,32
287,58224.609,105.19399999999587,0.0023285129070281982,-0.0014170670509338378,0,0.1919164045492965,-0.06174974893555937,0.9596867425016019,0,0,0.397,0,32
288,58290.039,65.43000000000029,0.0021875903606414795,-0.0013122453689575196,0,0.16320573835398977,-0.0962723615400072,0.9438915127710534,0,0,0.437,0,32
289,58394.897,104.85800000000017,0.0019862802028656006,-0.0011666592359542848,0,0.11618656830526253,-0.16315337847642994,0.8951095601778118,0,0,0.464,0,32
290,58500.091,105.19400000000314,0.0018004963397979736,-0.0010571647882461547,0,0.05935864786032714,-0.20144590226518552,0.8344593686710089,0,0,0.44,0,32
291,58605.407,105.3159999999989,0.0016190674304962158,-0.0009631848931312561,0,0.0192684349420174,-0.19675096657732077,0.7668976733263084,0,0,0.455,0,32
292,58714.05,108.64300000000367,0.00145148503780365,-0.0008741094470024109,0,-0.007120943348136864,-0.17551030958054975,0.7051653776832689,0,0,0.533,0,32
293,58775.787,61.736999999993714,0.028612617492675782,0.00731987190246582,0,-0.025761059759436305,-0.1597674397275609,0.6667506808468737,0,0,0.558,0,32
294,58880.859,105.07200000000012,0.025614065170288088,0.0065798072814941405,0,-0.037664205258037625,-0.12130038301360589,0.5977927221005778,0,0,0.622,0,32
295,58986.267,105.40800000000309,0.057864955902099606,0.008721392631530761,0,-0.0043982297150257105,-0.07581710270663368,0.4929333406407585,0,0,0.691,0,32
296,59091.552,105.28500000000349,0.09645583343505859,-0.014478697776794433,0,0.06536258048718764,-0.048014007722364,0.3541273052296494,0,0,0.724,0,32
297,59157.012,65.45999999999913,0.09036371612548828,-0.013445018768310547,0,0.10864674593664701,-0.046338491640449446,0.25329963434193703,0,0,0.753,0,32
298,59261.779,104.76699999999983,0.08132560729980469,-0.0120903377532959,0,0.12491321456523416,-0.04370304446993801,0.07126179335892847,0,0,0.777,0,32
299,59367.218,105.43899999999849,0.07316155242919922,-0.011027434349060058,0,0.11039207518864136,-0.02925171826342496,-0.13292427583188815,0,0,0.805,0,32
300,59472.381,105.16300000000047,0.06587376403808594,-0.010373644828796387,0,0.0965516142203263,0.03902556207459321,-0.3695909224023192,0,0,0.837,0,32
301,59537.384,65.00299999999697,0.061908897399902345,-0.010038246154785156,0,0.10079276430267253,0.08766788832767516,-0.5332678996543474,0,0,0.845,0,32
302,59642.578,105.19400000000314,0.05588494873046875,-0.009179970741271973,0,0.09862855603019956,0.11599458208754312,-0.7895520470171948,0,0,0.857,0,32
303,59747.985,105.40699999999924,0.05021734619140625,-0.008136712074279785,0,0.09016370915802706,0.10061823137747308,-1.0184170718312113,0,0,0.786,0,32
304,59853.24,105.25499999999738,0.04513996124267578,-0.007234554767608642,0,0.08330456519768933,0.08646361114379908,-1.2127769373332997,0,0,0.824,0,32
305,59918.304,65.06399999999849,0.24731503295898438,0.20752029418945311,0,0.08414232323864662,0.06489134158914917,-1.3126272238398953,0,0,0.825,0,32
306,60023.376,105.07200000000012,0.24735881042480468,0.24453349304199218,0,0.07056366165813074,0.04091051766674708,-1.459828292953097,0,0,0.822,0,32
307,60128.814,105.43800000000192,0.24413624572753906,0.24126985168457032,0,0.05946336761544681,0.017680185322702557,-1.5858585182396077,0,0,0.379,0,32
308,60234.222,105.40800000000309,0.20386370849609375,0.1881676025390625,0,0.05361651462126581,0.007958701389094143,-1.6846965137800465,0,0,0.356,0,32
309,60342.407,108.18499999999767,0.16484797668457032,0.16593487548828126,0,0.05510004448546098,0.022759093446006056,-1.7382083086461926,0,0,0.338,0,32
310,60404.388,61.98099999999977,0.15450479125976563,0.15544282531738282,0,0.0733736417538416,0.03530801076784529,-1.7511935582810303,0,0,0.322,0,32
311,60509.704,105.3159999999989,0.11519826507568359,0.1796881866455078,0,0.1201310124147697,0.04797910113732413,-1.749832201464475,0,0,0.3,0,32
312,60614.868,105.16400000000431,0.10356938934326172,0.16243940734863282,0,0.12664109052470854,0.0020594885173533086,-1.7357823009859206,0,0,0.282,0,32
313,60720.184,105.3159999999989,0.09345336151123047,0.14610588073730468,0,0.08267624666697139,-0.07047639519553103,-1.7138958721659117,0,0,0.255,0,32
314,60785.339,65.15499999999884,0.08758787536621093,0.13672782897949218,0,0.07129669994396835,-0.07518878417591572,-1.7072112611307735,0,0,0.248,0,32
315,60890.472,105.13300000000163,0.07883704376220703,0.12279776763916016,0,0.05129522671611334,-0.07522369076095559,-1.6564047266052184,0,0,0.243,0,32
316,60995.788,105.3159999999989,0.0708863525390625,0.11037115478515624,0,0.04040437218366873,-0.05982988675836561,-1.5710581261826957,0,0,0.242,0,32
317,61100.982,105.19400000000314,0.1478184814453125,0.06099846649169922,0,0.03122394031817855,-0.008429940287132611,-1.4785207692419562,0,0,0.242,0,32
318,61166.076,65.09399999999732,0.13858522033691406,0.056969398498535155,0,0.02633701841259443,0.03736749928519859,-1.4134898013126476,0,0,0.243,0,32
319,61271.362,105.28600000000006,0.1253647689819336,0.051119598388671875,0,0.020472712125893484,0.1067094304669333,-1.2956800768030303,0,0,0.242,0,32
320,61376.708,105.34599999999773,0.11352852630615234,0.04595532608032227,0,0.01731366617978375,0.15327481491014203,-1.1605915926986694,0,0,0.243,0,32
321,61481.781,105.07300000000396,0.10280308532714844,0.04090481567382812,0,0.03923500158483253,0.18821630653506852,-1.0373538942153497,0,0,0.242,0,32
322,61546.997,65.21600000000035,-0.03072644233703613,-0.04069046401977539,0,0.060842177724522335,0.20420352248333654,-0.9571734683787301,0,0,0.242,0,32
323,61652.221,105.2239999999947,-0.027701290130615234,-0.03653528594970703,0,0.08510225432724351,0.2118829711921116,-0.8302705784662224,0,0,0.242,0,32
324,61757.385,105.16400000000431,-0.02479307746887207,-0.03295634841918945,0,0.07936012108818216,0.1836784504798832,-0.7209431541212977,0,0,0.242,0,32
325,61862.823,105.43799999999464,-0.02221189308166504,-0.029777692794799804,0,0.0404741853537485,0.15646876744129162,-0.6409721677949176,0,0,0.243,0,32
326,61971.099,108.2760000000053,-0.020006208419799804,-0.026865318298339845,0,0.013700834628155488,0.16070991752363786,-0.6183876072741109,0,0,0.243,0,32
327,62033.111,62.01199999999517,-0.01881964874267578,-0.02515666961669922,0,0.016249015336067207,0.1838180768200428,-0.6145129763346836,0,0,0.243,0,32
328,62138.275,105.16400000000431,-0.01697966957092285,-0.022714649200439453,0,-0.007103490055616921,0.19619246121668257,-0.5731312197698979,0,0,0.243,0,32
329,62243.469,105.19399999999587,0.034393844604492185,0.02537249755859375,0,-0.0027052603405912107,0.204378055408536,-0.5585751738082652,0,0,0.242,0,32
330,62348.785,105.31600000000617,0.022142095565795897,0.029088685989379883,0,-0.009965830028887622,0.18011797880581482,-0.5593256653866228,0,0,0.243,0,32
331,62414.001,65.21599999999307,0.01671017265319824,0.024556797027587892,0,-0.015254177662430441,0.1616174887346749,-0.5641253208296072,0,0,0.242,0,32
332,62519.47,105.4690000000046,0.014954702377319336,0.022044506072998047,0,0.011397000015522971,0.1214225560612455,-0.5527632273991241,0,0,0.242,0,32
333,62624.42,104.94999999999709,0.01340910530090332,0.019833141326904297,0,0.0815068760681352,0.08435176274888595,-0.5159018735970039,0,0,0.242,0,32
334,62729.522,105.10199999999895,0.012027570724487305,0.01792885971069336,0,0.08717919613711676,0.013683381335635543,-0.5022708521389281,0,0,0.243,0,32
335,62794.799,65.27700000000186,0.011268121719360352,0.01684132194519043,0,0.100338978697154,-0.00809832772925369,-0.5013807342204111,0,0,0.242,0,32
336,62900.207,105.40800000000309,0.005668050289154053,0.014766068458557128,0,0.11719885927141924,-0.009232791743050004,-0.4949928291581118,0,0,0.243,0,32
337,63005.432,105.22499999999854,0.006643789291381836,0.020949592590332033,0,0.10978120995044333,-0.02389355745980237,-0.48766244629973554,0,0,0.242,0,32
338,63110.443,105.0109999999986,0.009178757667541504,0.027986631393432618,0,0.10548769999053727,-0.013037609512397642,-0.47383943862394057,0,0,0.243,0,32
339,63175.628,65.18499999999767,0.01802157211303711,0.03057227325439453,0,0.10707594960985212,-0.0003316125578789226,-0.4683241981876384,0,0,0.243,0,32
340,63280.883,105.25500000000466,0.018873998641967774,0.02758259963989258,0,0.10203194807158851,0.018203784098300854,-0.45144686432085324,0,0,0.242,0,32
341,63386.077,105.19399999999587,0.018756675720214843,0.021625263214111328,0,0.09283406291357839,0.047490408946765705,-0.4344997172839883,0,0,0.243,0,32
342,63491.394,105.31700000000274,0.03183411979675293,0.011971625328063965,0,0.0857131195654415,0.07628834160467216,-0.4277627463712902,0,0,0.243,0,32
343,63599.67,108.27599999999802,0.028713726043701173,0.010728767395019531,0,0.07963937376850125,0.10004227272431496,-0.40910517666747087,0,0,0.242,0,32
344,63661.621,61.95100000000093,0.026925168991088867,0.01003729248046875,0,0.07826056365942573,0.10817550703860855,-0.40139082137365595,0,0,0.242,0,32
345,63766.967,105.34599999999773,0.010820374488830567,-0.0016167306900024415,0,0.0786096295098246,0.1062207382763749,-0.3955439683794749,0,0,0.243,0,32
346,63872.131,105.16400000000431,0.0031444041728973388,-0.0036843974590301514,0,0.0715584993317675,0.08925613794699,-0.38933059624237504,0,0,0.242,0,32
347,63977.508,105.37700000000041,-0.023513423919677735,-0.013315258979797363,0,0.06965609044709369,0.07506661112827612,-0.3876201735754206,0,0,0.243,0,32
348,64042.541,65.03299999999581,-0.021812707901000976,-0.016468097686767578,0,0.07045894190301108,0.07363544114164076,-0.38519416591514855,0,0,0.242,0,32
349,64147.857,105.31600000000617,-0.014375683784484863,-0.011377704620361329,0,0.06967354373961364,0.07414158662471912,-0.37906806024064843,0,0,0.243,0,32
350,64252.96,105.10299999999552,-0.01086411476135254,0.0027103004455566407,0,0.06583381938522612,0.06396631708559218,-0.379818551819006,0,0,0.242,0,32
351,64358.398,105.43800000000192,-0.0005237026810646057,0.0060313549041748045,0,0.06544984694978735,0.06332054526235427,-0.3777416100091327,0,0,0.243,0,32
352,64423.339,64.9409999999989,0.005095257759094239,0.013805899620056152,0,0.06332054526235427,0.06297147941195541,-0.3786317279276498,0,0,0.243,0,32
353,64528.503,105.16399999999703,0.008606493949890137,0.01833721351623535,0,0.06298893270447535,0.06574655292262639,-0.3744429377228634,0,0,0.242,0,32
354,64633.941,105.43800000000192,0.010729877471923829,0.017341909408569337,0,0.06375687757535285,0.06635741816082441,-0.37014942776295734,0,0,0.242,0,32
355,64739.318,105.37700000000041,0.008994924545288085,0.02312068748474121,0,0.05930628798276732,0.06621779182066485,-0.37383207248466543,0,0,0.242,0,32
356,64804.26,64.94200000000274,0.008026315689086913,0.02062741470336914,0,0.05644394800949662,0.0632158255072346,-0.3765896927028165,0,0,0.242,0,32
357,64909.454,105.19399999999587,0.010496872901916504,0.019095956802368166,0,0.041975168510463616,0.06223844112611779,-0.3825761720371571,0,0,0.243,0,32
358,65014.556,105.10199999999895,0.01251583194732666,0.010775891304016114,0,0.039182641707272696,0.06787585461005946,-0.38234927923439777,0,0,0.242,0,32
359,65120.147,105.59100000000035,0.010478583335876465,0.006387656688690186,0,0.03789109806079689,0.07339109504636156,-0.3793473129209675,0,0,0.243,0,32
360,65228.302,108.15500000000611,0.009162325859069825,0.0016537815332412719,0,0.033562681515850956,0.08173376887089445,-0.3777765165941726,0,0,0.243,0,32
361,65290.344,62.041999999994005,0.0027001988887786865,-0.0010453933477401734,0,0.029391344603584505,0.08246680715673206,-0.3763802531925772,0,0,0.242,0,32
362,65400.573,110.22899999999936,-0.019802257537841796,0.017302377700805664,0,0.02138028333693054,0.07213445798492564,-0.370899919341315,0,0,0.242,0,32
363,65505.828,105.25500000000466,-0.015750925064086915,0.02367042350769043,0,0.0317649923862968,0.08379325738824776,-0.39048251354869135,0,0,0.242,0,32
364,65611.145,105.31700000000274,-0.009563626289367676,0.018846195220947267,0,0.024766222085799535,0.06874851923605664,-0.4094891491029096,0,0,0.243,0,32
365,65676.3,65.15499999999884,-0.004519811153411865,0.015031661033630371,0,0.016161748873467493,0.06033603224144397,-0.41168826396042246,0,0,0.242,0,32
366,65781.402,105.10199999999895,0.0015561777353286744,-0.00905581283569336,0,0.026529004630313806,0.05930628798276732,-0.4158421475801689,0,0,0.243,0,32
367,65886.688,105.28599999999278,-0.0002774013876914978,-0.014579977035522461,0,0.0407534380340676,0.05028293574995663,-0.41413172491321454,0,0,0.242,0,32
368,65991.943,105.25500000000466,-0.007339003562927246,-0.023070852279663087,0,0.04897393881096089,0.043406338497098976,-0.40561451816348215,0,0,0.243,0,32
369,66057.098,65.15499999999884,-0.003983268260955811,-0.011008740425109863,0,0.06188937527571892,0.04536110725933262,-0.39664352580823137,0,0,0.243,0,32
370,66162.292,105.19400000000314,-0.0014135268926620482,-0.013741375923156739,0,0.08672541053159824,0.045326200674292744,-0.37522833588626087,0,0,0.242,0,32
371,66267.547,105.25500000000466,-0.0031698691844940187,-0.003573017120361328,0,0.10426596951414126,0.04178318229274425,-0.33941417963533727,0,0,0.242,0,32
372,66372.741,105.19399999998859,-0.007487710952758789,0.013466196060180664,0,0.12849113953182253,0.04515166774909331,-0.2919412239810915,0,0,0.242,0,32
373,66481.14,108.39900000000489,-0.0024978272914886477,0.039863571166992184,0,0.15273376284202375,0.05708971983273452,-0.2396860661763813,0,0,0.243,0,32
374,66543.151,62.0109999999986,0.013566795349121094,0.06594044494628906,0,0.15892968168660365,0.06560692658246683,-0.2141693525122242,0,0,0.243,0,32
375,66648.406,105.25500000000466,0.034854854583740234,0.08526619720458985,0,0.15006340908647248,0.0774053523259485,-0.18774506763703,0,0,0.243,0,32
376,66753.723,105.31699999999546,0.02419240951538086,0.08088674163818359,0,0.14175564184697945,0.08396779031344719,-0.17327628813799706,0,0,0.242,0,32
377,66858.734,105.0109999999986,-0.0004096655547618866,0.04224182891845703,0,0.14233160050013755,0.0847706417693646,-0.1737824336210754,0,0,0.243,0,32
378,66924.438,65.7039999999979,-0.012980978965759277,0.009271575927734374,0,0.13936454077174723,0.07674212721019068,-0.1772207322475042,0,0,0.242,0,32
379,67029.235,104.79700000000594,-0.024364948272705078,-0.013511665344238281,0,0.13631021458075712,0.07096508738608943,-0.17325883484547708,0,0,0.243,0,32
380,67134.338,105.1030000000028,-0.026718542098999022,-0.03071083450317383,0,0.13149310584525278,0.06637487145334435,-0.17289231570255828,0,0,0.243,0,32
381,67240.203,105.86499999999069,-0.02292033004760742,-0.04107613754272461,0,0.12636183784438945,0.060842177724522335,-0.18065903087393306,0,0,0.243,0,32
382,67305.145,64.94200000001001,-0.01572427558898926,-0.044412940979003904,0,0.12903219159994078,0.05794493116621174,-0.17666222688686603,0,0,0.242,0,32
383,67410.247,105.10199999999895,-0.017772087097167967,-0.05142856597900391,0,0.13980087308474579,0.06347762489503377,-0.1597674397275609,0,0,0.242,0,32
384,67515.289,105.04200000000128,-0.02020313262939453,-0.05103928756713867,0,0.15512486391725602,0.05286602304290824,-0.140359378445384,0,0,0.243,0,32
385,67620.391,105.10199999999895,-0.055086639404296874,-0.07326287841796875,0,0.152978108937303,0.02614503219487506,-0.08438666933392583,0,0,0.242,0,32
386,67685.638,65.24700000000303,-0.07919542694091797,-0.04068919372558594,0,0.11890928193837366,-0.012409290981679684,-0.011711159280881954,0,0,0.243,0,32
387,67790.832,105.19399999998859,-0.07149489593505859,-0.03647503662109375,0,0.0346273323595675,-0.07803367085666647,0.17502161738999136,0,0,0.242,0,32
388,67896.301,105.46900000001187,-0.06427979278564454,-0.03284688949584961,0,0.044418629463255685,-0.06211626807847819,0.4320038964536364,0,0,0.242,0,32
389,68001.281,104.97999999999593,-0.057756935119628906,-0.029520551681518556,0,0.06766641509982015,-0.01960004749989632,0.6772750162363995,0,0,0.243,0,32
390,68109.741,108.45999999999185,-0.0521529541015625,-0.026595232009887695,0,0.03258529713473413,-0.08232718081657252,0.8327663992965744,0,0,0.243,0,32
391,68171.875,62.13400000000547,-0.04893222808837891,-0.02480898666381836,0,0.00731292956585624,-0.09801769079200155,0.8839743595500881,0,0,0.242,0,32
392,68276.947,105.07200000000012,-0.0440068359375,-0.02264122009277344,0,0.07243116395776468,-0.08918632477691024,0.9983981453108363,0,0,0.243,0,32
393,68382.385,105.43799999999464,-0.039562660217285155,-0.020353023529052734,0,0.0759916356318331,-0.07463027881527752,1.1142880076432597,0,0,0.243,0,32
394,68487.457,105.07200000000012,-0.035631877899169925,-0.018314525604248046,0,0.06983062337229314,-0.08248426044925201,1.2318359327650776,0,0,0.242,0,32
395,68552.612,65.15499999999884,-0.033362876892089846,-0.01718222999572754,0,0.080948370707497,-0.0744208393050382,1.2622046617497793,0,0,0.243,0,32
396,68657.836,105.22400000000198,-0.029955690383911132,-0.015396368980407716,0,0.10456267548698028,-0.024923301718479025,1.2680340614514403,0,0,0.242,0,32
397,68763,105.16400000000431,-0.026964828491210936,-0.01369332981109619,0,0.07070328799829029,0.0278554548618295,1.26810387462152,0,0,0.242,0,32
398,68868.53,105.52999999999884,-0.02429399108886719,-0.012342833518981933,0,-0.0005061454830783556,0.051888638661791414,1.2903044627068878,0,0,0.243,0,32
399,68933.532,65.00200000000768,-0.02274678611755371,-0.01156286907196045,0,0.0008203047484373349,0.03754203221039803,1.2928351901222794,0,0,0.243,0,32
400,69038.696,105.16399999998976,-0.0204598331451416,-0.010408526420593261,0,0.0030368728984701333,-0.004136430327226561,1.285295367753664,0,0,0.242,0,32
401,69143.859,105.16300000000047,-0.01841548728942871,-0.009368414878845216,0,0.0034033920413889425,-0.0008203047484373349,1.2842132636174277,0,0,0.242,0,32
402,69249.176,105.31700000001001,-0.016575565338134767,-0.008432255744934083,0,0.0038048177693476384,0.0016057029118347831,1.2836198516717496,0,0,0.242,0,32
