n,time,dt,vx,vy,vz,roll,pitch,yaw,x,y,z,detected,battery
0,305633.178,NaN,0.00243395733833313,0.0005881261825561524,0,0.03967133389783111,0.04534365396681268,1.400172939119931,0,0,0.243,0,28
1,305698.333,NaN,0.0022804090976715086,0.0005510148406028748,0,0.03979350694547071,0.045326200674292744,1.4001903924124508,0,0,0.243,0,28
2,305768.432,NaN,0.0021258599758148195,0.0005136664509773254,0,0.039950586578150205,0.045273840796732905,1.4002078457049707,0,0,0.243,0,28
3,305833.648,NaN,0.001991745471954346,0.00048125463724136354,0,0.040090212918309755,0.04522148091917308,1.4001903924124508,0,0,0.243,0,28
4,305898.803,NaN,0.0018660861253738403,0.0004508967101573944,0,0.040194932673429405,0.045116761164053415,1.400172939119931,0,0,0.243,0,28
5,305963.928,NaN,0.0017483636140823364,0.0004224441349506378,0,0.04031710572106901,0.045116761164053415,1.400103125949851,0,0,0.243,0,28
6,306029.052,NaN,0.0016380624771118164,0.00039580515027046203,0,0.040194932673429405,0.04504694799397364,1.4005569115553695,0,0,0.243,0,28
7,306094.39,65.33799999998882,0.0015347462892532349,0.0003708506524562836,0,0.039584067435231386,0.04536110725933262,1.4005743648478897,0,0,0.243,0,28
8,306159.362,64.97200000000885,0.001437867522239685,0.00034750500321388246,0,0.03961897402027128,0.044436082755775624,1.4001903924124508,0,0,0.243,0,28
9,306224.548,65.18599999998696,0.0013471499681472778,0.0003255930840969086,0,0.03956661414271145,0.04427900312309614,1.4003823786301703,0,0,0.243,0,28
10,306289.642,65.09399999998277,0.001262147307395935,0.0003050704002380371,0,0.03953170755767157,0.0439822971502571,1.4005045516778096,0,0,0.243,0,28
11,306354.827,65.18499999999767,0.001182514786720276,0.00028583377599716186,0,0.03953170755767157,0.04379031093253773,1.4006441780179695,0,0,0.243,0,28
12,306420.043,65.2160000000149,0.0011079071760177613,0.00026780965924263,0,0.039514254265151615,0.0436157780073383,1.4004696450927698,0,0,0.243,0,28
13,306485.137,65.09399999998277,0.0010380086898803711,0.00025092050433158877,0,0.039496800972631675,0.04349360495969869,1.4005394582628496,0,0,0.243,0,28
14,306550.323,65.18599999998696,0.0009725126624107361,0.00023509971797466278,0,0.03960152072775134,0.043179445694339715,1.400818710943169,0,0,0.243,0,28
15,306615.722,65.399000000034,0.0009111511707305908,0.00022028234601020812,0,0.03944444109507184,0.04293509959906051,1.400103125949851,0,0,0.243,0,28
16,306680.694,64.97200000000885,0.000853655755519867,0.0002064121663570404,0,0.03900810878207326,0.04251622057858187,1.4006092714329295,0,0,0.243,0,28
17,306745.88,65.18599999998696,0.0007998076677322388,0.00019337676465511322,0,0.03935717463247213,0.042655846918741414,1.4002078457049707,0,0,0.243,0,28
18,306810.974,65.09399999998277,0.0007493313550949096,0.00018119472265243532,0,0.039426987802551904,0.04202752838802345,1.4005918181404096,0,0,0.243,0,28
19,306876.159,65.18499999999767,0.0007020632028579711,0.000169770210981369,0,0.03900810878207326,0.04214970143566306,1.4002602055825306,0,0,0.243,0,28
20,306941.406,65.24700000003213,0.0006577614545822144,0.00015906968712806703,0,0.03907792195215303,0.041713369122664476,1.4006267247254494,0,0,0.242,0,28
21,307006.683,65.27700000000186,0.000616263210773468,0.0001490388661623001,0,0.03902556207459321,0.04159119607502487,1.4011154169160078,0,0,0.243,0,28
22,307071.685,65.00199999997858,0.0005773957371711731,0.00013963879644870758,0,0.038432150128915134,0.04199262180298357,1.40034747204513,0,0,0.242,0,28
23,307137.054,65.36900000000605,0.0005409422516822814,0.00013085207343101503,0,0.038659042931674395,0.04073598474154765,1.4002427522900107,0,0,0.243,0,28
24,307202.026,64.97200000000885,0.0005068280100822449,0.0001226033791899681,0,0.037629298672997746,0.04127703680966589,1.4000333127797713,0,0,0.242,0,28
25,307267.211,65.18499999999767,0.00047483447194099425,0.00011487884074449539,0,0.03820525732615587,0.0402298392584693,1.4002776588750507,0,0,0.242,0,28
26,307332.336,65.125,0.00044486352801322937,0.00010764019191265106,0,0.03871140280923423,0.039339721339952186,1.4006267247254494,0,0,0.242,0,28
27,307397.583,65.24699999997392,0.0004168362319469452,0.00010084385424852371,0,0.03651228795172138,0.04153883619746504,1.4003300187526104,0,0,0.242,0,28
28,307462.677,65.09400000004098,0.00039051446318626404,0.00009449789673089981,0,0.03710569989739944,0.03993313328563026,1.399509714004173,0,0,0.242,0,28
29,307527.832,65.15499999996973,0.0003659002482891083,0.00008853920549154282,0,0.035238197597765517,0.04138175656478556,1.4003823786301703,0,0,0.242,0,28
30,307593.078,65.24599999998463,0.0003427640199661255,0.00008296964317560195,0,0.038484510006474966,0.03743731245527837,1.3991257415687344,0,0,0.242,0,28
31,307658.355,65.27700000000186,0.0003211536705493927,0.00007775403559207916,0,0.03513347784264585,0.038501963298994905,1.3953907369694665,0,0,0.242,0,28
32,307723.419,65.06400000001304,0.00030089259147644045,0.00007284202426671982,0,0.03600614246864302,0.038414696836395194,1.397659664997059,0,0,0.242,0,28
33,307788.513,65.09399999998277,0.0002818536460399628,0.00006829487532377243,0,0.03743731245527837,0.032724923474893676,1.4035937844538398,0,0,0.242,0,28
34,307853.668,65.15500000002794,0.00026405224204063414,0.00006400687247514725,0,0.03817035074111599,0.030246555937061735,1.4117444720606533,0,0,0.242,0,28
35,307918.762,65.09399999998277,0.00024737562239170077,0.00005997682735323906,0,0.042010075095503516,0.027628562059070234,1.4200696925926664,0,0,0.242,0,28
36,307983.917,65.15500000002794,0.00023176112771034242,0.0000562182329595089,0,0.03899065548955332,0.02623229865747477,1.4276095149612817,0,0,0.243,0,28
37,308049.102,65.18499999999767,0.0002171679437160492,0.00005267085134983063,0,0.031328660073298216,0.030682888250060315,1.4345035655066594,0,0,0.242,0,28
38,308114.257,65.15499999996973,0.00020349633693695068,0.00004938042163848877,0,0.0210835773640915,0.03494149162492648,1.4371913725547305,0,0,0.242,0,28
39,308179.534,65.27700000000186,0.0001906435638666153,0.0000463230088353157,0,0.012217304763960306,0.03260275042725407,1.4342243128263403,0,0,0.242,0,28
40,308244.537,65.00300000002608,0.00017854006588459014,0.00004344765096902847,0,0.00890117918517108,0.014294246573833557,1.424485375600212,0,0,0.242,0,28
41,308309.753,65.2160000000149,0.00016726358234882356,0.00004073429107666016,0,0.0061959188445798695,-0.006789330790257941,1.412494963639011,0,0,0.243,0,28
42,308374.816,65.06299999996554,0.00015673190355300904,0.00003815320506691933,0,-0.0014660765716752368,-0.01741838593490341,1.4063688579645108,0,0,0.242,0,28
43,308439.971,65.15500000002794,0.00014685823023319244,0.00003571854159235954,0,-0.01022762941668677,-0.022183134792847926,1.4052518472432345,0,0,0.243,0,28
44,308505.31,65.33899999997811,0.0001375989764928818,0.00003344809263944626,0,-0.01541125729510993,-0.023858650874762487,1.4089693985499823,0,0,0.242,0,28
45,308570.404,65.09399999998277,-0.012688457489013672,0.016439760208129883,0,-0.012060225131280817,-0.021485003092050196,1.4520615777817223,0,0,0.242,0,28
46,308635.559,65.15500000002794,0.0214022216796875,-0.08227027130126953,0,-0.009145525280450286,-0.01488765851951163,1.4580829637011028,0,0,0.242,0,28
47,308701.202,65.64299999998184,0.09800104522705078,-0.07796761322021484,0,0.01022762941668677,0.0003665191429188092,1.4700733756623037,0,0,0.247,0,28
48,308765.838,64.6359999999986,0.07790542602539062,-0.14189199829101562,0,0.03975860036043082,0.03665191429188092,1.4859384185629323,0,0,0.26,0,28
49,308831.054,65.2160000000149,0.021022262573242186,-0.02699668884277344,0,0.08077383778229758,0.07354817467904105,1.5109664400365308,0,0,0.32,0,28
50,308896.148,65.09399999998277,0.013307098388671876,0.0820778045654297,0,0.10046115174479361,0.08742354223239597,1.5347203711561737,0,0,0.362,0,28
51,308961.364,65.2160000000149,-0.03231696319580078,0.14324772644042968,0,0.09306095571633764,0.08103563717009671,1.539642199646798,0,0,0.454,0,28
52,309026.55,65.18599999998696,0.003908798217773437,0.1450602111816406,0,0.04571017310973149,0.048624872960562025,1.5334462808022178,0,0,0.548,0,28
53,309091.613,65.06300000002375,0.03422686004638672,0.07729339599609375,0,0.002775073510670984,0.018203784098300854,1.5265522302568402,0,0,0.592,0,28
54,309156.799,65.18599999998696,0.02722511863708496,0.06131325149536133,0,-0.014905111812031574,0.0031415926535897933,1.5191869408134244,0,0,0.678,0,28
55,309222.076,65.27700000000186,0.018434423446655274,0.008780683517456055,0,-0.017662732030182614,-0.0002617993877991494,1.511018799914091,0,0,0.754,0,28
56,309287.109,65.03299999999581,0.028341718673706055,-0.06772962951660157,0,-0.00830776723949301,0.002897246558310587,1.5027110326745978,0,0,0.776,0,28
57,309352.386,65.27700000000186,0.015560340881347657,-0.11770162963867188,0,0.011065387457644049,0.00832522053201295,1.4961835012721387,0,0,0.805,0,28
58,309417.388,65.00199999997858,0.03182089805603027,-0.19417628479003907,0,0.02925171826342496,0.014660765716752367,1.4901970219377985,0,0,0.818,0,28
59,309482.757,65.36900000000605,0.03448731994628906,-0.22379200744628908,0,0.04759512870188536,0.0226543736908864,1.485659165882613,0,0,0.814,0,28
60,309547.882,65.125,0.04926612854003906,-0.23176449584960937,0,0.06129596333004085,0.02726204291615143,1.481435469092787,0,0,0.796,0,28
61,309613.006,65.12400000001071,0.046306926727294924,-0.22295449829101563,0,0.07010987605261222,0.03242821750205464,1.4785556758269962,0,0,0.783,0,28
62,309678.131,65.125,0.04313029479980469,-0.18969284057617186,0,0.07072074129081023,0.03562217003320427,1.4755711628060857,0,0,0.763,0,28
63,309743.438,65.3070000000298,0.04661740493774414,-0.1456080780029297,0,0.06881833240613641,0.037559485502917975,1.474000366479291,0,0,0.744,0,28
64,309808.349,64.91099999996368,0.03529669952392578,-0.1042656478881836,0,0.06323327879975456,0.03651228795172138,1.4726739162477753,0,0,0.731,0,28
65,309873.626,65.27700000000186,0.03982789993286133,-0.06654981994628906,0,0.05489060497522166,0.03522074430524556,1.4722724905198166,0,0,0.726,0,28
66,309938.72,65.09399999998277,0.04897171020507812,-0.05537570571899414,0,0.047106436511326955,0.036931166972200016,1.4728135425879347,0,0,0.719,0,28
67,310003.906,65.18600000004517,0.032809074401855466,-0.025637668609619142,0,0.036896260387160124,0.040160026088389526,1.4729182623430546,0,0,0.699,0,28
68,310069.122,65.2159999999567,0.02762108039855957,-0.021422256469726564,0,0.028728119487826664,0.0456752665246916,1.473110248560774,0,0,0.698,0,28
69,310134.185,65.06300000002375,0.0038967297077178954,-0.018315881729125977,0,0.024574235868080156,0.05129522671611334,1.473965459894251,0,0,0.69,0,28
70,310199.34,65.15500000002794,-0.0036378650665283203,0.0027674269676208497,0,0.020315632493213994,0.0510334273283142,1.473948006601731,0,0,0.694,0,28
71,310264.831,65.49099999997998,-0.013516629219055176,0.001465523362159729,0,0.01802925117310142,0.047647488579445195,1.4733720479485732,0,0,0.692,0,28
72,310329.742,64.91100000002189,-0.019784828186035157,0.002410281419754028,0,0.018395770316020233,0.0446629755585349,1.472778636002895,0,0,0.911,0,28
73,310394.897,65.15499999996973,-0.04143402481079102,0.003262721300125122,0,0.017872171540421936,0.03902556207459321,1.4719059713768978,0,0,0.722,0,28
74,310460.052,65.15500000002794,-0.04824306106567383,-0.00818684196472168,0,0.018500490071139894,0.03394665395128971,1.4715569055264988,0,0,0.708,0,28
75,310525.177,65.125,-0.033778274536132816,-0.02573053741455078,0,0.019128808601857852,0.029269171555944905,1.4714870923564194,0,0,0.72,0,28
76,310590.423,65.24599999998463,-0.030699935913085938,-0.026029987335205076,0,0.023317598806644243,0.025935592684635737,1.4707016941930218,0,0,0.73,0,28
77,310655.548,65.125,-0.03915439605712891,-0.029062999725341796,0,0.02675589743307307,0.02405063709248186,1.4702304552949834,0,0,0.736,0,28
78,310720.611,65.06299999996554,-0.03923403930664063,-0.04150411605834961,0,0.028274333882308142,0.023108159296404925,1.4704398948052224,0,0,0.748,0,28
79,310786.193,65.58200000005309,-0.025508005142211913,-0.033926036834716795,0,0.03190461872645634,0.023038346126325153,1.469724309811905,0,0,0.745,0,28
80,310850.891,64.69799999997485,-0.039717296600341796,-0.04642381286621094,0,0.036041049053682904,0.022218041377887812,1.469706856519385,0,0,0.725,0,28
81,310916.076,65.18499999999767,-0.017563753128051758,-0.037329544067382814,0,0.04071853144902771,0.022863813201125717,1.469165804451267,0,0,0.738,0,28
82,310981.201,65.125,-0.0073557009696960446,-0.02787683868408203,0,0.04125958351714595,0.023876104167282426,1.4682931398252694,0,0,0.724,0,28
83,311046.356,65.15500000002794,-0.009185462951660157,-0.0179638671875,0,0.04063126498642799,0.02569124658935653,1.468851645185908,0,0,0.74,0,28
84,311111.572,65.2159999999567,-0.000720535159111023,-0.008040060997009277,0,0.03740240587023848,0.025778513051956248,1.468467672750469,0,0,0.737,0,28
85,311176.666,65.09400000004098,-0.013145659446716309,-0.0050065631866455075,0,0.0359188760060433,0.028920105705546043,1.4686596589681882,0,0,0.734,0,28
86,311241.851,65.18499999999767,0.001782637357711792,-0.006587827682495117,0,0.03783873818323706,0.029304078140984794,1.4689040050634676,0,0,0.764,0,28
87,311307.098,65.24699999997392,-0.01647719955444336,0.0011997756958007813,0,0.03923500158483253,0.029670597283903602,1.468467672750469,0,0,0.735,0,28
88,311372.131,65.03299999999581,-0.015596868515014649,0.0043093619346618655,0,0.04122467693210607,0.028640853025226946,1.467595008124472,0,0,0.747,0,28
89,311437.5,65.36900000000605,-0.012604598999023437,0.013148954391479492,0,0.041730822415184415,0.028483773392547457,1.4675775548319518,0,0,0.737,0,28
90,311502.441,64.94099999999162,-0.007485752105712891,0.016359663009643553,0,0.041050144006906625,0.02701769682087222,1.466635077035875,0,0,0.739,0,28
91,311567.596,65.15500000002794,-0.007488240242004394,0.021915157318115233,0,0.03759439208795786,0.026022859147235452,1.4655180663145988,0,0,1.167,0,28
92,311632.72,65.1239999999525,-0.006898670673370361,0.0471599006652832,0,0.033510321638291124,0.0255167136641571,1.4652911735118392,0,0,0.737,0,28
93,311697.814,65.09400000004098,-0.0024192299842834475,0.03133560943603515,0,0.031241393610698498,0.024521875990520327,1.465692599239798,0,0,0.74,0,28
94,311763,65.18599999998696,0.004615737915039063,0.03315539169311523,0,0.028448866807507567,0.021956241990088665,1.4663732776480758,0,0,0.728,0,28
95,311828.277,65.27700000000186,0.008575020790100097,0.025926994323730468,0,0.027488935718910687,0.02033308578573394,1.4668968764236743,0,0,0.731,0,28
96,311893.28,65.00300000002608,0.014037840843200684,0.023586637496948244,0,0.029443704481144337,0.020786871391252463,1.467786994342191,0,0,0.727,0,28
97,311958.557,65.27699999994365,0.0166261100769043,0.016065258026123047,0,0.030979594222899347,0.0210835773640915,1.4682582332402296,0,0,0.718,0,28
98,312023.712,65.15500000002794,0.01648554992675781,0.03070989990234375,0,0.03173008580125691,0.0210835773640915,1.4693577906689863,0,0,0.711,0,28
99,312088.867,65.15500000002794,0.021054153442382813,0.027684635162353515,0,0.03089232776029963,0.019233528356977513,1.4697941229819844,0,0,0.715,0,28
100,312153.991,65.1239999999525,0.01822567367553711,0.021362176895141603,0,0.03094468763785946,0.020577431881013145,1.4710158534583806,0,0,0.726,0,28
101,312219.085,65.09400000004098,0.02242696189880371,0.035440441131591796,0,0.030438542154781107,0.020594885173533087,1.4719234246694175,0,0,0.731,0,28
102,312284.271,65.18599999998696,0.03191622924804687,0.0327848014831543,0,0.02897246558310587,0.021275563581810878,1.4728309958804549,0,0,0.722,0,28
103,312349.548,65.27700000000186,0.03457585525512695,0.03154964256286621,0,0.026511551337793864,0.0226543736908864,1.4736862072139323,0,0,0.718,0,28
104,312414.55,65.00199999997858,0.03011326789855957,0.040649467468261716,0,0.02530727415391778,0.023527038316883565,1.4751871903706473,0,0,0.718,0,28
105,312479.736,65.18599999998696,0.035705280303955075,0.026117782592773437,0,0.026127578902355116,0.027314402793711254,1.4753966298808867,0,0,0.727,0,28
106,312544.799,65.06300000002375,0.04562813949584961,0.0207396183013916,0,0.025603980126756815,0.030647981665020425,1.475640975976166,0,0,0.725,0,28
107,312610.015,65.2160000000149,0.026876440048217775,0.027426017761230468,0,0.0274540291338708,0.033580134808370896,1.4762692945068838,0,0,0.733,0,28
108,312675.354,65.33899999997811,0.03527688980102539,0.023173641204833985,0,0.029373891311064566,0.03628539514896211,1.476164574751764,0,0,0.742,0,28
109,312740.356,65.00200000003679,0.025740249633789063,0.031894582748413086,0,0.028763026072866547,0.034889131747366645,1.4758853220714447,0,0,0.753,0,28
110,312805.48,65.1239999999525,0.019860673904418945,0.023111339569091796,0,0.02661627109291352,0.03363249468593073,1.475344270003327,0,0,0.753,0,28
111,312870.819,65.33900000003632,0.032553821563720706,0.026067626953125,0,0.023439771854283843,0.030560715202420707,1.4756584292686858,0,0,0.771,0,28
112,312935.729,64.90999999997439,0.022864866256713866,0.022565549850463867,0,0.021589722847169857,0.02778564169174973,1.4751871903706473,0,0,0.767,0,28
113,313000.946,65.21700000000419,0.035298812866210935,0.0053142614364624025,0,0.022130774915288098,0.028239427297268253,1.4750999239080473,0,0,0.775,0,28
114,313066.04,65.09399999998277,0.03562869644165039,0.010795241355895996,0,0.02548180707911721,0.029234264970905022,1.474681044887569,0,0,0.777,0,28
115,313131.225,65.18499999999767,0.031850133895874023,-0.006798207759857178,0,0.028431413514987625,0.03077015471266003,1.4745588718399294,0,0,0.777,0,28
116,313196.472,65.24700000003213,0.03278318023681641,-0.0024566164016723633,0,0.02933898472602468,0.031625366046137256,1.4746635915950488,0,0,0.775,0,28
117,313261.505,65.03299999999581,0.034451515197753906,-0.010194869995117187,0,0.031258846903218444,0.03335324200561164,1.4745588718399294,0,0,0.779,0,28
118,313326.66,65.15499999996973,0.034113842010498045,0.002012204647064209,0,0.0334579617607313,0.03529055747532534,1.4747334047651286,0,0,0.781,0,28
119,313391.967,65.3070000000298,0.026012067794799806,0.004277947902679443,0,0.033510321638291124,0.03630284844148206,1.4745065119623695,0,0,0.793,0,28
120,313456.939,64.97200000000885,0.014492856979370116,0.012107589721679687,0,0.033859387488689996,0.035203291012725624,1.4743319790371698,0,0,0.793,0,28
121,313522.155,65.2160000000149,0.010069108963012696,0.015401796340942383,0,0.03377212102609028,0.03190461872645634,1.473406954533613,0,0,0.795,0,28
122,313587.28,65.125,0.02294894218444824,0.02179277992248535,0,0.03185225884889651,0.029391344603584505,1.4726215563702156,0,0,0.803,0,28
123,313652.435,65.15499999996973,0.01786520004272461,0.009741045951843262,0,0.03178244567881674,0.030438542154781107,1.4717488917442185,0,0,0.804,0,28
124,313717.712,65.27700000000186,0.0029804160594940187,0.010791534423828126,0,0.0317649923862968,0.032183871406775436,1.4708762271182214,0,0,0.816,0,28
125,313782.806,65.09399999998277,0.011881513595581055,0.010385901451110839,0,0.03207915165165578,0.032114058236695664,1.4697592163969448,0,0,0.823,0,28
126,313847.9,65.09400000004098,0.0029666848182678222,-0.0044815149307250975,0,0.030351275692181393,0.030194196059501903,1.4690436314036273,0,0,0.833,0,28
127,313913.33,65.42999999999302,0.02051653861999512,-0.0001854204535484314,0,0.03190461872645634,0.030229102644541785,1.46820587336267,0,0,0.852,0,28
128,313978.21,64.88000000000466,0.022868169784545898,0.009777826309204101,0,0.033021629447732716,0.03122394031817855,1.467595008124472,0,0,0.825,0,28
129,314043.426,65.2159999999567,0.012670848846435547,0.0026680111885070803,0,0.03183480555637657,0.03303908274025266,1.4668445165461141,0,0,0.821,0,28
130,314108.581,65.15500000002794,0.03674203872680664,-0.0034392249584198,0,0.03153809958353753,0.03481931857728687,1.4671935823965132,0,0,0.849,0,28
131,314173.797,65.2160000000149,0.019469806671142578,0.004484162807464599,0,0.03159045946109736,0.03647738136668148,1.4671586758114732,0,0,0.829,0,28
132,314238.983,65.18599999998696,0.006472900390625,-0.007382930278778076,0,0.029757863746503316,0.03651228795172138,1.467821900927231,0,0,0.835,0,28
133,314304.046,65.06299999996554,0.015323451042175293,0.00567857551574707,0,0.02865830631774689,0.03321361566545209,1.4681884200701498,0,0,0.827,0,28
134,314369.171,65.125,0.0033289880752563478,0.010605683326721191,0,0.029426251188624394,0.0318871654339364,1.4680837003150304,0,0,0.819,0,28
135,314434.448,65.27700000000186,0.016417959213256835,0.016012746810913085,0,0.027768188399229784,0.030106929596902185,1.4679964338524305,0,0,0.851,0,28
136,314499.603,65.15500000002794,0.02633450698852539,0.011106245040893555,0,0.028309240467348024,0.03073524812762014,1.467786994342191,0,0,0.831,0,28
137,314564.666,65.06300000002375,0.014865837097167968,0.0023391256332397463,0,0.02865830631774689,0.030037116426822413,1.467211035689033,0,0,0.835,0,28
138,314629.73,65.06399999995483,0.031331653594970706,-0.023897844314575194,0,0.032323497746934986,0.03223623128433527,1.4674204751992723,0,0,0.829,0,28
139,314694.976,65.24600000004284,0.02589469909667969,-0.009806205749511718,0,0.03555235686312449,0.03399901382884954,1.4673855686142325,0,0,0.838,0,28
140,314760.162,65.18599999998696,0.014833669662475586,-0.009047267913818359,0,0.03789109806079689,0.034732052114687155,1.4676124614169916,0,0,0.827,0,28
141,314825.256,65.09399999998277,0.016028120040893556,0.005765751838684082,0,0.03534291735288517,0.031573006168577424,1.4679615272673907,0,0,0.828,0,28
142,314890.35,65.09399999998277,0.029868667602539062,0.020233608245849608,0,0.03406882699892931,0.030700341542580258,1.4724121168599762,0,0,0.838,0,28
143,314955.688,65.33800000004703,0.024401180267333983,0.11295393371582031,0,0.041852995462824026,0.029164451800825247,1.4778051842486386,0,0,0.826,0,28
144,315020.721,65.03299999999581,0.03453457260131836,0.20150181579589843,0,0.04715879638888678,0.027366762671271087,1.48047553800419,0,0,0.811,0,28
145,315085.906,65.18499999999767,0.05965427398681641,0.2797869262695313,0,0.04879940588576145,0.0313635666583381,1.4797250464258322,0,0,0.809,0,28
146,315150.97,65.06399999995483,0.030478656768798826,0.3472051391601563,0,0.039968039870670144,0.03707079331235956,1.4759725885340447,0,0,0.806,0,28
147,315216.156,65.18600000004517,0.07250345611572266,0.46850119018554687,0,0.015742869852988853,0.0402298392584693,1.4688690984784276,0,0,0.807,0,28
148,315281.799,65.64299999998184,0.0552373046875,0.5394907836914062,0,-0.027279496208671372,0.046774823953448036,1.460788224041694,0,0,0.795,0,28
149,315346.496,64.69699999998556,0.041987327575683596,0.57367626953125,0,-0.07435102613495843,0.049794243559398224,1.4523582837545612,0,0,0.8,0,28
150,315411.529,65.03299999999581,0.012635523796081544,0.6174312133789063,0,-0.13222614413109038,0.046338491640449446,1.4415372423921964,0,0,0.81,0,28
151,315476.928,65.399000000034,-0.0013757271766662597,0.6594085693359375,0,-0.18627899106535478,0.03583160954344358,1.4270510096006437,0,0,0.827,0,28
152,315541.87,64.94199999998091,-0.013283923149108886,0.6385408935546875,0,-0.23273965575344385,0.024085543677521744,1.4138214138705265,0,0,0.836,0,28
153,315607.055,65.18499999999767,-0.030310943603515626,0.646468017578125,0,-0.23464206463811768,0.012880529879718152,1.3936105011324322,0,0,0.848,1,28
154,315672.21,65.15500000002794,-0.112096435546875,0.664684814453125,0,-0.1853888731468377,0.01361356816555577,1.3844126159744221,0,0,0.843,1,28
155,315737.426,65.2159999999567,-0.1321045684814453,0.6741630859375,0,-0.14131930953398084,0.015742869852988853,1.3757906894695702,0,0,0.833,1,28
156,315802.673,65.24700000003213,-0.030292690277099608,0.5738328247070312,0,-0.2047620278439747,0.011833332328521556,1.3766982606806073,0,0,0.815,1,28
157,315867.767,65.09399999998277,-0.009368558883666993,0.6285767822265625,0,-0.2982767691658309,0.0006981317007977319,1.3855121734031786,0,0,0.808,0,28
158,315933.044,65.27700000000186,-0.038327564239501954,0.46502835083007815,0,-0.33642966661442697,-0.0008377580409572782,1.3956699896497855,0,0,0.791,0,28
159,315998.168,65.12400000001071,-0.09548465728759765,0.25707879638671877,0,-0.3195348794551218,0.0024434609527920616,1.406002338821592,0,0,0.736,0,28
160,316063.171,65.00299999996787,-0.10788671875,0.08179923248291016,0,-0.2709100064945598,0.001256637061435917,1.4159681688504797,0,0,0.717,0,28
161,316128.265,65.09400000004098,-0.10273464965820313,-0.14816268920898437,0,-0.20678660977628815,-0.002897246558310587,1.4260910785120466,0,0,0.647,0,28
162,316193.481,65.2160000000149,-0.09399977874755859,-0.31795782470703127,0,-0.1407258975883028,-0.005881759579220891,1.4339276068535014,0,0,0.61,0,28
163,316258.728,65.24699999997392,-0.043690818786621094,-0.39648980712890625,0,-0.09546951008408983,-0.0009250245035569946,1.4384305563236466,0,0,0.541,0,28
164,316323.822,65.09399999998277,-0.030462884902954103,-0.4806558227539062,0,-0.06839945338565777,0.01043706892692609,1.4412928962969171,0,0,0.473,0,28
165,316389.038,65.2160000000149,0.001739168167114258,-0.5555025024414062,0,-0.050998520743274316,0.021642082724729686,1.442968412378832,0,0,0.444,0,28
166,316454.162,65.12400000001071,0.031734970092773436,-0.5278446655273438,0,-0.03979350694547071,0.029757863746503316,1.4447486482158662,0,0,0.38,0,28
167,316519.439,65.27700000000186,0.019076305389404295,-0.42555242919921876,0,-0.03368485456349056,0.0356745299107641,1.4465463373454204,0,0,0.322,0,28
168,316584.564,65.125,0.01893263626098633,-0.36512786865234376,0,-0.04300491276914028,0.03665191429188092,1.4480996803796953,0,0,0.296,0,28
169,316649.658,65.09399999998277,-0.005671545028686524,-0.38392730712890627,0,-0.05609488215909775,0.03298672286269282,1.4500544491419285,0,0,0.256,0,28
170,316714.721,65.06300000002375,-0.1109159927368164,-0.5321495361328125,0,-0.06576400621514633,0.03110176727053895,1.4530738687478788,0,0,0.243,0,28
171,316779.968,65.24699999997392,-0.08144189453125,-0.3076611938476562,0,-0.05728170605045389,0.03366740127097062,1.4564772607892682,0,0,0.242,0,28
172,316845.031,65.06300000002375,-0.07099662017822266,-0.4471737365722656,0,-0.04892157893340105,0.026371924997634317,1.4621321275657297,0,0,0.242,0,28
173,316910.186,65.15499999996973,-0.07811774444580079,-0.4378281860351563,0,-0.05064945489287544,0.022200588085367873,1.4662336513079162,0,0,0.242,0,28
174,316975.28,65.09400000004098,-0.10156595611572265,-0.46253347778320314,0,-0.1449146877930892,0.06297147941195541,1.4735814874588127,0,0,0.243,0,28
175,317040.649,65.36899999994785,-0.0956100082397461,-0.46407443237304685,0,-0.3737622593145856,0.1177573646320574,1.4699162960296244,0,0,0.461,0,28
176,317105.682,65.03299999999581,-0.08921385192871094,-0.5396978149414062,0,-0.7211002337539772,0.07628834160467216,1.4503337018222477,0,0,0.463,0,28
177,317171.173,65.49100000003818,-0.08339599609375,-0.7761766967773438,0,-1.0618757702058699,0.03705334001983962,1.4375229851126095,0,0,2.893,0,28
178,317235.992,64.8190000000177,-0.07808106231689453,-1.6867528076171876,0,-1.3604317920520201,0.0069464104229374326,1.4276618748388419,0,0,0.243,0,28
179,317301.086,65.09399999998277,-0.07320751953125,-0.79102099609375,0,-1.1376405130349438,0.03560471674068432,1.398340343405337,0,0,0.262,0,28
180,317366.455,65.36900000000605,-0.06932131958007813,-0.6581697998046875,0,-1.066832505281534,0.15034266176679154,1.4191097615040693,0,0,0.289,0,28
181,317431.396,64.94099999999162,-0.06635209655761719,-0.4662200012207031,0,-0.8662941742273854,0.2553067629817305,1.4271033694782034,0,0,0.302,0,28
182,317496.582,65.18599999998696,-0.06323775482177735,-0.44115240478515627,0,-0.8660323748395863,0.314874850352297,1.5179303037519885,0,0,0.357,0,28
183,317561.92,65.33799999998882,-0.05784769821166992,-0.4335496826171875,0,-0.9155473657186655,0.22807962665061896,1.5759275947957598,0,0,0.357,0,28
184,317626.831,64.91100000002189,-0.05373834228515625,-0.3312091979980469,0,-0.7409097207641128,0.18147933562237037,1.7696940483521704,0,0,0.326,0,28
185,317692.108,65.27700000000186,-0.0495892333984375,-0.2583121337890625,0,-0.5202302901419498,0.0549429648527815,1.9554843472269665,0,0,0.243,0,28
186,317757.202,65.09399999998277,-0.04681236267089844,-0.2086172332763672,0,0.029164451800825247,0.14046409820050365,1.8968238310674375,0,0,0.243,0,28
187,317822.357,65.15500000002794,-0.04347348785400391,-0.1957981719970703,0,-0.043249258864419486,0.05462880558742251,1.8933855324410085,0,0,0.242,0,28
188,317887.451,65.09399999998277,-0.04084756851196289,-0.18574685668945312,0,-0.14760249484116045,0.09349728802933623,1.883018276684162,0,0,0.242,0,28
189,317952.606,65.15500000002794,-0.03817526626586914,-0.1748441162109375,0,-0.1796816464928162,0.0610341639422417,1.8871372537188689,0,0,0.242,0,28
190,318017.73,65.1239999999525,-0.03574010467529297,-0.16121798706054688,0,-0.06297147941195541,0.044889868361294154,1.8712896641107604,0,0,0.243,0,28
191,318083.099,65.36900000000605,-0.03347727584838867,-0.15068118286132812,0,-0.0119729586686811,0.04124213022462601,1.864517786613022,0,0,0.243,0,28
192,318148.04,64.94099999999162,-0.03137059211730957,-0.14124786376953125,0,-0.029565877528783945,0.04389503068765739,1.8638720147897845,0,0,0.242,0,28
193,318213.256,65.2160000000149,-0.029393171310424803,-0.13223956298828124,0,0.004153883619746505,0.045326200674292744,1.86209177895275,0,0,0.242,0,28
194,318278.411,65.15500000002794,-0.02753888511657715,-0.12390865325927734,0,-0.006894050545377602,0.045413467136892455,1.86209177895275,0,0,0.242,0,28
195,318343.597,65.18599999998696,-0.02580071258544922,-0.11607766723632812,0,0.005497787143782138,0.04494222823885399,1.8617601663948713,0,0,0.242,0,28
196,318408.721,65.12400000001071,-0.024172454833984374,-0.10875625610351562,0,0.0010471975511965976,0.04452334921837535,1.8623186717555096,0,0,0.242,0,28
197,318473.846,65.125,-0.022647804260253906,-0.10189250946044921,0,0.00471238898038469,0.04485496177625426,1.8621790454153495,0,0,0.243,0,28
198,318539.001,65.15499999996973,-0.021218843460083008,-0.09546329498291016,0,0.006702064327658226,0.044628068973495,1.8622837651704696,0,0,0.242,0,28
199,318604.309,65.30800000001909,-0.01988026237487793,-0.08944026184082031,0,0.007103490055616921,0.0446629755585349,1.8621964987078696,0,0,0.242,0,28
200,318669.25,64.94099999999162,-0.01862601852416992,-0.08379733276367188,0,0.007400196028455957,0.044628068973495,1.8623535783405494,0,0,0.242,0,28
201,318734.466,65.2160000000149,-0.017451158523559572,-0.07851041412353515,0,0.007958701389094143,0.04482005519121439,1.8623535783405494,0,0,0.242,0,28
202,318799.591,65.125,-0.016351587295532228,-0.07355684661865235,0,0.00895353906273091,0.046565384443208714,1.8618997927350307,0,0,0.242,0,28
203,318864.746,65.15499999996973,-0.015319317817687987,-0.06891622161865234,0,0.00973893722612836,0.045588000062091884,1.8616554466397515,0,0,0.242,0,28
204,318929.931,65.18499999999767,-0.014352795600891113,-0.06456830596923828,0,0.010157816246606997,0.04550073359949217,1.8617776196873912,0,0,0.242,0,28
205,318995.086,65.15500000002794,-0.013447126388549805,-0.060494705200195314,0,0.01059414855960558,0.045256387504212965,1.8620219657826707,0,0,0.242,0,28
206,319060.211,65.125,-0.012598682403564453,-0.05667818450927734,0,0.010663961729685353,0.04499458811641381,1.8620568723677104,0,0,0.242,0,28
207,319125.823,65.61199999996461,-0.011803530693054199,-0.05310247802734375,0,0.009948376736367677,0.044331363000655974,1.8619521526125908,0,0,0.242,0,28
208,319190.826,65.00300000002608,-0.011056554794311524,-0.049769020080566405,0,-0.017296212887263806,0.039653880605311165,1.8644130668579026,0,0,0.242,0,28
209,319255.676,64.84999999997672,-0.01035628604888916,-0.04671099472045898,0,-0.05759586531581287,0.03131120678077827,1.866786714640615,0,0,0.242,0,28
210,319320.831,65.15500000002794,-0.009698180198669434,-0.04377854537963867,0,-0.06990043654237289,-0.0036477381366681488,1.8756878938257857,0,0,0.242,0,28
211,319386.016,65.18499999999767,-0.009095616340637207,-0.04099650192260742,0,-0.0722042711550054,-0.04382521751757762,1.8844668999633174,0,0,0.243,0,28
212,319451.232,65.2160000000149,-0.008523793220520019,-0.03843964385986328,0,-0.08491026810952414,-0.05042256209011617,1.8835244221672405,0,0,0.242,0,28
213,319516.51,65.27799999999115,-0.008005807876586914,-0.035967090606689456,0,-0.07468263869283737,-0.08662069077647858,1.8846414328885168,0,0,0.242,0,28
214,319581.451,64.94099999999162,-0.007571696281433105,-0.03363267135620117,0,-0.050003683069637546,-0.16168730190475467,1.880016310370732,0,0,0.242,0,28
215,319646.759,65.30800000001909,-0.007104740619659424,-0.03151308250427246,0,-0.018186330805780915,-0.1696809098788887,1.8623012184629895,0,0,0.242,0,28
216,319711.761,65.00199999997858,-0.0066592273712158204,-0.029519134521484375,0,-0.030473448739820993,-0.17280504923995857,1.8579378953330035,0,0,0.243,0,28
217,319777.038,65.27700000000186,-0.0062370457649230954,-0.027657899856567383,0,-0.05007349623971732,-0.1709724535253645,1.8568208846117273,0,0,0.243,0,28
218,319842.071,65.03299999999581,-0.026122247695922852,-0.0064896421432495115,0,-0.06928957130417489,-0.17835519626130053,1.857257216924726,0,0,0.242,0,28
219,319907.287,65.2160000000149,-0.024469045639038085,-0.005956937789916992,0,-0.10232865404442754,-0.17715091907742447,1.8514801771006246,0,0,0.242,0,28
220,319972.534,65.24699999997392,-0.02289645767211914,-0.005378920078277588,0,-0.17277014265491866,-0.16990780268164796,1.8257540239262284,0,0,0.244,0,28
221,320037.567,65.03299999999581,-0.021453695297241213,-0.004911564826965332,0,-0.22052235098948356,-0.17034413499464657,1.78829925817843,0,0,0.275,0,28
222,320102.691,65.12400000001071,-0.02011738395690918,-0.004515885353088379,0,-0.24677210293947824,-0.17517869702267086,1.7418735000753809,0,0,0.242,0,28
223,320168.029,65.33799999998882,-0.01886850166320801,-0.004147091865539551,0,-0.2707354735693604,-0.18113026977197152,1.676545826173233,0,0,0.243,0,28
224,320233.001,64.97200000000885,-0.017753408432006835,-0.003711189270019531,0,-0.2967757860091158,-0.20296433871442054,1.5999782318882416,0,0,0.243,0,28
225,320298.217,65.2160000000149,-0.01661484718322754,-0.0034452919960021974,0,-0.3248930402587444,-0.19748400486315837,1.5341618657955356,0,0,0.242,0,28
226,320363.311,65.09399999998277,-0.015526759147644042,-0.0032321183681488035,0,-0.36475636037429493,-0.1842369558405214,1.4714870923564194,0,0,0.242,0,28
227,320428.527,65.2160000000149,-0.014495207786560058,-0.0030870022773742674,0,-0.41627847989316746,-0.1639038700547875,1.4208550907560638,0,0,0.242,0,28
228,320493.774,65.24699999997392,-0.013511611938476562,-0.0030844783782958984,0,-0.48268825793155173,-0.12941616403537953,1.3886363127642485,0,0,0.242,0,28
229,320558.807,65.03299999999581,-0.020533641815185546,0.15268861389160157,0,-0.5491329425549759,-0.08517206749732328,1.361356816555577,0,0,0.243,0,28
230,320623.962,65.15500000002794,-0.019015844345092774,0.20976499938964843,0,-0.6042155337479169,-0.043423791789618915,1.3458582927978673,0,0,0.255,0,28
231,320689.239,65.27700000000186,-0.017799938201904297,0.1993440704345703,0,-0.6288246762010371,0.007906341511534314,1.3376203387284542,0,0,0.284,0,28
232,320754.241,65.00199999997858,-0.016721254348754884,0.18744422912597655,0,-0.6396108109783619,0.07319910882864218,1.330673928305517,0,0,0.326,0,28
233,320819.519,65.27799999999115,-0.015793195724487306,0.17529541015625,0,-0.6437996011831483,0.14632840448720458,1.3233959053247004,0,0,0.412,0,28
234,320884.552,65.03300000005402,-0.015008066177368164,0.1643292236328125,0,-0.6517233959872026,0.22230258682651774,1.309607804233945,0,0,0.462,0,28
235,320949.798,65.24599999998463,-0.01438247299194336,0.15165737915039063,0,-0.6393490115905627,0.3057991382419265,1.3132729956631333,0,0,0.596,0,28
236,321015.045,65.24699999997392,-0.013940414428710938,0.13695907592773438,0,-0.5950874617599865,0.39816196225746636,1.3403779589466052,0,0,0.34,0,28
237,321080.078,65.03299999999581,-0.013478912353515626,0.12329255676269531,0,-0.5359557067024187,0.4664043360104447,1.3845522423145815,0,0,0.322,0,28
238,321145.141,65.06300000002375,-0.012924219131469726,0.1113057861328125,0,-0.467242094051402,0.5099677541402232,1.4312397998054303,0,0,0.428,0,28
239,321210.479,65.33799999998882,-0.012252147674560548,0.10139629364013672,0,-0.4011115686933368,0.5304928261436764,1.4855718994200136,0,0,0.987,0,28
240,321275.512,65.03299999999581,0.129331787109375,0.4480701904296875,0,-0.2999348319552255,0.5506688322967309,1.5355755824896509,0,0,0.99,0,28
241,321340.759,65.24700000003213,0.11476083374023438,0.41759912109375,0,-0.1827010660987664,0.5934817588481518,1.580168744878106,0,0,1.051,0,28
242,321405.822,65.06299999996554,0.13189236450195313,0.3718824462890625,0,-0.12746139527314587,0.6434505353327494,1.6190546806125399,0,0,1.085,0,28
243,321471.008,65.18599999998696,0.15478948974609374,0.26680780029296874,0,-0.060789817846962496,0.7079928110714998,1.6662134770014265,0,0,1.172,0,28
244,321536.437,65.42900000000373,0.15481878662109375,0.18679234313964843,0,0.016702800941585733,0.7650301710266744,1.7122552626690368,0,0,1.181,0,28
245,321601.287,64.85000000003492,0.15752310180664061,0.113439453125,0,0.07571238295151402,0.81564471933451,1.7421352994631798,0,0,1.198,0,28
246,321666.412,65.125,0.1383603515625,0.07694332885742187,0,0.1163087413529021,0.8488234284149223,1.7742319044073558,0,0,1.229,0,28
247,321731.75,65.33799999998882,0.1249373779296875,0.06110574340820313,0,0.14458307523521027,0.8666432400777844,1.7974971433364402,0,0,1.241,0,28
248,321796.722,64.97200000000885,0.09797377014160157,0.0518731689453125,0,0.1714611457159229,0.8758585785283144,1.8236072689462752,0,0,1.252,0,28
249,321861.968,65.24599999998463,0.05092052459716797,0.05775217437744141,0,0.16933184402848986,0.8726820792896847,1.8405718692756599,0,0,1.265,0,28
250,321927.001,65.03299999999581,0.028758050918579102,0.05565129089355469,0,0.16945401707612945,0.8673588250711018,1.851427817223065,0,0,1.27,0,28
251,321992.401,65.40000000002328,0.01347463893890381,0.04666125869750976,0,0.14863223909983708,0.863047861818676,1.855389714625092,0,0,1.272,0,28
252,322057.434,65.03299999999581,0.016677402496337892,0.048775390625,0,0.12547171992587236,0.8622624636552786,1.858723293496401,0,0,1.266,0,28
253,322122.589,65.15499999996973,0.03614854049682617,0.032374645233154295,0,0.10276498635742612,0.8668526795880237,1.8621790454153495,0,0,1.271,0,28
254,322187.652,65.06300000002375,0.04087881469726563,0.012093204498291016,0,0.0994837673636768,0.8786511053315055,1.8660013164772176,0,0,1.272,0,28
255,322253.021,65.36900000000605,0.03252505493164062,-0.0064687466621398924,0,0.1176700981694577,0.8837998266248885,1.878724766724256,0,0,1.276,0,28
256,322318.023,65.00199999997858,0.03059730529785156,-0.015085622787475586,0,0.12119566325848624,0.8829795218764512,1.890174126617339,0,0,1.279,0,28
257,322383.239,65.2160000000149,0.04614638900756836,-0.008857072830200196,0,0.10067059125503292,0.8757364054806748,1.888847676385823,0,0,1.285,0,28
258,322448.303,65.06400000001304,0.048398529052734375,0.003348143100738525,0,0.07597418233931316,0.8675333579963014,1.8867881878684698,0,0,1.283,0,28
259,322513.458,65.15499999996973,0.04489441680908203,0.020312335968017577,0,0.04583234615737109,0.8611454529340022,1.8875386794468274,0,0,1.281,0,28
260,322578.674,65.2160000000149,0.042499271392822266,0.02210531425476074,0,0.01947787445225672,0.8521570072862314,1.8890396626035426,0,0,1.276,0,28
261,322643.768,65.09399999998277,0.05102716064453125,0.03233353805541992,0,-0.010175269539126942,0.8340404896505302,1.903072109789577,0,0,1.273,0,28
262,322708.892,65.12400000001071,0.0629273681640625,0.051804332733154296,0,-0.06517059426946827,0.8063595677139003,1.9104373992329928,0,0,1.269,0,28
263,322774.23,65.33799999998882,0.07090617370605469,0.05583291625976562,0,-0.11070623445400031,0.7780852338315921,1.9085000837632795,0,0,1.268,0,28
264,322839.263,65.03299999999581,0.03910517883300781,0.04370394897460937,0,-0.13857914260834978,0.7480830239898095,1.9086746166884785,0,0,0.841,0,28
265,322904.357,65.09400000004098,0.020647865295410156,0.02492991828918457,0,-0.1690002314706109,0.7161784052633531,1.9058646365927678,0,0,0.819,0,28
266,322969.482,65.125,0.005271871089935303,0.011239562034606933,0,-0.19451694513476803,0.6766990575832413,1.914730909192899,0,0,0.805,0,28
267,323034.698,65.2159999999567,-0.006342750549316406,-0.005758220195770263,0,-0.2117258915594321,0.6552664143687511,1.9271925600521387,0,0,0.783,0,28
268,323099.975,65.27700000000186,-0.014722663879394532,-0.020141258239746093,0,-0.22122048269028127,0.631896455684547,1.9502658127635037,0,0,0.776,0,28
269,323164.978,65.00300000002608,-0.012128521919250488,-0.021307077407836914,0,-0.23129103247428856,0.616520104974477,1.9857483564565483,0,0,0.767,0,28
270,323230.163,65.18499999999767,-0.01899922561645508,0.010947056770324707,0,-0.2470339023272774,0.5968327910119808,2.026048008885098,0,0,0.752,0,28
271,323295.44,65.27700000000186,-0.02149071502685547,0.0259023323059082,0,-0.24989624230054808,0.5889089962079267,2.0690703749467576,0,0,0.736,0,28
272,323360.443,65.00300000002608,-0.026007139205932617,0.06661248016357423,0,-0.24263567261225166,0.5785941003286402,2.1154612264647668,0,0,0.731,0,28
273,323425.72,65.27699999994365,-0.0213065071105957,0.10700729370117187,0,-0.2333679742841618,0.5681395781091941,2.1744009953046155,0,0,0.725,0,28
274,323490.844,65.12400000001071,-0.004414159774780274,0.13780264282226562,0,-0.240698357142538,0.5576501493047082,2.2341610688929014,0,0,0.715,0,28
275,323556.03,65.18600000004517,0.009278427124023438,0.1895257568359375,0,-0.24541074612292266,0.5457644570986269,2.2864685865751713,0,0,0.704,0,28
276,323621.49,65.45999999996275,0.02354814338684082,0.2301811065673828,0,-0.24509658685756366,0.5342278307429443,2.333313223698699,0,0,0.686,0,28
277,323686.279,64.78899999998976,0.04015260314941406,0.24378964233398437,0,-0.23684117949563052,0.5380501018048118,2.37303691747409,0,0,0.68,0,28
278,323751.434,65.15500000002794,0.05536343383789062,0.2518512878417969,0,-0.2126509160629891,0.544176207479312,2.4120101196711237,0,0,0.672,0,28
279,323816.741,65.3069999999716,0.065101318359375,0.2553439178466797,0,-0.17509143056007115,0.5436351554111938,2.4474403034866086,0,0,0.668,0,28
280,323881.652,64.91100000002189,0.07639254760742188,0.25293597412109375,0,-0.13386675362796507,0.5305975458987962,2.4847205363092075,0,0,0.665,1,28
281,323946.838,65.18599999998696,0.08319252014160156,0.26610943603515624,0,-0.14568263266396667,0.5139820114198101,2.5186322836754567,0,0,0.657,1,28
282,324012.023,65.18499999999767,0.0807892608642578,0.27352081298828124,0,-0.1467472835076832,0.5023581186015279,2.5370106006989577,0,0,0.654,1,28
283,324077.178,65.15500000002794,0.085021728515625,0.24418157958984374,0,-0.12801990063378407,0.5045223268740008,2.5526138442117863,0,0,0.652,1,28
284,324142.425,65.24699999997392,0.08113526153564453,0.2093531951904297,0,-0.12100367704076687,0.49872783375737967,2.5659481596970233,0,0,0.655,1,28
285,324207.427,65.00200000003679,0.07974117279052734,0.16372956848144532,0,-0.12950343049797924,0.48904125640881113,2.576839014229468,0,0,0.655,1,28
286,324272.644,65.21699999994598,0.06007630157470703,0.10771537780761718,0,-0.11494738453634654,0.4845034003536259,2.585635473659519,0,0,0.656,1,28
287,324337.89,65.24600000004284,0.034772186279296874,0.056124786376953124,0,-0.09349728802933623,0.4817632334279948,2.5927215104226162,0,0,0.651,1,28
288,324402.862,64.97200000000885,0.02314437675476074,0.028355541229248046,0,-0.08290313946973064,0.4719021231542268,2.5997900938931933,0,0,0.649,1,28
289,324468.048,65.18599999998696,0.01771294593811035,0.007347847938537598,0,-0.07695156672042999,0.4679227724596797,2.5995457477979143,0,0,0.644,1,28
290,324533.325,65.27700000000186,0.01751752471923828,-0.012151936531066894,0,-0.08826130027335324,0.4704534998750715,2.599057055607356,0,0,0.643,1,28
291,324598.51,65.18499999999767,0.02582596206665039,-0.028960710525512696,0,-0.10552260657557717,0.47678904505981096,2.6018146758255067,0,0,0.643,0,28
292,324663.665,65.15499999996973,0.03854135894775391,-0.0469864273071289,0,-0.13437289911104344,0.4735776392361413,2.608656366493325,0,0,0.643,1,28
293,324728.698,65.03299999999581,0.046756359100341795,-0.05226278305053711,0,-0.16678366332057812,0.4739441583790602,2.613578194983949,0,0,0.645,1,28
294,324793.853,65.15500000002794,0.03562474060058594,-0.08199522399902344,0,-0.1609193570338772,0.47675413847477105,2.617801891773775,0,0,0.647,1,28
295,324859.191,65.33799999998882,0.01017620086669922,-0.12239817810058594,0,-0.13470451166892233,0.4765272456720118,2.622933159774638,0,0,0.644,1,28
296,324924.194,65.00300000002608,-0.01012389373779297,-0.13838734436035155,0,-0.10449286231690051,0.4623726254383378,2.61619618886194,0,0,0.634,0,28
297,324989.349,65.15499999996973,-0.04624803161621094,-0.15123493957519532,0,-0.037943457938356726,0.4408003558836878,2.596508874899444,0,0,0.612,1,28
298,325054.473,65.12400000001071,-0.0657877197265625,-0.13831910705566405,0,0.03797836452339661,0.4162610266006476,2.5898766237418656,0,0,0.597,0,28
299,325119.689,65.2160000000149,-0.07910714721679687,-0.11288148498535157,0,0.09501572447857129,0.39397317205268,2.596334341974244,0,0,0.563,0,28
300,325184.875,65.18599999998696,-0.08209762573242188,-0.06467578887939453,0,0.13631021458075712,0.37554249515161986,2.6037345380027004,0,0,0.53,0,28
301,325250,65.125,-0.08346141052246094,-0.0036474475860595705,0,0.1644798287079456,0.3617020341833048,2.6009245579069895,0,0,0.516,0,28
302,325315.124,65.12400000001071,-0.08315354156494141,0.05309734344482422,0,0.1787915285742991,0.3420147202208088,2.598969789144756,0,0,0.49,0,28
303,325380.401,65.27700000000186,-0.08114224243164063,0.08690155029296875,0,0.18018779197589457,0.3139847324337799,2.5941701337017715,0,0,0.467,0,28
304,325445.404,65.00299999996787,-0.06056113052368164,0.080030517578125,0,0.15838862961848538,0.291469985083053,2.57935228835234,0,0,0.458,0,28
305,325510.62,65.2160000000149,-0.04114967727661133,0.07661027526855468,0,0.12531464029319286,0.266546683364574,2.5680251015068967,0,0,0.444,0,28
306,325575.805,65.18499999999767,-0.021444339752197266,0.08534224700927734,0,0.09248499706317952,0.23369958684204073,2.5529803633547057,0,0,0.439,0,28
307,325640.93,65.125,-0.0077177839279174805,0.10362507629394531,0,0.05293583621298801,0.1979552437611969,2.536452095338319,0,0,0.428,0,28
308,325706.176,65.24599999998463,-0.004497815608978271,0.11007100677490235,0,0.037192966359999156,0.18345155767712396,2.527830168833467,0,0,0.42,0,28
309,325771.392,65.2160000000149,-0.01845747375488281,0.12901361083984375,0,0.0409977841293468,0.18767525446695027,2.520080906954612,0,0,0.416,0,28
310,325836.364,64.97200000000885,-0.017295612335205077,0.12086441040039063,0,0.039653880605311165,0.18844319933782777,2.529488231622862,0,0,0.411,0,28
311,325901.672,65.30800000001909,-0.01620948600769043,0.11349861145019531,0,0.0678060414399797,0.19004890224966253,2.5389479161686714,0,0,0.403,0,28
312,325966.705,65.03299999999581,0.014350518226623536,0.13140585327148438,0,0.10047860503731355,0.18385298340508266,2.5284235807791453,0,0,0.398,0,28
313,326031.89,65.18499999999767,0.04056676483154297,0.15250483703613282,0,0.10548769999053727,0.1658062789394613,2.5001143403117974,0,0,0.387,0,28
314,326097.015,65.125,0.0736341552734375,0.18395155334472657,0,0.09428268619273368,0.1359786020228782,2.466289859408147,0,0,0.379,0,28
315,326162.139,65.12400000001071,0.09399081420898438,0.18918063354492187,0,0.08702211650443727,0.12253956678252188,2.4298299313339857,0,0,0.357,0,28
316,326227.447,65.30799999996088,0.08799649047851563,0.1773217010498047,0,0.09194394499506128,0.11639600781550183,2.384800436632532,0,0,0.33,0,28
317,326292.449,65.00200000003679,0.08268637847900391,0.165943115234375,0,0.08676031711663812,0.13913764796898795,2.31154896792633,0,0,0.316,0,28
318,326357.574,65.125,0.07763304138183594,0.1553728790283203,0,0.08361872446304834,0.15339698795778162,2.1954496660836673,0,0,0.283,0,28
319,326422.912,65.33799999998882,0.07270293426513671,0.14558367919921875,0,0.07262315017548404,0.15046483481443115,2.0710076904164714,0,0,0.249,0,28
320,326487.854,64.94199999998091,0.06807415771484375,0.13648561096191406,0,0.041730822415184415,0.14631095119468462,1.959132085363635,0,0,0.243,0,28
321,326553.009,65.15500000002794,0.06361167907714843,0.12804338073730467,0,0.015323990832510213,0.1271472360077869,1.8625106579732287,0,0,0.242,0,28
322,326618.133,65.1239999999525,0.05945193862915039,0.12030265045166015,0,-0.029199358385865133,0.1060985652287353,1.767320400569458,0,0,0.242,0,28
323,326683.349,65.2160000000149,0.05561338806152344,0.1131475830078125,0,-0.07211700469240569,0.09004153611038745,1.6753066424043168,0,0,0.242,0,28
324,326748.504,65.15500000002794,0.05207364273071289,0.10607848358154297,0,-0.07979645340118074,0.08309512568745003,1.6027009455213528,0,0,0.243,0,28
325,326813.659,65.15499999996973,0.04878282928466797,0.09881156158447266,0,-0.013753194505715317,0.08168140899333462,1.5647225809979564,0,0,0.25,0,28
326,326878.784,65.125,0.0456536865234375,0.09250052642822265,0,0.006335545184739415,0.06642723133090418,1.5525925426965954,0,0,0.242,0,28
327,326944.152,65.36800000001676,0.042768741607666014,0.0866677703857422,0,0.005358160803622591,0.0646993553714298,1.5529416085469945,0,0,0.251,0,28
328,327009.277,65.125,0.04006781387329102,0.08121700286865234,0,-0.001500983156715123,0.06359979794267337,1.5462220909268163,0,0,0.242,0,28
329,327074.249,64.97200000000885,0.037537059783935546,0.07607866668701171,0,0.005148721293383272,0.06229080100367763,1.5442847754571027,0,0,0.242,0,28
330,327139.495,65.24599999998463,0.035165584564208985,0.07127677154541015,0,0.006754424205218055,0.060702551384362785,1.5453494263008192,0,0,0.243,0,28
331,327204.65,65.15500000002794,0.0329458122253418,0.06677903747558593,0,0.007661995416255106,0.060039326268604934,1.5458555717838975,0,0,0.243,0,28
332,327269.836,65.18599999998696,0.030866851806640627,0.06256494903564454,0,0.008709192967451705,0.05972516700324596,1.5458904783689373,0,0,0.243,0,28
333,327335.052,65.2160000000149,0.028919147491455077,0.0586169319152832,0,0.00968657734856853,0.05946336761544681,1.5459079316614575,0,0,0.243,0,28
334,327400.177,65.125,0.02709428787231445,0.054918075561523436,0,0.010716321607245182,0.05916666164260777,1.546012651416577,0,0,0.243,0,28
335,327465.667,65.48999999999069,0.025384662628173828,0.051452762603759764,0,0.011641346110802179,0.05890486225480862,1.5460650112941368,0,0,0.243,0,28
336,327530.548,64.88099999999395,0.023782964706420898,0.04820603179931641,0,0.012723450247038663,0.0586954227445693,1.5461348244642168,0,0,0.243,0,28
337,327595.703,65.15499999996973,0.022282339096069335,0.04516426849365234,0,0.01377064779823526,0.058485983234329984,1.5461522777567365,0,0,0.243,0,28
338,327660.858,65.15500000002794,0.020876434326171874,0.04231451034545899,0,0.014765485471872028,0.058311450309130555,1.5462046376342964,0,0,0.243,0,28
339,327726.074,65.2160000000149,0.019559242248535155,0.03964462661743164,0,0.015707963267948967,0.05813691738393111,1.546256997511856,0,0,0.243,0,28
340,327791.198,65.1239999999525,0.018325071334838867,0.03714323425292969,0,0.016755160819145562,0.05789257128865191,1.5462744508043762,0,0,0.243,0,28
341,327856.353,65.15500000002794,0.017168832778930665,0.03479973983764648,0,0.017662732030182614,0.057700585070932536,1.546291904096896,0,0,0.243,0,28
342,327921.661,65.30800000001909,0.01608554458618164,0.032604171752929685,0,0.01848303677861995,0.05749114556069321,1.546291904096896,0,0,0.243,0,28
343,327986.785,65.1239999999525,0.015070536613464355,0.03054716491699219,0,0.019320794819577228,0.05721189288037413,1.546326810681936,0,0,0.243,0,28
344,328051.757,64.97200000000885,0.01411973762512207,0.028619909286499025,0,0.020176006153054447,0.0571246264177744,1.5463617172669757,0,0,0.243,0,28
345,328117.004,65.24700000003213,0.013228879928588868,0.026814279556274415,0,0.021031217486531674,0.05698500007761486,1.5463791705594958,0,0,0.243,0,28
346,328182.037,65.03299999999581,0.012394233703613282,0.02512260055541992,0,0.02181661564992912,0.05682792044493537,1.5463966238520157,0,0,0.243,0,28
347,328247.222,65.18499999999767,0.01161225128173828,0.02353766632080078,0,0.022567107228286677,0.05670574739729577,1.5464489837295758,0,0,0.243,0,28
348,328312.408,65.18599999998696,0.010879633903503418,0.0220527229309082,0,0.023317598806644243,0.05661848093469605,1.5464664370220955,0,0,0.243,0,28
349,328377.563,65.15500000002794,0.010193211555480957,0.02066150665283203,0,0.023858650874762487,0.056478854594536505,1.5465013436071355,0,0,0.243,0,28
350,328442.749,65.18599999998696,0.009550118446350097,0.01935804748535156,0,0.0244695161129605,0.05639158813193678,1.5465013436071355,0,0,0.243,0,28
351,328508.026,65.27700000000186,0.008947578430175782,0.018136838912963867,0,0.02501056818107874,0.05625196179177724,1.5465013436071355,0,0,0.243,0,28
352,328572.937,64.91099999996368,0.00838309669494629,0.01699265480041504,0,0.02565634000431664,0.05619960191421742,1.5465362501921753,0,0,0.243,0,28
353,328638.122,65.18499999999767,0.007854188442230224,0.015920677185058595,0,0.02623229865747477,0.056077428866577815,1.5465537034846955,0,0,0.243,0,28
354,328703.247,65.125,0.007358654022216797,0.01491633129119873,0,0.026878070480712675,0.055955255818938204,1.5465711567772151,0,0,0.243,0,28
355,328768.463,65.2160000000149,0.006894388198852539,0.013975348472595215,0,0.027366762671271087,0.0558330827712986,1.5465711567772151,0,0,0.243,0,28
356,328833.831,65.36800000001676,0.006459414958953857,0.013093727111816406,0,0.02778564169174973,0.055728363016178936,1.5465537034846955,0,0,0.243,0,28
357,328898.803,64.97200000000885,0.006051887512207031,0.012267728805541993,0,0.028344147052387914,0.055641096553579225,1.5465711567772151,0,0,0.243,0,28
358,328963.867,65.06400000001304,0.005670082092285156,0.011493831634521485,0,0.028850292535466268,0.05557128338349946,1.5465886100697352,0,0,0.243,0,28
359,329029.174,65.3069999999716,0.005312353610992432,0.01076876449584961,0,0.02933898472602468,0.05546656362837979,1.5466060633622551,0,0,0.243,0,28
360,329094.177,65.00300000002608,0.004977197647094727,0.010089435577392579,0,0.029740410453983377,0.05537929716578008,1.5466235166547748,0,0,0.243,0,28
361,329159.362,65.18499999999767,0.004663188457489014,0.009452957153320313,0,0.029949849964222692,0.05529203070318037,1.5465886100697352,0,0,0.243,0,28
362,329224.487,65.125,0.00436899471282959,0.008856635093688964,0,0.030438542154781107,0.05523967082562053,1.5466060633622551,0,0,0.243,0,28
363,329289.703,65.2159999999567,0.004093365669250488,0.008297932624816895,0,0.03092723434533952,0.0551873109480607,1.5466060633622551,0,0,0.243,0,28
364,329354.827,65.12400000001071,0.003835120677947998,0.0077744717597961425,0,0.031258846903218444,0.055134951070500864,1.5466060633622551,0,0,0.243,0,28
365,329419.982,65.15500000002794,0.0035931751728057863,0.00728402853012085,0,0.03153809958353753,0.05510004448546098,1.5465711567772151,0,0,0.243,0,28
366,329485.321,65.33899999997811,0.0033664815425872804,0.006824527740478516,0,0.031660272631177135,0.05501277802286127,1.5465537034846955,0,0,0.243,0,28
367,329550.72,65.39899999997579,0.003154094696044922,0.006394017696380616,0,0.032026791774095946,0.0549429648527815,1.5465362501921753,0,0,0.243,0,28
368,329615.57,64.85000000003492,0.0029550940990448,0.005990674018859863,0,0.0324107642095347,0.05480333851262195,1.5465013436071355,0,0,0.243,0,28
369,329680.694,65.12400000001071,0.002768660068511963,0.005612762451171875,0,0.03256784384221419,0.05471607205002222,1.5465362501921753,0,0,0.243,0,28
370,329745.819,65.125,0.0025939929485321047,0.005258693218231201,0,0.03291690969261306,0.05468116546498235,1.5465537034846955,0,0,0.243,0,28
371,329811.004,65.18499999999767,0.0024303491115570067,0.004926959037780762,0,0.03328342883553186,0.05468116546498235,1.5465362501921753,0,0,0.243,0,28
372,329876.159,65.15499999996973,0.002277024984359741,0.004616151332855225,0,0.03354522822333102,0.054646258879942455,1.5465187968996554,0,0,0.243,0,28
373,329941.314,65.15500000002794,0.0021333751678466796,0.004324952602386475,0,0.03392920065876977,0.05461135229490257,1.5465013436071355,0,0,0.243,0,28
374,330006.469,65.15499999996973,0.0019987833499908445,0.004052128791809082,0,0.034348079679248404,0.0545415391248228,1.5464838903146156,0,0,0.243,0,28
375,330071.807,65.33799999998882,0.0018726792335510254,0.003796515703201294,0,0.03469714552964727,0.05445427266222308,1.5464838903146156,0,0,0.243,0,28
376,330136.749,64.94200000003912,0.0017545310258865357,0.003557023048400879,0,0.03490658503988659,0.054349552907103416,1.5464838903146156,0,0,0.243,0,28
377,330201.934,65.18499999999767,0.001643843412399292,0.003332632064819336,0,0.03501130479500625,0.05431464632206353,1.5465013436071355,0,0,0.243,0,28
378,330267.089,65.15499999996973,0.0015401358604431152,0.0031224000453948975,0,0.035185837720205684,0.054262286444503705,1.5465362501921753,0,0,0.243,0,28
379,330332.275,65.18600000004517,0.001442973256111145,0.002925429344177246,0,0.035395277230445,0.05422737985946382,1.5465537034846955,0,0,0.243,0,28
380,330397.491,65.2159999999567,0.0013519415855407714,0.0027408866882324217,0,0.03572688978832393,0.054209926566943865,1.5465362501921753,0,0,0.243,0,28
381,330462.554,65.06300000002375,0.0012666518688201904,0.002567982196807861,0,0.035901422713523354,0.054175019981903993,1.5465362501921753,0,0,0.243,0,28
382,330527.709,65.15499999996973,0.0011867424249649048,0.002405987024307251,0,0.03612831551628262,0.0541401133968641,1.5465187968996554,0,0,0.243,0,28
383,330593.139,65.43000000005122,0.0011118727922439576,0.0022542121410369874,0,0.03635520831904189,0.054087753519304275,1.5465362501921753,0,0,0.243,0,28
384,330657.989,64.84999999997672,0.0010417267084121705,0.0021120102405548097,0,0.03654719453676126,0.054017940349224504,1.5465537034846955,0,0,0.243,0,28
