n,time,dt,vx,vy,vz,roll,pitch,yaw,x,y,z,detected,battery
0,32894.561,NaN,0.1325989227294922,0.000728382408618927,0,-0.08765043503515524,0.07147123286916779,-0.0017976891295541592,0,0,0.242,0,26
1,32959.655,NaN,0.1242334976196289,0.0006806203126907349,0,-0.08749335540247573,0.07141887299160796,-0.0017278759594743865,0,0,0.242,0,26
2,33024.871,NaN,0.11639649963378906,0.0006377206444740295,0,-0.08745844881743585,0.07145377957664786,-0.0016406094968746698,0,0,0.242,0,26
3,33090.087,65.21600000000035,0.10905271911621094,0.0005965201854705811,0,-0.08747590210995579,0.0713490598215282,-0.0015707963267948967,0,0,0.242,0,26
4,33155.09,NaN,0.1021732177734375,0.0005595585703849792,0,-0.08754571528003557,0.07136651311404815,-0.001500983156715123,0,0,0.242,0,26
5,33225.219,NaN,0.09524919891357422,0.0005230163335800171,0,-0.08770279491271506,0.07140141969908802,-0.0014311699866353504,0,0,0.242,0,26
6,33290.435,65.21600000000035,0.08923950958251953,0.000489366203546524,0,-0.08777260808279483,0.07126179335892847,-0.0012740903539558604,0,0,0.242,0,26
7,33355.468,65.03300000000309,0.0836072006225586,0.00045690196752548216,0,-0.08803440747059398,0.07082546104592989,-0.0007853981633974483,0,0,0.242,0,26
8,33420.623,65.15499999999884,0.07832962036132812,0.00042315205931663514,0,-0.08787732783791449,0.07024950239277176,-0.0009948376736367678,0,0,0.242,0,26
9,33485.778,65.15499999999884,0.07338527679443359,0.00039336004853248596,0,-0.08798204759303416,0.06969099703213358,-0.0010122909661567112,0,0,0.242,0,26
10,33550.903,65.125,0.06875387573242188,0.0003662768006324768,0,-0.08799950088555408,0.06928957130417489,-0.0008726646259971648,0,0,0.242,0,26
11,33616.149,65.24599999999919,0.06441519927978516,0.0003416788876056671,0,-0.08805186076311393,0.06899286533133585,-0.0010122909661567112,0,0,0.242,0,26
12,33681.274,65.125,0.06035034942626953,0.0003187565207481384,0,-0.08808676734815381,0.06871361265101675,-0.000645771823237902,0,0,0.242,0,28
13,33746.368,65.0940000000046,0.0565423469543457,0.0002977757751941681,0,-0.0881216739331937,0.06850417314077742,-0.0005235987755982988,0,0,0.242,0,28
14,33811.828,65.45999999999913,0.05297426986694336,0.00027785390615463256,0,-0.08819148710327347,0.0682074671679384,-0.000296705972839036,0,0,0.242,0,28
15,33876.708,64.87999999999738,0.04963119506835938,0.0002592052221298218,0,-0.08831366015091306,0.06785840131753954,-0.0009424777960769379,0,0,0.242,0,28
16,33941.955,65.24700000000303,0.04649803161621094,0.0002401936948299408,0,-0.0883660200284729,0.06717772290926174,-0.00022689280275926284,0,0,0.242,0,28
17,34007.08,65.125,0.04356401443481445,0.00022363632917404174,0,-0.08819148710327347,0.06695083010650248,-0.00010471975511965978,0,0,0.243,0,28
18,34072.235,65.15499999999884,0.04081633758544922,0.00021148060262203216,0,-0.08862781941627206,0.06716026961674179,-0.0009948376736367678,0,0,0.242,0,28
19,34137.451,65.21600000000035,0.03823919296264648,0.00019495391845703126,0,-0.08854055295367234,0.06628760499074464,-0.00010471975511965978,0,0,0.243,0,28
20,34202.545,65.09399999999732,0.035826656341552736,0.00018278996646404265,0,-0.08871508587887177,0.06620033852814491,0,0,0,0.242,0,28
21,34267.669,65.12400000000343,0.03356619262695312,0.0001718354970216751,0,-0.08918632477691024,0.06604325889546543,-0.00038397243543875244,0,0,0.243,0,28
22,34333.221,65.55199999999604,0.03144685935974121,0.00015852974355220795,0,-0.08916887148439029,0.06517059426946827,0.0004537856055185257,0,0,0.243,0,28
23,34397.949,64.7280000000028,0.02946373748779297,0.00014990869164466857,0,-0.08937831099462963,0.06553711341238708,-0.00008726646259971648,0,0,0.242,0,28
24,34463.134,65.18499999999767,0.027603296279907225,0.0001382102519273758,0,-0.08944812416470937,0.06459463561631014,0.0006806784082777885,0,0,0.242,0,28
25,34528.289,65.15499999999884,0.02586219596862793,0.00012930187582969665,0,-0.08911651160683047,0.06475171524898962,0.00005235987755982989,0,0,0.243,0,28
26,34593.475,65.18600000000151,0.024229732513427735,0.00012052568048238755,0,-0.08955284391982905,0.0641408500107916,0.0008377580409572782,0,0,0.242,0,28
27,34658.63,65.15499999999884,0.022700761795043944,0.0001118251234292984,0,-0.08922123136195012,0.06384414403795256,0.0004014257279586958,0,0,0.242,0,28
28,34723.693,65.06300000000192,0.0212679443359375,0.0001033112108707428,0,-0.08890707209659114,0.06332054526235427,0.00047123889803846896,0,0,0.242,0,33
29,34788.879,65.18600000000151,0.01992469596862793,0.00009393785893917084,0,-0.08838347332099285,0.06206390820091835,-0.001308996938995747,0,0,0.242,0,33
30,34854.431,65.55199999999604,0.01866776466369629,0.00008896418660879135,0,-0.08916887148439029,0.06209881478595824,-0.002373647782712288,0,0,0.242,0,33
31,34919.158,64.72700000000623,0.01749103546142578,0.00008446550369262695,0,-0.08897688526667091,0.06293657282691552,-0.0017453292519943296,0,0,0.242,0,33
32,34984.313,65.15499999999884,0.01638609504699707,0.0000760505124926567,0,-0.08806931405563388,0.06145304296272034,-0.002670353755551324,0,0,0.242,0,33
33,35049.468,65.15499999999884,0.015351768493652343,0.00007028193771839142,0,-0.0879645943005142,0.06082472443200238,-0.005602506898901799,0,0,0.242,0,33
34,35114.562,65.09399999999732,0.014383898735046387,0.00006756025552749634,0,-0.08890707209659114,0.06150540284028017,-0.010314895879286487,0,0,0.243,0,33
35,35179.718,65.15600000000268,0.013475699424743652,0.00006101134791970253,0,-0.08752826198751562,0.06054547175168328,-0.015742869852988853,0,0,0.242,0,33
36,35244.934,65.21600000000035,0.012625473022460938,0.00005602796748280525,0,-0.08625417163355976,0.06040584541152374,-0.018360863730980347,0,0,0.242,0,33
37,35310.028,65.09399999999732,0.011827468872070312,0.00004553869366645813,0,-0.079412480965742,0.05824163713905078,-0.02405063709248186,0,0,0.242,0,33
38,35375.274,65.24599999999919,0.011082265853881836,0.00002782241255044937,0,-0.055134951070500864,0.05967280712568612,-0.028204520712228367,0,0,0.243,0,33
39,35440.368,65.0940000000046,0.010377053260803223,0.000009216862730681897,0,-0.03413864016900908,0.048886672348361165,-0.026476644752753974,0,0,0.243,0,33
40,35505.615,65.24699999999575,-0.05175077056884766,-0.1141373062133789,0,-0.022759093446006056,0.03029891581462156,1.3824054873346288,0,0,0.243,0,33
41,35570.861,65.24599999999919,-0.9633370361328125,-0.5096704406738282,0,0.01895427567665842,-0.009389871375729494,1.4000333127797713,0,0,0.242,0,33
42,35635.955,65.0940000000046,-0.8826445922851562,-0.4052239990234375,0,0.10459758207202016,-0.0746128255227576,1.4166837538437973,0,0,0.243,0,33
43,35701.049,65.09399999999732,-0.7628103637695313,-0.26965411376953125,0,0.15048228810695108,-0.12004374595216998,1.4337007140507418,0,0,0.243,0,33
44,35766.204,65.15499999999884,-0.6053355712890625,-0.11374551391601563,0,0.14936527738567473,-0.13908528809142812,1.454644665074674,0,0,0.243,0,33
45,35831.359,65.15499999999884,-0.469821044921875,-0.029784080505371093,0,0.11931070766633237,-0.14341370463637407,1.4793934338679535,0,0,0.242,0,33
46,35896.545,65.18600000000151,-0.363109130859375,0.0015562896728515624,0,0.08318239215004974,-0.13365731411772577,1.510983893329051,0,0,0.263,0,33
47,35961.578,65.03300000000309,-0.24333163452148437,0.03213013458251953,0,0.05229006438975012,-0.1096939434878436,1.546693329824855,0,0,0.298,0,33
48,36026.702,65.12399999999616,-0.19312509155273438,0.0229542236328125,0,0.031119220563058894,-0.07374016089676041,1.5748280373670032,0,0,0.383,0,33
49,36091.888,65.18600000000151,0.5418241577148437,0.3468725891113281,0,0.0026878070480712674,-0.047280969436526384,1.5698189424137798,0,0,0.439,0,33
50,36157.043,65.15499999999884,0.6395914306640625,0.43081869506835935,0,-0.03829252378875559,-0.001064650843716541,1.5536048336627526,0,0,0.535,0,33
51,36222.351,65.30800000000454,0.3975736083984375,0.2656632080078125,0,-0.08600982553828056,0.0653451271946677,1.5317882180128233,0,0,0.646,0,33
52,36287.322,64.97099999999773,0.29420291137695315,0.22476803588867186,0,-0.11355112113475108,0.10658725741929372,1.5099017891928144,0,0,0.695,0,33
53,36352.691,65.36899999999878,0.21837783813476563,0.3445316467285156,0,-0.12173671532660447,0.11060151469888066,1.4936178672717075,0,0,1.157,0,33
54,36417.846,65.15499999999884,0.16303364562988282,0.2621622619628906,0,-0.13208651779093086,0.09834930334988046,1.48049299129671,0,0,1.166,0,33
55,36482.818,64.97200000000157,0.10333228302001952,0.17083702087402344,0,-0.13517575056696082,0.0887674457564316,1.4688690984784276,0,0,1.162,0,33
56,36548.126,65.30799999999726,0.05225037384033203,0.09415309906005859,0,-0.12369148408883812,0.08595746566072072,1.4570357661499063,0,0,1.142,0,33
57,36613.189,65.06300000000192,-0.00010181999206542969,0.016050716400146485,0,-0.10487683475233926,0.07948229413582177,1.4479426007470155,0,0,1.13,0,33
58,36678.344,65.15499999999884,-0.04380056381225586,-0.0378138427734375,0,-0.08325220532012952,0.06841690667817771,1.4405947645961197,0,0,1.104,0,30
59,36743.621,65.27700000000186,-0.0734471664428711,-0.07569522094726562,0,-0.06391395720803235,0.05159193268895238,1.4356554828129757,0,0,1.069,0,30
60,36808.624,65.00300000000425,-0.0965066146850586,-0.09824575805664063,0,-0.04804891430740389,0.039252454877352475,1.430978000417631,0,0,1.061,0,30
61,36873.779,65.15499999999884,-0.10639691925048828,-0.1049310073852539,0,-0.03754203221039803,0.029216811678385076,1.4266146772876451,0,0,1.042,0,30
62,36939.056,65.27699999999459,-0.11221303558349609,-0.1079201889038086,0,-0.034801865284766934,0.019390607989657003,1.4228447661033372,0,0,1.032,0,30
63,37004.028,64.97200000000157,-0.11903355407714844,-0.10450285339355468,0,-0.033492868345771185,0.011397000015522971,1.418586162728471,0,0,1.032,0,30
64,37069.213,65.18500000000495,-0.11585969543457031,-0.10108838653564453,0,-0.03459242577452761,0.003193952531149623,1.4156889161701605,0,0,1.036,0,30
65,37134.399,65.18599999999424,-0.10448550415039062,-0.09976957702636718,0,-0.03445279943436806,-0.0016406094968746698,1.4123553372988513,0,0,1.045,0,30
66,37199.584,65.18500000000495,-0.09140227508544922,-0.1014405975341797,0,-0.03352777493081107,-0.0053058009260627615,1.4102434889039381,0,0,0.798,0,30
67,37264.739,65.15499999999884,-0.08331137847900391,-0.10694142150878906,0,-0.031276300195738384,-0.005427973973702364,1.4082189069716249,0,0,0.785,0,30
68,37329.803,65.06399999999849,-0.07146602630615234,-0.1070317840576172,0,-0.028483773392547457,-0.002775073510670984,1.406246684916871,0,0,0.797,0,30
69,37394.958,65.15499999999884,0.18871376037597656,1.3863968505859374,0,0.11473794502610721,-0.021118483949131385,1.5117867447849682,0,0,0.923,0,30
70,37460.144,65.18600000000151,0.34638845825195314,2.528511474609375,0,0.30340803716669423,-0.057857664703612026,1.5116994783223687,0,0,0.89,0,30
71,37525.207,65.06300000000192,0.23500567626953126,2.090462646484375,0,0.22177898805091947,-0.05485569839018177,1.4760424017041243,0,0,0.911,0,30
72,37590.362,65.15499999999884,0.19047042846679688,1.6624376220703125,0,-0.06393141050055229,0.0020943951023931952,1.4633014981645658,0,0,1.127,0,30
73,37655.456,65.09399999999732,0.13648121643066408,1.3107181396484375,0,-0.30483920715332957,0.05995205980600522,1.4402980586232805,0,0,0.891,0,30
74,37720.703,65.24700000000303,0.0631229248046875,0.8654080200195312,0,-0.39125045841956885,0.08670795723907829,1.4276793281313616,0,0,0.657,0,30
75,37785.919,65.21600000000035,-0.013660093307495118,0.37784323120117186,0,-0.3440742087381621,0.08581783932056118,1.428464726294759,0,0,0.647,0,30
76,37850.921,65.00200000000041,-0.0755416259765625,-0.0157958869934082,0,-0.23804545667950658,0.06836454680061789,1.4334738212479827,0,0,0.632,0,30
77,37916.137,65.21600000000035,-0.11718228149414063,-0.28341485595703125,0,-0.12917181794010033,0.046076692252650306,1.4359347354932945,0,0,0.723,0,30
78,37981.384,65.24699999999575,-0.14654850769042968,-0.4495655517578125,0,-0.04213224814314312,0.028745572780346604,1.4337007140507418,0,0,0.643,0,30
79,38046.356,64.97200000000157,-0.15974301147460937,-0.5500109252929688,0,0.016947147036864937,0.013753194505715317,1.4314317860231494,0,0,0.618,0,30
80,38111.602,65.24599999999919,0.2614896240234375,-0.6543739624023438,0,0.057700585070932536,0.007993607974134028,1.4307162010298318,0,0,0.585,0,30
81,38176.696,65.0940000000046,0.23565409851074218,-0.5917718505859375,0,0.09189158511750145,0.040125119503349634,1.4323568105267062,0,0,0.571,0,30
82,38241.821,65.125,0.18412998962402344,-0.5293330688476563,0,0.10341075818066402,0.07314674895108235,1.4335785410031023,0,0,0.553,0,30
83,38307.281,65.45999999999913,0.11947576141357422,-0.4783648681640625,0,0.10037388528219389,0.08813912722571364,1.4313619728530695,0,0,0.535,0,30
84,38372.131,64.84999999999854,0.05029290008544922,-0.4322015686035156,0,0.09334020839665674,0.08765043503515524,1.4280109406892405,0,0,0.529,0,30
85,38437.286,65.15499999999884,-0.01326453971862793,-0.3992010192871094,0,0.0849800812796039,0.07384488065188008,1.4244155624301322,0,0,0.518,0,30
86,38502.532,65.24599999999919,-0.06576266479492188,-0.3754951171875,0,0.07424630637983877,0.049794243559398224,1.4208899973411035,0,0,0.513,0,30
87,38567.596,65.06399999999849,-0.10089133453369141,-0.35908596801757814,0,0.06775368156241987,0.029391344603584505,1.4195635471095878,0,0,0.515,0,30
88,38632.69,65.0940000000046,-0.13092716979980468,-0.33924542236328126,0,0.06394886379307223,0.011519173063162576,1.4282203801994797,0,0,0.513,0,30
89,38697.814,65.12399999999616,-0.1601761932373047,-0.3221219787597656,0,0.06763150851478027,0.004153883619746505,1.4890974645090418,0,0,0.509,0,30
90,38763.061,65.24700000000303,0.1945568084716797,0.2852856750488281,0,0.049951323192077714,0.009791297103688189,1.5783361491635122,0,0,0.508,0,30
91,38828.186,65.125,0.11022223663330079,0.34539706420898436,0,-0.008761552845011535,-0.016231562043547268,1.6515003514071143,0,0,0.507,0,30
92,38893.463,65.27700000000186,0.11747769927978516,0.4111309814453125,0,-0.046809730538487915,0.030752701420140086,1.7407913959391443,0,0,0.504,0,30
93,38958.465,65.00199999999313,0.16230313110351563,0.388525146484375,0,-0.062029001615878473,0.013124875974997358,1.7626952780516734,0,0,0.479,0,30
94,39023.712,65.24700000000303,0.2397029266357422,0.4686275939941406,0,-0.035028758087526195,-0.08311257897996996,1.7516124373015092,0,0,0.429,0,30
95,39088.806,65.09399999999732,0.4633394775390625,0.5366989135742187,0,-0.002513274122871834,-0.21572269554649914,1.697751576584964,0,0,0.395,0,30
96,39153.991,65.18500000000495,0.7180230712890625,0.6153360595703125,0,0.02527236756887789,-0.226229577643505,1.6425119057593434,0,0,0.321,0,30
97,39219.085,65.09399999999732,0.9135086669921875,0.6844345092773437,0,0.053546701451186035,-0.15154693895066762,1.598355075683887,0,0,0.291,0,30
98,39284.271,65.18600000000151,0.9813011474609376,0.7756943359375,0,0.07012732934513216,-0.08780751466783471,1.5218223879839359,0,0,0.245,0,30
99,39349.426,65.15499999999884,1.0601468505859375,0.8488489379882812,0,0.046635197613288486,-0.08456120225912526,1.4344686589216191,0,0,0.243,0,30
100,39414.581,65.15499999999884,1.1202547607421875,0.714723388671875,0,0.02274164015348611,-0.06738716241950106,1.3802761856471955,0,0,0.242,0,30
101,39479.766,65.18500000000495,1.25253125,0.33973629760742186,0,-0.07073819458333018,-0.06881833240613641,1.3476036220498617,0,0,0.243,0,30
102,39544.982,65.21600000000035,1.389180419921875,-0.10127958679199218,0,-0.10402162341886204,0.028832839242946322,1.3303946756251976,0,0,0.242,0,30
103,39610.076,65.09399999999732,0.8980379638671875,-0.3197978210449219,0,-0.12391837689159739,0.11157889907999749,1.3071468899886334,0,0,0.242,0,30
104,39675.201,65.125,0.5979046020507812,-0.4057348327636719,0,-0.2071705822117269,0.17355554081831615,1.273654021642862,0,0,0.242,0,30
105,39740.356,65.15499999999884,0.47500436401367185,-0.45624249267578126,0,-0.22952824992977428,0.27164304478039747,1.1804883461714046,0,0,0.243,0,30
106,39805.45,65.09399999999732,-0.1443849334716797,-0.5971767578125,0,-0.23975587934646106,0.35875242774743443,1.098178618647352,0,0,0.242,0,30
107,39870.727,65.27700000000186,-0.6445426025390625,-0.8256785888671875,0,-0.2610663495133118,0.3785444614650501,1.0366383092220322,0,0,0.243,0,30
108,39935.821,65.0940000000046,-1.032882568359375,-1.1836854248046875,0,-0.26073473695543287,0.36709510157196734,0.9750805465041921,0,0,0.242,0,30
109,40000.885,65.06399999999849,-1.266580810546875,-1.5201751708984375,0,-0.2555336557844898,0.3287851244906918,0.9057037087374175,0,0,0.243,0,30
110,40066.497,65.61200000000099,-1.4952503662109375,-1.7446129150390626,0,-0.2162462943220974,0.2924473694641699,0.8728217056298443,0,0,0.243,0,30
111,40131.286,64.78899999999703,-1.66139404296875,-1.8414503173828125,0,-0.17681930651954553,0.17842500943138034,0.8827177224886521,0,0,0.243,0,30
112,40196.38,65.09399999999732,-1.90064501953125,-1.8952530517578126,0,-0.10037388528219389,0.03705334001983962,0.9155124591336256,0,0,0.243,0,30
113,40261.779,65.39900000000489,-1.7345213623046876,-1.8861044921875,0,-0.09407324668249435,0.01345648853287628,0.9258622615979519,0,0,0.242,0,30
114,40326.69,64.91100000000006,-1.5433553466796874,-1.7911923828125,0,-0.09730210579868387,0.014590952546672595,0.9249546903869148,0,0,0.243,0,30
115,40391.876,65.18599999999424,-1.474130615234375,-1.6587569580078125,0,-0.09456193887305277,0.014765485471872028,0.9242216521010773,0,0,0.243,0,30
116,40457.031,65.15500000000611,-1.38064501953125,-1.53398828125,0,-0.09480628496833199,0.01860520982625955,0.9240296658833578,0,0,0.242,0,30
117,40522.186,65.15499999999884,-1.3023450927734375,-1.448882080078125,0,-0.09674360043804568,0.021101030656611446,0.9249895969719547,0,0,0.243,0,30
118,40587.371,65.18499999999767,-1.2316275634765625,-1.3731087646484375,0,-0.09508553764865108,0.02532472744643772,0.9238900395431984,0,0,0.243,0,30
119,40652.435,65.06399999999849,-1.1761036376953125,-1.3107069091796875,0,-0.09417796643761403,0.02691297706575256,0.9222319767538038,0,0,0.243,0,30
120,40717.62,65.18500000000495,-1.1267099609375,-1.24038037109375,0,-0.0955393232541696,0.028553586562627232,0.922127256998684,0,0,0.242,0,29
121,40782.714,65.09399999999732,-1.0912266845703125,-1.203239501953125,0,-0.0906174947635456,0.029199358385865133,0.9229126551620814,0,0,0.242,0,29
122,40847.9,65.18600000000151,-1.04818212890625,-1.146094482421875,0,-0.08763298174263529,0.028728119487826664,0.9229824683321612,0,0,0.243,0,29
123,40913.055,65.15499999999884,-1.0112791748046874,-1.091716552734375,0,-0.08644615785127914,0.0317649923862968,0.9229475617471213,0,0,0.243,0,29
124,40978.149,65.09399999999732,-0.9865833740234375,-1.0485184326171875,0,-0.09234537072301999,0.033021629447732716,0.92338389406012,0,0,0.242,0,29
125,41043.334,65.18500000000495,-0.963819091796875,-1.0284033203125,0,-0.09257226352577924,0.031956978604016174,0.923977306005798,0,0,0.243,0,29
126,41108.581,65.24699999999575,-0.9381338500976563,-0.999335693359375,0,-0.08934340440958972,0.03307398932529255,0.9228253886994818,0,0,0.243,0,29
127,41173.614,65.03300000000309,-0.9122354125976563,-0.9700157470703125,0,-0.091106186954104,0.032271137869375154,0.9234188006451599,0,0,0.243,0,29
128,41238.8,65.18600000000151,-0.8835938720703125,-0.9612081909179687,0,-0.08658578419143868,0.02881538595042638,0.9250419568495145,0,0,0.245,0,29
129,41303.924,65.12399999999616,-0.8595753784179687,-0.9219143676757813,0,-0.08538150700756261,0.02790781473938933,0.9243961850262767,0,0,0.244,0,29
130,41369.079,65.15499999999884,-0.8384186401367187,-0.9064830932617187,0,-0.08358381787800843,0.028797932657906436,0.9246579844140758,0,0,0.272,0,29
131,41434.417,65.33800000000338,-0.8071449584960938,-0.877395263671875,0,-0.08127998326537592,0.03045599544730105,0.9253910226999135,0,0,0.243,0,29
132,41499.511,65.09399999999732,-0.8037924194335937,-0.8515961303710937,0,-0.08049458510197847,0.028571039855147175,0.9266651130538693,0,0,0.244,0,29
133,41564.575,65.06399999999849,-0.7801276245117188,-0.834929443359375,0,-0.07593927575427328,0.026162485487395002,0.9275552309723866,0,0,0.245,0,29
134,41629.852,65.27700000000186,-0.7586973876953125,-0.8017705688476563,0,-0.07291985614832308,0.02565634000431664,0.9291085740066614,0,0,0,0,29
135,41694.946,65.0940000000046,-0.7249183959960938,-0.7633104858398437,0,-0.07665486074759097,0.028291787174828085,0.9288467746188622,0,0,0,0,29
136,41760.07,65.12399999999616,-0.7140769653320312,-0.7580609130859375,0,-0.07635815477475191,0.030508355324860882,0.9296670793672995,0,0,0,0,29
137,41825.225,65.15499999999884,-0.6955183715820312,-0.7424950561523438,0,-0.08112290363269643,0.032009338481576007,0.9264556735436299,0,0,0,0,29
138,41890.35,65.125,-0.695799560546875,-0.739709228515625,0,-0.08669050394655835,0.0324107642095347,0.9254608358699932,0,0,0,0,29
139,41955.505,65.15499999999884,-0.6917340087890625,-0.7654985961914063,0,-0.08871508587887177,0.03324852225049198,0.9246230778290359,0,0,0.244,0,29
140,42020.721,65.21600000000035,-0.682963134765625,-0.7808366088867188,0,-0.09403834009745447,0.03555235686312449,0.9250070502644748,0,0,0.243,0,29
141,42085.784,65.06300000000192,-0.6800468139648438,-0.805082763671875,0,-0.0936020077844559,0.033178709080412205,0.9247801574617154,0,0,0.25,0,29
142,42151.031,65.24700000000303,-0.6809290161132813,-0.8062996215820313,0,-0.09794787762192178,0.02986258350162298,0.9246230778290359,0,0,0,0,29
143,42216.156,65.125,-0.6661231689453125,-0.8345479125976563,0,-0.09958848711879645,0.030351275692181393,0.9247103442916357,0,0,0,0,29
144,42281.28,65.12399999999616,-0.65708544921875,-0.8504002075195313,0,-0.0999375529691953,0.028832839242946322,0.9250419568495145,0,0,0,0,29
145,42346.374,65.0940000000046,-0.6528035888671875,-0.87440185546875,0,-0.09642944117268672,0.027174776453551708,0.9261938741558309,0,0,0,0,29
146,42411.56,65.18599999999424,-0.6242314453125,-0.8608486328125,0,-0.08841837990603273,0.025446900494077326,0.9295449063196599,0,0,0,0,29
147,42476.684,65.12400000000343,-0.618903564453125,-0.8606751708984375,0,-0.06991788983489285,0.022794000031045942,0.9334544438441271,0,0,0,0,29
148,42541.87,65.18600000000151,-0.6888578491210937,-0.7881990966796875,0,-0.014852751934471744,0.018622663118779494,0.9506808435613112,0,0,0,0,29
149,42607.055,65.18499999999767,-0.7114998779296875,-0.6514574584960937,0,0.08032005217677905,0.023352505391684132,0.9863553734720755,0,0,0.243,0,29
150,42672.271,65.21600000000035,-0.705636962890625,-0.33601419067382815,0,0.20996310901491783,0.029094638630745476,1.0237054194647541,0,0,0.243,0,29
151,42737.335,65.06399999999849,-0.7310197143554688,0.1749759063720703,0,0.349659262344544,0.041957715217943684,1.0833258667128802,0,0,0.242,0,29
152,42802.49,65.15499999999884,-0.7464300537109375,0.8789429931640625,0,0.4864232625308197,0.0478918346747244,1.1580085054057176,0,0,0.243,0,29
153,42867.584,65.0940000000046,-0.6523790283203125,2.040105224609375,0,0.6432585491150301,0.04499458811641381,1.242866413637682,0,0,0.243,0,29
154,42932.8,65.21600000000035,-0.5181693115234375,3.4472841796875,0,0.8193797239337779,0.05131268000863328,1.313971127363931,0,0,0,0,29
155,42998.016,65.21600000000035,-0.475679443359375,5.90774755859375,0,1.0743199677725896,0.08096582400001695,1.3713575531695044,0,0,0.554,0,29
156,43063.079,65.06299999999464,-0.39274847412109376,8.42491015625,0,1.342280367831279,0.09416051314509408,1.4218848350147404,0,0,0.502,0,29
157,43128.265,65.18600000000151,0,0,0,1.6249888000693204,0.09454448558053283,1.4912267661964753,0,0,0.538,0,29
158,43193.42,65.15499999999884,0,0,0,1.9404745156598153,0.05523967082562053,1.5758228750406402,0,0,0.561,0,29
159,43258.514,65.0940000000046,0,0,0,2.2347544808385793,0.025726153174396416,1.610991259468326,0,0,0.734,0,29
160,43323.699,65.18499999999767,0,0,0,2.4949307124333746,0.013404128655316452,1.5926129424448259,0,0,1.227,0,29
161,43388.824,65.125,0,0,0,2.67475198526635,0.01233947781159991,1.553081234887154,0,0,1.249,0,29
162,43454.04,65.21600000000035,0,0,0,2.8062974509891623,0.023474678439323732,1.5151726835338373,0,0,1.185,0,29
163,43519.134,65.09399999999732,0,0,0,2.895518682351113,0.04003785304074992,1.4875964813523268,0,0,1.136,0,29
164,43584.411,65.27700000000186,0,0,0,2.9658379979139644,0.05138249317871306,1.4734767677036928,0,0,1.116,0,29
165,43649.78,65.36899999999878,0,0,0,3.0144803241670464,0.05986479334340551,1.4565645272518677,0,0,1.085,0,29
166,43714.63,64.84999999999854,0,0,0,3.048880763723854,0.06927211801165493,1.4368597599968516,0,0,1.066,0,29
167,43779.724,65.0940000000046,0,0,0,3.068323731591071,0.07834783012202545,1.4132803618024083,0,0,1.059,0,29
168,43844.97,65.24599999999919,0,0,0,3.0768409383408035,0.08583529261308112,1.399178101446294,0,0,1.049,0,29
169,43910.003,65.03299999999581,0,0,0,3.0702959536458247,0.11047934165124106,1.3930694490643138,0,0,1.046,0,29
170,43975.311,65.30800000000454,0,0,0,3.047920832635258,0.13955652698946658,1.3925283969961957,0,0,1.04,0,29
171,44040.527,65.21600000000035,0,0,0,3.0221946794608607,0.17704619932230478,1.391777905417838,0,0,1.036,0,29
172,44105.468,64.9409999999989,0,0,0,3.000465330273532,0.2190911810028482,1.3817422622188709,0,0,1.035,0,29
173,44170.959,65.4910000000018,0,0,0,2.9800100714401583,0.27328365427727214,1.3642017032363276,0,0,1.032,0,29
174,44235.931,64.9719999999943,0,0,0,2.9338112061398687,0.3362551336892275,1.3532584888263233,0,0,1.027,0,29
175,44300.964,65.03300000000309,0,0,0,2.8291089043127284,0.4325274952292347,1.3394529344430484,0,0,1.024,0,29
176,44366.119,65.15499999999884,0,0,0,2.6184825701820524,0.5819974923700291,1.3237100645900595,0,0,1.027,0,29
177,44431.304,65.18499999999767,0,0,0,2.300274140958446,0.7487986089831272,1.2362865223576633,0,0,1.066,0,29
178,44496.429,65.125,0,0,0,1.8996163578706282,0.7838797269482132,1.0719986798674372,0,0,1.25,0,29
179,44561.767,65.33800000000338,0,0,0,1.4649421076614406,0.7177492015901481,0.8848295708835653,0,0,2.684,0,29
180,44626.739,64.97200000000157,0.004594964981079102,0.0969390640258789,0,1.0619979432535096,0.5891358890106859,0.7219030852098945,0,0,2.991,0,29
181,44691.864,65.125,0.003957961082458496,0.06223487854003906,0,0.7590960515698937,0.4520228229740114,0.6132912458582874,0,0,0,0,29
182,44757.141,65.27700000000186,0.003524451732635498,0.050729278564453126,0,0.5676159793335959,0.35372587950169077,0.5444729134521511,0,0,0,0,29
183,44822.174,65.03299999999581,0.0032084355354309083,0.04499120330810547,0,0.4610985350843819,0.29663615966895623,0.4881162319052541,0,0,0,0,29
184,44887.359,65.18499999999767,0.0029338867664337157,0.041277069091796875,0,0.4081626988713939,0.23715533876098946,0.410292000558827,0,0,0.736,0,29
185,44952.514,65.15500000000611,0.0026842966079711913,0.03854449462890625,0,0.39289106791644346,0.1543918256314184,0.3175102975228084,0,0,0.715,0,29
186,45017.669,65.15499999999884,0.0024799273014068602,0.03619419479370117,0,0.38974947526285375,0.04070107815650777,0.2116735316818723,0,0,0.744,0,29
187,45082.855,65.18600000000151,0.002332918643951416,0.03392432022094727,0,0.3843215012891513,-0.0501084028247572,0.12824679343654333,0,0,1.085,0,29
188,45147.979,65.12399999999616,0.002213118314743042,0.03180510330200195,0,0.3804992302272837,-0.13201670462085108,0.05087634769563471,0,0,1.069,0,29
189,45213.134,65.15499999999884,0.002103926658630371,0.029466760635375976,0,0.34718089480671205,-0.1985661089993949,-0.02729694950119131,0,0,0,0,29
190,45278.381,65.24700000000303,0.001986378073692322,0.02690841865539551,0,0.2677160539634102,-0.22495548728954912,-0.10114183015307139,0,0,1.064,0,29
191,45343.414,65.03299999999581,0.0018631994724273681,0.024618419647216797,0,0.16664403698041858,-0.22827161286833836,-0.1866455102082736,0,0,1.056,0,29
192,45408.599,65.18500000000495,0.0017451696395874023,0.022809671401977538,0,0.09077457439622506,-0.21882938161504903,-0.2721840968485157,0,0,1.037,0,29
193,45473.693,65.09399999999732,0.0016369748115539551,0.02129473876953125,0,0.05061454830783556,-0.21347122081142647,-0.3502352209977021,0,0,1.037,0,29
194,45538.848,65.15499999999884,0.0015371456146240235,0.019920461654663085,0,0.02293362637120549,-0.21345376751890652,-0.42064180302315335,0,0,1.042,0,29
195,45604.064,65.21600000000035,0.0014462785720825194,0.018648187637329103,0,-0.006387905062299246,-0.21839304930205045,-0.4811698214823167,0,0,1.035,0,29
196,45669.158,65.0940000000046,0.001358198881149292,0.017470624923706053,0,-0.02546435378659727,-0.21073105388579533,-0.5293234555448403,0,0,1.037,0,29
197,45734.313,65.15499999999884,0.0012720714807510376,0.016370628356933595,0,-0.027104963283471933,-0.19065976748786054,-0.5714557036879834,0,0,1.037,0,29
198,45799.652,65.33899999999994,0.0011957913637161254,0.015339674949645997,0,-0.020001473227855015,-0.1869771227661525,-0.5930454265351532,0,0,1.029,0,29
199,45864.624,64.97200000000157,0.0011310993432998657,0.014377166748046875,0,0.0018675022996339327,-0.21512928360082106,-0.5891358890106859,0,0,1.031,0,29
200,45929.748,65.12399999999616,0.0010663055181503295,0.01348962116241455,0,0.032655110304813904,-0.2396511595913414,-0.5825385444381473,0,0,1.043,0,29
201,45994.964,65.21600000000035,0.0009988164901733399,0.012661628723144532,0,0.05682792044493537,-0.23858650874762483,-0.5782973943558012,0,0,1.041,0,29
202,46060.119,65.15499999999884,0.0009322412610054016,0.0118754243850708,0,0.0693768377667746,-0.2160368548118581,-0.5634097358362895,0,0,1.048,0,29
203,46125.335,65.21600000000035,0.0008745883703231811,0.011129940032958984,0,0.07279768310068349,-0.21296507532834807,-0.5412440543359616,0,0,1.053,0,29
204,46190.368,65.03300000000309,0.0008242626786231995,0.010435858726501464,0,0.08091346412245712,-0.22725932190218165,-0.5033878628602045,0,0,1.056,0,29
205,46255.493,65.125,0.0007755271196365356,0.009798076629638672,0,0.10088003076527224,-0.23389157305976008,-0.4527209546748091,0,0,1.059,0,29
206,46320.831,65.3379999999961,0.0007251570224761963,0.00920667552947998,0,0.12512265407547346,-0.22001620550640516,-0.39721948446138944,0,0,0,0,29
207,46385.864,65.03300000000309,0.0006773247718811035,0.008644410133361816,0,0.1416858286768997,-0.20313887163962,-0.34574972482007665,0,0,1.366,0,29
208,46451.171,65.3070000000007,0.0006334476470947265,0.008129438400268555,0,0.16477653468078465,-0.19760617791079796,-0.31086059307271,0,0,1.124,0,29
209,46516.296,65.125,0.0005924329161643982,0.0076736660003662105,0,0.20148080885022543,-0.20392426980301745,-0.29838148892095057,0,0,1.717,0,29
210,46581.481,65.18499999999767,0.0005557702779769898,0.00715241527557373,0,0.17458528507699278,-0.2322509635628854,-0.309342156623475,0,0,0,0,29
211,46646.545,65.06399999999849,0.0005197103023529052,0.006683007717132568,0,0.15828390986336577,-0.23818508301966618,-0.31260592232470436,0,0,0,0,29
212,46711.639,65.0940000000046,0.0004846017956733704,0.006243863582611084,0,0.14137166941154067,-0.2190213678327684,-0.3028844383910959,0,0,1.268,0,29
213,46776.794,65.15499999999884,0.0004531913101673126,0.005829207420349121,0,0.117879537679697,-0.1883384795827081,-0.286862315857788,0,0,1.496,0,29
214,46842.041,65.24699999999575,0.0004260999262332916,0.005455177307128906,0,0.10885618544688634,-0.17493435092739162,-0.25333454092697694,0,0,1.722,0,29
215,46907.073,65.03199999999924,0.0004008081555366516,0.00510464096069336,0,0.09756390518648302,-0.17252579655963945,-0.20224875372110288,0,0,1.562,0,29
216,46972.29,65.21700000000419,0.0003764814138412476,0.004777789115905762,0,0.08792968771547433,-0.16821483330721348,-0.13042845500153624,0,0,1.506,0,29
217,47037.384,65.09399999999732,0.0003521365821361542,0.004464864253997803,0,0.06113888369736137,-0.15280357601210356,-0.04579743957233121,0,0,1.503,0,29
218,47102.539,65.15499999999884,0.0003288727402687073,0.004183072090148926,0,0.06000441968356505,-0.1301317490286972,0.03710569989739944,0,0,1.491,0,29
219,47167.755,65.21600000000035,0.00030784031748771665,0.0039154281616210936,0,0.04529129408925286,-0.0999375529691953,0.11109020688943907,0,0,1.176,0,29
220,47232.849,65.0940000000046,0.0002890089750289917,0.0036647615432739257,0,0.016824973989225337,-0.07260569688296412,0.21048670779051615,0,0,1.458,0,29
221,47298.034,65.18499999999767,0.0002719903290271759,0.003433792591094971,0,0.004258603374866164,-0.05281366316534841,0.3193952531149623,0,0,1.099,0,29
222,47363.22,65.18600000000151,0.00025619104504585264,0.0032194926738739016,0,0.0248709418409192,-0.040177479380909466,0.42294563763578585,0,0,1.067,0,29
223,47428.253,65.03299999999581,0.0002415376752614975,0.003019653797149658,0,0.03988077340807043,-0.05031784233499652,0.5370552641311751,0,0,1.061,0,29
224,47493.53,65.27700000000186,0.00022800695896148682,0.0028286738395690916,0,0.02729694950119131,-0.05722934617289407,0.6925641004838698,0,0,0.789,0,29
225,47558.532,65.00200000000041,0.00021497619152069093,0.002649322271347046,0,0.0022165681500327986,-0.05859070298944965,0.8643394054651519,0,0,1.015,0,29
226,47623.748,65.21600000000035,0.00020248709619045258,0.002482434511184692,0,-0.017296212887263806,-0.05939355444536703,1.0389945037122243,0,0,0.523,0,29
227,47688.964,65.21600000000035,0.00019012393057346344,0.002326312303543091,0,-0.02584832622203602,-0.05064945489287544,1.2035615988827697,0,0,0.467,0,29
228,47754.028,65.06399999999849,0.0001779526025056839,0.002179558515548706,0,-0.020176006153054447,-0.03323106895797204,1.3411808104025225,0,0,0.435,0,29
229,47819.152,65.12400000000343,0.00016638532280921936,0.002042145729064941,0,-0.002722713633111154,-0.015760323145508796,1.436475787561413,0,0,0.379,0,29
230,47884.429,65.27699999999459,0.22326992797851564,-0.33499658203125,0,0.020176006153054447,0.011519173063162576,1.4989585747828098,0,0,0.332,0,29
231,47949.462,65.03300000000309,0.20925143432617188,-0.3141761169433594,0,0.036739180754480634,0.027768188399229784,1.522572879562293,0,0,0.308,0,29
232,48014.648,65.18600000000151,0.19603131103515625,-0.2944708251953125,0,0.04520402762665313,0.02398082392240209,1.511769291492448,0,0,0.269,0,29
233,48079.742,65.09399999999732,0.1836652374267578,-0.2762930908203125,0,0.06538003377970758,0.02415535684760152,1.490266835107878,0,0,0.254,0,29
234,48144.958,65.21600000000035,0.17212109375,-0.25927157592773437,0,0.07819075048934597,0.03282964323001334,1.4628302592665272,0,0,0.243,0,29
235,48210.144,65.18600000000151,0.16125541687011719,-0.24265985107421875,0,0.06778858814745975,0.03139847324337799,1.4331247553975837,0,0,0.243,0,29
236,48275.207,65.06300000000192,0.1510537109375,-0.22716389465332032,0,0.061400683085160515,0.024591689160600103,1.4079745608763456,0,0,0.243,0,29
237,48340.362,65.15499999999884,0.14149354553222657,-0.21270814514160155,0,0.05981243346584567,0.012932889757277981,1.3911495868871202,0,0,0.243,0,29
238,48405.914,65.55199999999604,0.13255654907226563,-0.19922879028320312,0,0.06209881478595824,0.0017278759594743865,1.385965959008697,0,0,0.243,0,29
239,48470.642,64.7280000000028,0.12419434356689453,-0.18655906677246092,0,0.055641096553579225,-0.0023911010752322315,1.3823182208720288,0,0,0.243,0,29
240,48535.797,65.15499999999884,0.11635952758789063,-0.1746463623046875,0,0.03412118687648914,0.0024434609527920616,1.3611997369228974,0,0,0.242,0,29
241,48600.952,65.15499999999884,0.10908583068847656,-0.16348095703125,0,-0.027925268031909273,0.035098571257605966,1.3440082437907535,0,0,0.243,0,29
242,48666.107,65.15500000000611,0.10236746978759766,-0.15306190490722657,0,-0.03639011490408177,0.0665144977935039,1.3334839084012275,0,0,0.242,0,29
243,48731.262,65.15499999999884,0.09594073486328125,-0.14338690185546876,0,-0.03811799086355616,0.07120943348136864,1.3341296802244655,0,0,0.242,0,29
244,48796.386,65.12399999999616,0.08988490295410156,-0.13434182739257813,0,-0.03923500158483253,0.07068583470577033,1.3340773203469056,0,0,0.242,0,29
245,48861.511,65.125,0.08421399688720703,-0.12586578369140625,0,-0.04066617157146788,0.07059856824317062,1.3338504275441465,0,0,0.242,0,29
246,48926.818,65.3070000000007,0.0789004364013672,-0.1179251480102539,0,-0.04194026192542374,0.07044148861049113,1.3338678808366662,0,0,0.242,0,29
247,48992.004,65.18600000000151,0.07392327117919922,-0.11048505401611328,0,-0.04305727264670011,0.07049384848805097,1.3338329742516266,0,0,0.242,0,29
248,49057.189,65.18499999999767,0.06925987243652344,-0.10351459503173828,0,-0.044261549830576195,0.07051130178057091,1.3337806143740667,0,0,0.242,0,29
249,49122.192,65.00300000000425,0.06489088439941407,-0.09698387908935546,0,-0.04550073359949217,0.07058111495065068,1.3337806143740667,0,0,0.242,0,29
250,49187.347,65.15499999999884,0.060797470092773434,-0.0908653564453125,0,-0.04658283773572866,0.07063347482821052,1.333745707789027,0,0,0.242,0,29
251,49252.532,65.18499999999767,0.05696225357055664,-0.08513292694091797,0,-0.047525315531805584,0.07068583470577033,1.333745707789027,0,0,0.242,0,29
252,49317.687,65.15499999999884,0.05336908721923828,-0.07976213836669922,0,-0.04850269991292242,0.07077310116837006,1.3337282544965068,0,0,0.242,0,29
253,49382.812,65.125,0.050002613067626954,-0.07473018646240234,0,-0.04935791124639964,0.07086036763096977,1.333745707789027,0,0,0.242,0,29
254,49448.089,65.27700000000186,0.04684835052490234,-0.07001584625244141,0,-0.050195669287356914,0.0709127275085296,1.3337631610815466,0,0,0.242,0,29
255,49513.122,65.03300000000309,0.04389315032958984,-0.06559888458251953,0,-0.05106833391335408,0.07098254067860939,1.3337282544965068,0,0,0.242,0,29
256,49578.308,65.18599999999424,0.041124366760253904,-0.06146059799194336,0,-0.05190609195431136,0.0710698071412091,1.333693347911467,0,0,0.242,0,29
257,49643.432,65.12400000000343,0.03852983856201172,-0.0575837287902832,0,-0.05279620987282847,0.07099999397112931,1.333658441326427,0,0,0.242,0,29
258,49708.648,65.21600000000035,0.03609920883178711,-0.053951286315917966,0,-0.05366887449882564,0.07099999397112931,1.3335362682787877,0,0,0.242,0,29
259,49773.773,65.125,0.03382194137573242,-0.05054793930053711,0,-0.05438445949214331,0.07103490055616922,1.3334839084012275,0,0,0.242,0,29
260,49838.897,65.12399999999616,0.031688329696655276,-0.04735929870605469,0,-0.0550651379004211,0.07105235384868915,1.3334490018161875,0,0,0.242,0,29
261,49904.052,65.15500000000611,0.02968914222717285,-0.04437198257446289,0,-0.05581562947877866,0.07099999397112931,1.3333791886461082,0,0,0.242,0,29
262,49969.329,65.27699999999459,0.027816314697265625,-0.04157293319702148,0,-0.056548667764616284,0.0710698071412091,1.3333268287685482,0,0,0.242,0,29
263,50034.332,65.00300000000425,0.026061580657958983,-0.038950477600097656,0,-0.05719443958785418,0.07110471372624898,1.3332221090134284,0,0,0.242,0,29
264,50099.487,65.15499999999884,0.024417591094970704,-0.03649340057373047,0,-0.05778785153353225,0.07115707360380881,1.3332046557209085,0,0,0.242,0,29
265,50164.703,65.21600000000035,0.022877281188964843,-0.03419136047363281,0,-0.058398716771730266,0.07120943348136864,1.3331173892583088,0,0,0.242,0,29
266,50229.797,65.09399999999732,0.021434131622314452,-0.03203453826904297,0,-0.05899212871740834,0.07126179335892847,1.333065029380749,0,0,0.242,0,29
267,50294.982,65.18500000000495,0.020082067489624024,-0.030013771057128907,0,-0.05965535383316618,0.07133160652900825,1.332995216210669,0,0,0.242,0,29
268,50360.168,65.18599999999424,0.018815263748168946,-0.02812045478820801,0,-0.06016149931624454,0.07140141969908802,1.3329254030405893,0,0,0.242,0,29
269,50425.201,65.03300000000309,0.01762832450866699,-0.02634660530090332,0,-0.060650191506802946,0.07141887299160796,1.3328730431630293,0,0,0.242,0,29
270,50490.509,65.30799999999726,0.016516313552856446,-0.02468462562561035,0,-0.06117379028240125,0.07148868616168774,1.3327857767004299,0,0,0.242,0,29
271,50555.633,65.12400000000343,0.015474429130554199,-0.023127567291259764,0,-0.061871921983198984,0.07152359274672762,1.33273341682287,0,0,0.242,0,29
272,50620.666,65.03299999999581,0.01449824047088623,-0.02166871643066406,0,-0.0624478806363571,0.07154104603924757,1.3326810569453102,0,0,0.242,0,29
273,50685.791,65.125,0.013583654403686524,-0.020301883697509765,0,-0.06304129258203518,0.0715934059168074,1.3326636036527901,0,0,0.242,0,29
274,50751.037,65.24599999999919,0.012726760864257813,-0.019021255493164062,0,-0.06354743806511354,0.07162831250184729,1.3326112437752304,0,0,0.242,0,29
275,50816.162,65.125,0.011923919677734375,-0.017821388244628908,0,-0.06398377037811212,0.07166321908688716,1.3325937904827105,0,0,0.242,0,29
276,50881.286,65.12400000000343,0.011171660423278808,-0.016697269439697265,0,-0.06440264939859076,0.07161085920932733,1.3325588838976705,0,0,0.242,0,29
277,50946.502,65.21600000000035,0.010466747283935547,-0.01564412498474121,0,-0.0646993553714298,0.07141887299160796,1.3325414306051506,0,0,0.242,0,29
278,51011.718,65.21600000000035,0.009806339263916015,-0.014657380104064942,0,-0.06497860805174888,0.07126179335892847,1.3325414306051506,0,0,0.242,0,29
279,51076.782,65.06399999999849,0.009187700271606446,-0.013732792854309082,0,-0.06529276731710787,0.07126179335892847,1.3325065240201106,0,0,0.242,0,29
280,51141.998,65.21600000000035,0.008608078956604004,-0.012866543769836427,0,-0.06562437987498679,0.07124434006640853,1.332454164142551,0,0,0.242,0,29
281,51207.122,65.12400000000343,0.008065024375915527,-0.012054930686950684,0,-0.06592108584782583,0.0712268867738886,1.332401804264991,0,0,0.242,0,29
282,51272.247,65.125,0.007556279182434082,-0.011294464111328124,0,-0.06620033852814491,0.07129669994396835,1.3323843509724713,0,0,0.242,0,29
283,51337.432,65.18499999999767,0.007079563140869141,-0.010582030296325684,0,-0.06647959120846401,0.07124434006640853,1.3323843509724713,0,0,0.242,0,29
284,51402.557,65.125,0.006632936477661133,-0.009914522171020507,0,-0.0667588438887831,0.0712268867738886,1.332349444387431,0,0,0.242,0,29
285,51467.864,65.3070000000007,0.006214462757110596,-0.009289135932922363,0,-0.06700318998406231,0.07115707360380881,1.3323843509724713,0,0,0.242,0,29
286,51532.958,65.09399999999732,0.005822397708892822,-0.008703192710876466,0,-0.06724753607934152,0.07108726043372905,1.332349444387431,0,0,0.242,0,29
287,51598.236,65.27799999999843,0.0054550843238830565,-0.008154191970825196,0,-0.06747442888210077,0.0710698071412091,1.3322970845098714,0,0,0.242,0,29
288,51663.299,65.06300000000192,0.00511097526550293,-0.00763979434967041,0,-0.06771877497737999,0.07115707360380881,1.3322796312173515,0,0,0.242,0,29
289,51728.424,65.125,0.004788546562194824,-0.007157873153686523,0,-0.0679631210726592,0.07113962031128887,1.3322970845098714,0,0,0.242,0,29
290,51793.609,65.18499999999767,0.004486459732055664,-0.0067063460350036625,0,-0.06817256058289851,0.07113962031128887,1.3322621779248314,0,0,0.242,0,29
291,51858.764,65.15500000000611,0.00420340347290039,-0.006283329486846924,0,-0.06839945338565777,0.07105235384868915,1.3322447246323115,0,0,0.242,0,29
292,51923.919,65.15499999999884,0.003938233613967896,-0.005886965274810791,0,-0.06860889289589708,0.0710698071412091,1.3322098180472717,0,0,0.242,0,29
293,51989.044,65.125,0.003689758062362671,-0.005515635013580322,0,-0.06876597252857658,0.07094763409356951,1.332157458169712,0,0,0.242,0,29
294,52054.321,65.27700000000186,0.003457010269165039,-0.005167680263519287,0,-0.06897541203881591,0.07103490055616922,1.332087644999632,0,0,0.242,0,29
295,52119.354,65.03299999999581,0.003238926887512207,-0.004841698169708252,0,-0.06921975813409512,0.07105235384868915,1.3320527384145922,0,0,0.242,0,29
296,52184.509,65.15499999999884,0.003034608840942383,-0.0045362887382507325,0,-0.0696211838620538,0.07110471372624898,1.3320003785370325,0,0,0.242,0,29
297,52249.664,65.15499999999884,0.002843167304992676,-0.004250141143798828,0,-0.06986552995733301,0.07108726043372905,1.3319305653669524,0,0,0.242,0,29
298,52314.819,65.15500000000611,0.00266381311416626,-0.00398202657699585,0,-0.07004006288253244,0.07113962031128887,1.3319305653669524,0,0,0.242,0,29
299,52379.974,65.15499999999884,0.002495781898498535,-0.003730816602706909,0,-0.07019714251521193,0.0712268867738886,1.3319131120744327,0,0,0.242,0,29
300,52445.098,65.12399999999616,0.0023383169174194334,-0.0034954826831817627,0,-0.07028440897781164,0.07112216701876893,1.3318782054893927,0,0,0.242,0,29
301,52510.192,65.0940000000046,0.002190793752670288,-0.0032750015258789064,0,-0.07059856824317062,0.07105235384868915,1.331843298904353,0,0,0.242,0,29
302,52575.531,65.33899999999994,0.0020525882244110108,-0.0030684022903442383,0,-0.07068583470577033,0.0710698071412091,1.331843298904353,0,0,0.242,0,29
303,52640.472,64.9409999999989,0.001923092007637024,-0.0028748462200164793,0,-0.07079055446089,0.07099999397112931,1.3318083923193131,0,0,0.242,0,29
304,52705.596,65.12399999999616,0.001801766872406006,-0.0026934995651245117,0,-0.0709127275085296,0.07096508738608943,1.3318083923193131,0,0,0.242,0,29
305,52770.843,65.24700000000303,0.001688098907470703,-0.0025235893726348875,0,-0.07101744726364927,0.07093018080104956,1.331825845611833,0,0,0.242,0,29
306,52836.059,65.21600000000035,0.00158160400390625,-0.0023643927574157715,0,-0.07108726043372905,0.07093018080104956,1.3318782054893927,0,0,0.242,0,29
307,52901.123,65.06399999999849,0.0014818354845046997,-0.00221523380279541,0,-0.0712268867738886,0.07099999397112931,1.331843298904353,0,0,0.242,0,29
308,52966.186,65.06300000000192,0.0013883613348007202,-0.002075483322143555,0,-0.0713490598215282,0.07108726043372905,1.331825845611833,0,0,0.242,0,29
309,53031.372,65.18600000000151,0.001300780415534973,-0.0019445561170578004,0,-0.0715584993317675,0.07112216701876893,1.331790939026793,0,0,0.242,0,29
310,53096.771,65.39899999999761,0.001218721628189087,-0.0018218867778778075,0,-0.07166321908688716,0.07113962031128887,1.3317734857342733,0,0,0.242,0,29
311,53161.804,65.03299999999581,0.0011418241262435914,-0.001706971049308777,0,-0.07176793884200683,0.07096508738608943,1.3317560324417532,0,0,0.242,0,29
312,53226.959,65.15500000000611,0.001069791078567505,-0.0015992894172668457,0,-0.07182029871956666,0.07096508738608943,1.3317734857342733,0,0,0.242,0,29
313,53292.083,65.12399999999616,0.0010023071765899658,-0.001498396873474121,0,-0.07192501847468633,0.07101744726364927,1.331790939026793,0,0,0.242,0,29
314,53357.269,65.18600000000151,0.0009390811920166015,-0.001403867721557617,0,-0.0719948316447661,0.07108726043372905,1.3317734857342733,0,0,0.242,0,29
315,53422.424,65.15499999999884,0.0008798378109931945,-0.0013153072595596313,0,-0.07204719152232592,0.0710698071412091,1.3317734857342733,0,0,0.242,0,29
316,53487.579,65.15499999999884,0.000824335753917694,-0.001232331395149231,0,-0.07216936456996552,0.07112216701876893,1.3317385791492333,0,0,0.242,0,29
317,53552.764,65.18500000000495,0.0007723339796066284,-0.0011545903682708741,0,-0.07225663103256524,0.07115707360380881,1.3317560324417532,0,0,0.242,0,29
318,53618.316,65.55199999999604,0.0007236154079437256,-0.0010817506313323974,0,-0.07234389749516495,0.0712268867738886,1.3317385791492333,0,0,0.242,0,29
319,53683.013,64.69700000000012,0.000677962601184845,-0.001013513445854187,0,-0.07241371066524473,0.07117452689632876,1.3317211258567134,0,0,0.242,0,29
320,53748.168,65.15499999999884,0.0006351979970932006,-0.0009495728015899658,0,-0.07250097712784445,0.07127924665144841,1.3317036725641933,0,0,0.242,0,29
321,53813.293,65.125,0.0005951293110847473,-0.0008896699547767639,0,-0.07269296334556383,0.0713490598215282,1.3317036725641933,0,0,0.242,0,29
322,53878.448,65.15499999999884,0.000557588279247284,-0.0008335434794425965,0,-0.07278022980816354,0.07141887299160796,1.3317211258567134,0,0,0.242,0,29
323,53943.634,65.18600000000151,0.0005224125981330872,-0.0007809610962867736,0,-0.07286749627076325,0.07141887299160796,1.3317211258567134,0,0,0.242,0,29
324,54009.063,65.42900000000373,0.0004894590079784393,-0.0007316921353340149,0,-0.07293730944084303,0.07150613945420768,1.3316862192716732,0,0,0.242,0,29
325,54073.883,64.81999999999971,0.0004585839211940765,-0.0006855310201644897,0,-0.07297221602588291,0.07157595262428745,1.3316862192716732,0,0,0.242,0,29
326,54139.16,65.27700000000186,0.00042965644598007204,-0.0006422824263572692,0,-0.07302457590344276,0.07166321908688716,1.3316687659791535,0,0,0.242,0,29
327,54204.254,65.09399999999732,0.00040255188941955565,-0.0006017642021179199,0,-0.07305948248848262,0.07166321908688716,1.3316687659791535,0,0,0.242,0,29
328,54269.683,65.42899999999645,0.0003771568238735199,-0.0005638027787208557,0,-0.07314674895108235,0.07168067237940712,1.3316687659791535,0,0,0.242,0,29
329,54334.472,64.78900000000431,0.0003533636629581451,-0.0005282359719276428,0,-0.07319910882864218,0.07166321908688716,1.3316862192716732,0,0,0.242,0,29
330,54399.688,65.21600000000035,0.00033107316493988036,-0.0004949112832546234,0,-0.07326892199872195,0.07173303225696695,1.3316687659791535,0,0,0.242,0,29
331,54464.813,65.125,0.0003101876378059387,-0.00046369004249572753,0,-0.07332128187628177,0.07175048554948689,1.3316687659791535,0,0,0.242,0,29
332,54529.937,65.12399999999616,0.0002906205356121063,-0.0004344373643398285,0,-0.0733736417538416,0.07180284542704671,1.3316338593941135,0,0,0.242,0,29
333,54595.153,65.21600000000035,0.0002722877562046051,-0.0004070301353931427,0,-0.07342600163140145,0.07185520530460655,1.3316338593941135,0,0,0.242,0,29
334,54660.339,65.18600000000151,0.00025511157512664794,-0.00038135290145874023,0,-0.07358308126408093,0.07192501847468633,1.3316338593941135,0,0,0.242,0,29
335,54725.341,65.00200000000041,0.00023901942372322083,-0.0003572949767112732,0,-0.07374016089676041,0.07202973822980598,1.3316338593941135,0,0,0.242,0,29
336,54790.588,65.24700000000303,0.0002239411473274231,-0.0003347546756267548,0,-0.07375761418928037,0.07204719152232592,1.3316338593941135,0,0,0.242,0,29
337,54855.712,65.12399999999616,0.0002098149210214615,-0.0003136356770992279,0,-0.07379252077432025,0.07211700469240569,1.3317036725641933,0,0,0.242,0,29
338,54920.837,65.125,0.0001965796649456024,-0.00029384899139404296,0,-0.07380997406684019,0.07218681786248547,1.3316862192716732,0,0,0.242,0,29
339,54985.992,65.15499999999884,0.00018417881429195405,-0.000275311291217804,0,-0.07384488065188008,0.07222172444752535,1.3316862192716732,0,0,0.242,0,29
340,55051.116,65.12400000000343,0.00017256046831607818,-0.0002579430043697357,0,-0.0739321471144798,0.07227408432508518,1.3316862192716732,0,0,0.242,0,29
341,55116.271,65.15499999999884,0.00016167484223842622,-0.00024167072772979736,0,-0.07401941357707952,0.07230899091012506,1.3316513126866336,0,0,0.242,0,29
342,55181.518,65.24699999999575,0.00015147468447685242,-0.00022642578184604644,0,-0.07401941357707952,0.07222172444752535,1.3316513126866336,0,0,0.242,0,29
