n,time,dt,vx,vy,vz,roll,pitch,yaw,x,y,z,detected,battery
0,60265.319,NaN,-0.14199894714355468,-0.0014404420852661133,0,-0.06178465552059926,0.11398745344774965,-0.006056292504420323,0,0,0.243,0,25
1,60330.474,NaN,-0.13304240417480467,-0.0013523244857788087,0,-0.06190682856823886,0.11407471991034937,-0.00603883921190038,0,0,0.243,0,25
2,60395.66,NaN,-0.12465220642089844,-0.001270700216293335,0,-0.06206390820091835,0.1142841594205887,-0.006021385919380436,0,0,0.243,0,25
3,60470.703,NaN,-0.11562546539306641,-0.0011821372509002686,0,-0.06223844112611779,0.11442378576074826,-0.0059690260418206065,0,0,0.243,0,25
4,60536.041,65.3379999999961,-0.10833110809326171,-0.0011091772317886352,0,-0.06237806746627734,0.11442378576074826,-0.005951572749300664,0,0,0.243,0,25
5,60606.506,NaN,-0.10098848724365235,-0.0010324137210845946,0,-0.06229080100367763,0.11433651929814853,-0.005951572749300664,0,0,0.243,0,25
6,60671.173,NaN,-0.09461831665039062,-0.0009678931832313538,0,-0.06230825429619756,0.11438887917570836,-0.005777039824101231,0,0,0.243,0,25
7,60736.358,65.18499999999767,-0.08864931488037109,-0.0009086018800735473,0,-0.062482787221396996,0.11438887917570836,-0.005532693728822024,0,0,0.243,0,25
8,60801.452,65.09399999999732,-0.0830589370727539,-0.0008536242246627808,0,-0.0626049602690366,0.11461577197846763,-0.00603883921190038,0,0,0.243,0,25
9,60866.607,65.15500000000611,-0.07781497955322265,-0.000798502504825592,0,-0.0627271333166762,0.11414453308042916,-0.005707226654021458,0,0,0.243,0,25
10,60931.823,65.21599999999307,-0.07290461730957032,-0.0007485487461090088,0,-0.06286675965683575,0.11398745344774965,-0.005829399701661061,0,0,0.243,0,28
11,60996.978,65.15500000000611,-0.06830328369140624,-0.0007012768387794495,0,-0.06300638599699529,0.11370820076743057,-0.006003932626860492,0,0,0.242,0,28
12,61062.072,65.09399999999732,-0.06399522399902344,-0.0006580108404159546,0,-0.06307619916707506,0.11383037381507018,-0.005951572749300664,0,0,0.242,0,28
13,61127.441,65.36899999999878,-0.0599570426940918,-0.0006162098050117493,0,-0.06311110575211495,0.11369074747491062,-0.005794493116621174,0,0,0.242,0,28
14,61192.382,64.9409999999989,-0.05617359161376953,-0.0005773807764053345,0,-0.0632158255072346,0.11351621454971118,-0.0057246799465414016,0,0,0.242,0,28
15,61257.568,65.18600000000151,-0.05262858200073242,-0.0005408499240875244,0,-0.06332054526235427,0.11330677503947187,-0.006108652381980153,0,0,0.242,0,28
16,61322.723,65.15499999999884,-0.04930792999267578,-0.0005072624683380127,0,-0.06346017160251383,0.11320205528435222,-0.006597344572538566,0,0,0.242,0,28
17,61387.878,65.15499999999884,-0.04619558715820313,-0.0004747412204742432,0,-0.06354743806511354,0.11287044272647329,-0.005166174585903216,0,0,0.242,0,28
18,61453.002,65.12400000000343,-0.04328373336791992,-0.0004462154507637024,0,-0.06356489135763348,0.1133591349170317,-0.006143558967020039,0,0,0.242,0,28
19,61518.218,65.21600000000035,-0.040551971435546875,-0.000417505145072937,0,-0.06358234465015342,0.11309733552923257,-0.005951572749300664,0,0,0.242,0,28
20,61583.343,65.125,-0.037990779876708985,-0.0003885514438152313,0,-0.0633729051399141,0.11241665712095476,-0.0049741883681838385,0,0,0.242,0,28
21,61648.651,65.30799999999726,-0.035595359802246096,-0.0003658069968223572,0,-0.06363470452771325,0.11273081638631373,-0.006352998477259359,0,0,0.242,0,28
22,61713.623,64.97200000000157,-0.03334614944458008,-0.0003406627178192139,0,-0.06363470452771325,0.11175343200519691,-0.005131268000863328,0,0,0.242,0,28
23,61778.808,65.18499999999767,-0.031242250442504883,-0.00031814008951187134,0,-0.06339035843243405,0.11168361883511714,-0.0063006385996995295,0,0,0.242,0,28
24,61843.902,65.0940000000046,-0.029271257400512694,-0.0003000635206699371,0,-0.06400122367063206,0.1116661655425972,-0.0056374134839416844,0,0,0.242,0,28
25,61909.149,65.24699999999575,-0.027423999786376954,-0.000279897540807724,0,-0.06372197099031296,0.11143927273983792,-0.005829399701661061,0,0,0.243,0,34
26,61974.273,65.12400000000343,-0.02569232749938965,-0.0002623238861560822,0,-0.06408849013323178,0.11088076737919976,-0.007976154681614086,0,0,0.242,0,34
27,62039.398,65.125,-0.024070926666259766,-0.0002450801432132721,0,-0.06394886379307223,0.11065387457644049,-0.007766715171374767,0,0,0.243,0,34
28,62104.553,65.15499999999884,-0.02255129051208496,-0.0002288091480731964,0,-0.06387905062299247,0.11021754226344191,-0.008011061266653973,0,0,0.243,0,34
29,62169.921,65.36800000000221,-0.021125993728637694,-0.00021052512526512147,0,-0.0628842129493557,0.10906562495712564,-0.0059690260418206065,0,0,0.243,0,34
30,62234.924,65.00299999999697,-0.01979415512084961,-0.00019910657405853273,0,-0.06351253148007364,0.10948450397760429,-0.007086036763096978,0,0,0.243,0,34
31,62300.231,65.3070000000007,-0.018546510696411132,-0.0001876353919506073,0,-0.06373942428283291,0.11000810275320258,-0.00486946861306418,0,0,0.243,0,34
32,62365.203,64.97200000000157,-0.017371904373168944,-0.00017064304649829865,0,-0.062430427343837164,0.10759954838545042,-0.007347836150896126,0,0,0.243,0,34
33,62430.45,65.24699999999575,-0.01627694320678711,-0.00016045908629894258,0,-0.0624478806363571,0.10814060045356866,-0.008447393579652554,0,0,0.243,0,34
34,62495.574,65.12400000000343,-0.01524704933166504,-0.00014776283502578735,0,-0.061959188445798695,0.10627309815393474,-0.01291543646475804,0,0,0.242,0,34
35,62560.76,65.18600000000151,-0.01428115749359131,-0.00013711021840572357,0,-0.06267477343911637,0.10360274439838339,-0.01649336143134641,0,0,0.242,0,34
36,62625.885,65.125,-0.013376176834106445,-0.00012467318773269653,0,-0.061714842350519494,0.10063568466999304,-0.018360863730980347,0,0,0.242,0,34
37,62691.223,65.3379999999961,-0.012528689384460449,-0.00010749022662639617,0,-0.05597270911145815,0.09772098481916253,-0.01916371518689774,0,0,0.242,0,34
38,62756.195,64.97200000000157,-0.0117245454788208,-0.00008082706481218337,0,-0.04454080251089529,0.08489281481700418,-0.023125612588924864,0,0,0.242,0,34
39,62821.35,65.15499999999884,-0.010965041160583496,-0.000051372557878494264,0,-0.026162485487395002,0.05996951309852516,-0.023177972466484696,0,0,0.243,0,34
40,62886.535,65.18500000000495,-0.010260127067565917,-0.000037158053368330004,0,-0.015620696805349249,0.032114058236695664,-0.01764527873766267,0,0,0.242,0,34
41,62951.721,65.18599999999424,-0.00960816478729248,-0.00003072044253349304,0,-0.010402162341886203,0.007330382858376183,-0.011519173063162576,0,0,0.243,0,34
42,63016.876,65.15499999999884,-0.009001855850219726,-0.000027692887932062148,0,-0.011606439525762293,-0.0038397243543875246,-0.007539822368615503,0,0,0.243,0,34
43,63081.97,65.0940000000046,-0.008434437751770019,-0.000025037700310349466,0,-0.013596114873035827,-0.011205013797803597,-0.0020420352248333657,0,0,0.243,0,34
44,63147.155,65.18499999999767,-0.09467205047607422,-0.061325489044189455,0,-0.015079644737231007,-0.010245082709206713,1.0321179064593669,0,0,0.243,0,34
45,63212.524,65.36899999999878,0.19082040405273437,0.1485441436767578,0,-0.004886921905584123,-0.009197885158010117,1.035468938623196,0,0,0.242,0,34
46,63277.465,64.9409999999989,0.18068769836425783,0.21737226867675782,0,-0.0005585053606381855,0.033894294073729875,1.039361022855143,0,0,0.242,0,34
47,63342.712,65.24700000000303,0.32104360961914064,0.226873046875,0,0.004153883619746505,0.09288642279113822,1.0454696752371233,0,0,0.247,0,34
48,63407.775,65.06300000000192,0.4473440856933594,0.18268881225585937,0,0.003892084231947355,0.14376277048677294,1.0530444041907787,0,0,0.267,0,34
49,63472.93,65.15499999999884,0.1446883544921875,0.03224560928344727,0,0.010262536001726656,0.18470819473855987,1.064371591036222,0,0,0.33,0,34
50,63538.116,65.18600000000151,-0.001575408935546875,0.07119883728027344,0,0.016667894356545847,0.1812349895270912,1.0727491714457946,0,0,0.431,0,34
51,63603.271,65.15499999999884,0.022279632568359374,0.15613203430175782,0,-0.010576695267085637,0.13526301702956053,1.0720859463300367,0,0,0.481,0,34
52,63668.457,65.18600000000151,0.09030386352539063,0.18210005187988282,0,-0.04557054676957195,0.08600982553828056,1.0707594960985212,0,0,0.577,0,34
53,63733.825,65.36799999999494,0.1140547103881836,0.2025484619140625,0,-0.07089527421600966,0.06227334771115768,1.0687698207512475,0,0,0.672,0,34
54,63798.706,64.88100000000122,0.15744686889648438,0.2865259094238281,0,-0.08799950088555408,0.05661848093469605,1.0649650029819,0,0,0.709,0,34
55,63863.952,65.24599999999919,0.2082109375,0.34632196044921876,0,-0.10100220381291185,0.06429792964347111,1.0606714930219938,0,0,0.768,0,34
56,63929.077,65.125,0.25041998291015627,0.41275927734375,0,-0.11976449327185089,0.08061675814961808,1.055435505266011,0,0,0.785,0,34
57,63994.232,65.15500000000611,0.273706787109375,0.4153831787109375,0,-0.14294246573833558,0.09951867394871668,1.0507231162856263,0,0,0.806,0,34
58,64059.57,65.3379999999961,0.283148681640625,0.38392449951171875,0,-0.16140804922443558,0.11861257596553464,1.0463423398631204,0,0,0.811,0,34
59,64124.542,64.97200000000157,0.2592171325683594,0.34333517456054685,0,-0.16678366332057812,0.13369222070276562,1.04341018671977,0,0,0.813,0,34
60,64189.636,65.09399999999732,0.2293763122558594,0.3200219116210937,0,-0.16170475519727465,0.139120194676468,1.0420837364882543,0,0,0.813,0,34
61,64255.004,65.36800000000221,0.20244503784179688,0.30113916015625,0,-0.15229743052902522,0.13889330187370874,1.0426247885563726,0,0,0.787,0,34
62,64319.946,64.94200000000274,0.15674545288085937,0.2788145751953125,0,-0.1464854841198841,0.13259266327400923,1.044038505250488,0,0,0.781,0,34
63,64385.162,65.21599999999307,0.13485699462890624,0.2555639190673828,0,-0.14404202316709203,0.12522737383059315,1.0459060075501219,0,0,0.745,0,34
64,64450.256,65.0940000000046,0.08124738311767578,0.1973210906982422,0,-0.1398357796697857,0.11576768928478387,1.0482971086253543,0,0,0.731,0,34
65,64515.441,65.18499999999767,0.05904400634765625,0.10578835296630859,0,-0.13325588838976704,0.10876891898428662,1.0498155450745892,0,0,0.706,0,34
66,64580.627,65.18600000000151,0.019897615432739258,0.030605278015136718,0,-0.12164944886400476,0.10250318696962699,1.051368888108864,0,0,1.105,0,34
67,64645.751,65.12399999999616,0.019677879333496094,-0.02794133949279785,0,-0.10775662801812991,0.09410815326753426,1.0533411101636179,0,0,1.094,0,34
68,64710.906,65.15500000000611,0.0058468966484069825,-0.07498147583007812,0,-0.09393362034233481,0.09030333549818662,1.0548944531978928,0,0,0.671,0,34
69,64776.306,65.39999999999418,-0.0006107068061828613,-0.09201076507568359,0,-0.0822748209390127,0.09030333549818662,1.0556100381912104,0,0,1.074,0,34
70,64841.186,64.88000000000466,-0.008033256530761718,-0.13448135375976564,0,-0.07161085920932733,0.09040805525330627,1.0568841285451662,0,0,1.073,0,34
71,64906.402,65.21600000000035,-0.014874584197998047,-0.14366676330566405,0,-0.06222098783359785,0.08845328649107262,1.0582454853617218,0,0,0.625,0,34
72,64971.466,65.06399999999849,-0.021787139892578126,-0.09793614959716797,0,-0.053808500838985175,0.08377580409572781,1.0592054164503186,0,0,0.62,0,34
73,65036.712,65.24599999999919,-0.015425315856933594,-0.093289794921875,0,-0.04715879638888678,0.07972664023110097,1.0599559080286765,0,0,0.617,0,34
74,65102.02,65.30799999999726,-0.0019384777545928954,-0.07357599639892579,0,-0.046705010783368264,0.07059856824317062,1.0598337349810367,0,0,0.591,0,34
75,65166.992,64.97200000000157,0.007182925224304199,-0.07224618530273437,0,-0.04806636759992384,0.06553711341238708,1.0603922403416748,0,0,0.606,0,34
76,65232.147,65.15499999999884,0.015341482162475585,-0.06809432220458984,0,-0.05120796025351363,0.06819001387541845,1.0602875205865552,0,0,0.584,0,34
77,65297.576,65.42900000000373,0.012653486251831055,-0.07454515838623046,0,-0.05398303376418461,0.07422885308731883,1.0608983858247532,0,0,0.583,0,34
78,65362.396,64.81999999999971,0.020496715545654298,-0.07733390808105468,0,-0.055728363016178936,0.07702137989050976,1.0598860948585964,0,0,0.572,0,34
79,65427.642,65.24599999999919,0.02400970458984375,-0.0814119873046875,0,-0.05749114556069321,0.07777187146886733,1.060025721198756,0,0,0.567,0,34
80,65492.797,65.15499999999884,0.021581436157226564,-0.09355938720703125,0,-0.060388392119003806,0.08250171374177197,1.0603747870491549,0,0,0.579,0,34
81,65557.922,65.12500000000728,0.03516849899291992,-0.10984324645996094,0,-0.06428047635095116,0.08918632477691024,1.0602700672940353,0,0,0.575,0,34
82,65623.046,65.12399999999616,0.02869754409790039,-0.11798787689208984,0,-0.06745697558958084,0.09431759277777356,1.060409693634195,0,0,0.586,0,34
83,65688.293,65.24700000000303,0.02684573745727539,-0.128494873046875,0,-0.06428047635095116,0.0940906999750143,1.060688946314514,0,0,0.603,0,34
84,65753.54,65.24699999998847,0.008261219024658203,-0.1353422546386719,0,-0.06012659273120465,0.09346238144429635,1.0606191331444341,0,0,0.642,0,34
85,65818.725,65.18500000001222,0.016250308990478517,-0.1308050079345703,0,-0.056164695329177526,0.09100146719898435,1.0595021224231578,0,0,0.618,0,34
86,65883.728,65.00299999999697,0.024045955657958983,-0.11181943511962891,0,-0.05291838292046808,0.09068730793362537,1.0595370290081976,0,0,0.623,0,34
87,65948.913,65.18499999999767,0.010814592361450196,-0.11074607849121093,0,-0.05094616086571448,0.09142034621946298,1.059118149987719,0,0,0.63,0,34
88,66013.977,65.06399999999849,0.006316231727600098,-0.10397769927978516,0,-0.049026298688520716,0.09155997255962253,1.0587341775522803,0,0,0.635,0,34
89,66079.162,65.18499999999767,0.024443340301513673,-0.08181632232666015,0,-0.0466002910282486,0.09187413182498151,1.0586643643822005,0,0,0.639,0,34
90,66144.5,65.33800000000338,0.02266091728210449,-0.071607666015625,0,-0.04389503068765739,0.09393362034233481,1.0590134302325993,0,0,0.639,0,34
91,66209.472,64.9719999999943,0.004984386920928955,-0.07564027404785156,0,-0.04319689898685966,0.09590584239708841,1.0595893888857575,0,0,0.642,0,34
92,66274.658,65.18600000000151,0.023563240051269533,-0.058586559295654296,0,-0.04365068459237818,0.09943140748611695,1.0716321607245183,0,0,0.641,0,34
93,66339.996,65.33800000000338,0.021704240798950194,-0.08534160614013672,0,-0.034871678454846705,0.1117010721276371,1.1373787136471447,0,0,0.647,0,34
94,66404.907,64.91100000000733,-0.05209200286865234,-0.08801934814453125,0,0.002775073510670984,0.10238101392198735,1.2280311149957301,0,0,0.646,0,34
95,66470.092,65.18499999999767,-0.04172527694702149,-0.005392018795013428,0,0.04972443038931845,0.07997098632638018,1.3022599680830491,0,0,0.647,0,34
96,66535.217,65.125,-0.023115612030029296,0.015386347770690917,0,0.07852236304722487,0.06909758508645551,1.3617756955760556,0,0,0.648,0,34
97,66600.372,65.15499999999884,0.00005464321374893188,0.09606224060058594,0,0.09288642279113822,0.058869955669768735,1.4206281979533044,0,0,0.651,0,34
98,66665.588,65.21600000000035,0.04142000961303711,0.155115966796875,0,0.09482373826085191,0.04951499087907913,1.477683011200999,0,0,0.649,0,34
99,66730.712,65.12399999999616,0.08192578887939453,0.21796224975585937,0,0.0889245253891111,0.04239404753094226,1.5287687984068732,0,0,0.653,0,34
100,66795.837,65.125,0.13667637634277344,0.2769046936035156,0,0.08225736764649276,0.04214970143566306,1.5766431797890772,0,0,0.652,0,34
101,66861.175,65.33800000000338,0.1870816650390625,0.28236941528320314,0,0.0719948316447661,0.04550073359949217,1.62205664692597,0,0,0.655,0,34
102,66926.116,64.94099999999162,0.18940614318847657,0.30794329833984374,0,0.056653387519735934,0.04825835381764321,1.665986584198667,0,0,0.652,0,34
103,66991.424,65.30800000000454,0.23278788757324217,0.33995095825195315,0,0.039269908169872414,0.049567350756638956,1.702306885932669,0,0,0.658,0,34
104,67056.488,65.06399999999849,0.2333360137939453,0.3457269287109375,0,0.027820548276789613,0.055169857655540756,1.7360790069587595,0,0,0.666,0,34
105,67121.612,65.12399999999616,0.2518428192138672,0.3046984558105469,0,0.01658062789394613,0.060388392119003806,1.7683501448281347,0,0,0.706,0,34
106,67186.828,65.21600000000035,0.2824662170410156,0.19136428833007812,0,0.0024609142453120045,0.0666017642561036,1.795385294941527,0,0,0.685,0,34
107,67252.105,65.27700000000186,0.33417990112304685,0.11006437683105469,0,-0.011676252695842066,0.07101744726364927,1.8132749197744686,0,0,1.052,0,34
108,67317.169,65.06399999999849,0.4882304992675781,0.024287364959716798,0,-0.02642428487519415,0.07543313027119493,1.826085636484107,0,0,1.03,0,34
109,67382.446,65.27700000000186,0.28615579223632814,-0.0405904541015625,0,-0.03499385150248631,0.09426523290021373,1.837849155642549,0,0,1.011,0,34
110,67447.387,64.94100000000617,0.2571874694824219,-0.058678497314453126,0,-0.0417657290002243,0.12861331257946215,1.848617837127354,0,0,1,0,34
111,67512.634,65.24700000000303,0.07426091003417969,-0.07396538543701171,0,-0.05136503988619312,0.16233307372799258,1.8597355844625578,0,0,0.983,0,34
112,67577.758,65.12399999999616,-0.08714262390136719,-0.11114051818847656,0,-0.05298819609054784,0.18589501862991603,1.8714292904509195,0,0,0.974,0,34
113,67642.913,65.15499999999884,-0.10981007385253906,-0.08774427795410156,0,-0.04691445029360758,0.19533724988320536,1.8829833700991223,0,0,0.963,0,34
114,67708.221,65.30800000000454,0.0029811344146728515,-0.055212772369384766,0,-0.04026474584350918,0.1916371518689774,1.8957766335162407,0,0,0.963,0,34
115,67773.193,64.9719999999943,-0.0647547378540039,-0.07396121978759766,0,-0.028169614127188478,0.17303194204271782,1.9092680286341568,0,0,0.965,0,34
116,67838.317,65.12399999999616,-0.02043034553527832,-0.08562026214599609,0,-0.011798425743481668,0.14297737232337548,1.9189720592752455,0,0,0.964,0,34
117,67903.656,65.33900000000722,-0.125835693359375,-0.10762625122070313,0,-0.002478367537831948,0.11309733552923257,1.9248363655619463,0,0,0.977,0,34
118,67968.658,65.00199999999313,0.011880155563354491,0.009752649307250977,0,0.0038048177693476384,0.09766862494160268,1.9283619306509747,0,0,0.982,0,32
119,68033.843,65.18499999999767,-0.06164683532714844,0.007256145477294922,0,0.00645771823237902,0.08377580409572781,1.9293393150320917,0,0,1.005,0,32
120,68098.937,65.09400000001187,-0.0038881549835205077,0.06804852294921875,0,0.007976154681614086,0.08049458510197847,1.9287459030864136,0,0,1.016,0,32
121,68164.123,65.18600000000151,-0.08086695098876953,0.07019474029541016,0,0.0018325957145940458,0.08002334620394,1.9277685187052969,0,0,1.044,0,32
122,68229.309,65.18599999998696,-0.00096356201171875,0.07926594543457031,0,-0.0048520153205442364,0.07888888219014369,1.926215175671022,0,0,1.078,0,32
123,68294.403,65.09400000001187,-0.05050103759765625,0.08769160461425782,0,-0.017435839227423353,0.07625343501963225,1.924539659589107,0,0,1.092,0,32
124,68359.558,65.15499999999884,0.04184380340576172,0.10945283508300781,0,-0.03267256359733385,0.07339109504636156,1.9231957560650719,0,0,1.117,0,32
125,68424.865,65.3070000000007,0.00743324089050293,0.06793245697021484,0,-0.04478514860617449,0.07037167544041137,1.922148558513875,0,0,1.149,0,32
126,68489.837,64.9719999999943,0.039701263427734376,0.09849597930908204,0,-0.05328490206338688,0.06639232474586429,1.9213282537654377,0,0,1.154,0,32
127,68555.114,65.27700000000186,-0.00003952121734619141,0.06179564666748047,0,-0.058311450309130555,0.06384414403795256,1.9208570148673993,0,0,1.038,0,32
128,68620.147,65.03299999999581,0.05740279006958008,0.0868045654296875,0,-0.056635934227215995,0.06501351463678878,1.9212584405953579,0,0,1.182,0,32
129,68685.394,65.24700000000303,-0.008639492988586427,0.05696466827392578,0,-0.05129522671611334,0.07243116395776468,1.9213282537654377,0,0,1.073,0,32
130,68750.64,65.24599999999919,0.014968429565429688,0.07010712432861328,0,-0.047490408946765705,0.0765501409924713,1.9215725998607167,0,0,1.095,0,32
131,68815.673,65.03299999999581,-0.04259359741210938,0.0031385583877563475,0,-0.04564035993965172,0.08089601082993716,1.920961734622519,0,0,1.041,0,32
132,68880.798,65.125,0.020396121978759764,0.034865436553955076,0,-0.044872415068774214,0.08452629567408539,1.9195654712209236,0,0,1.064,0,32
133,68946.441,65.64300000001094,0.09180650329589844,0.04511506652832031,0,-0.04365068459237818,0.08592255907568085,1.9176456090437297,0,0,1.049,0,32
134,69011.108,64.66699999998673,0.027322769165039062,0.006592206478118897,0,-0.045779986279811266,0.08649851772883897,1.9163889719822937,0,0,1.249,0,32
135,69076.354,65.24600000001374,0.08714630889892579,0.038109630584716794,0,-0.047525315531805584,0.09030333549818662,1.9140502307846212,0,0,1.046,0,32
136,69141.479,65.125,0.010812298774719238,0.0077465734481811524,0,-0.04804891430740389,0.0955393232541696,1.913247379328704,0,0,1.04,0,32
137,69206.604,65.125,0.10918865966796874,0.04112051773071289,0,-0.04722860955896656,0.10068804454755287,1.9118162093420688,0,0,1.047,0,32
138,69271.82,65.21600000000035,0.01902781677246094,0.0006773242950439453,0,-0.049898963314517875,0.10253809355466686,1.9103501327703933,0,0,1.031,0,32
139,69336.853,65.03299999999581,0.059361183166503906,-0.00020498508214950563,0,-0.05077162794051505,0.10644763107913416,1.909198215464077,0,0,1.049,0,32
140,69402.099,65.24599999999919,-0.002805312156677246,-0.021565296173095702,0,-0.051574479396432435,0.11208504456307583,1.9078019520624814,0,0,1.079,0,32
141,69467.346,65.24700000000303,0.04701467132568359,0.02417889976501465,0,-0.05318018230826722,0.11716395268637934,1.9065627682935655,0,0,1.042,0,32
142,69532.318,64.9719999999943,-0.02560626983642578,-0.008415929794311524,0,-0.057508598853213154,0.11777481792457735,1.9071561802392438,0,0,1.055,0,32
143,69597.686,65.36800000000221,0.014035932540893555,0.010246626853942871,0,-0.06014404602372459,0.11369074747491062,1.9075052460896424,0,0,1.055,0,32
144,69662.628,64.94199999999546,-0.06810279846191407,-0.04239533996582031,0,-0.06190682856823886,0.11049679494376101,1.9078368586475216,0,0,1.061,0,32
145,69727.783,65.15499999999884,-0.03560589599609375,-0.03736469268798828,0,-0.06546730024230729,0.10745992204529087,1.9076623257223222,0,0,1.078,0,32
146,69793.212,65.42900000000373,-0.03124787139892578,-0.0010210351943969727,0,-0.06815510729037856,0.10339330488814408,1.9078368586475216,0,0,1.054,0,32
147,69858.215,65.00299999999697,-0.028088993072509765,-0.0248795166015625,0,-0.06752678875966062,0.10044369845227366,1.9081684712054006,0,0,1.079,0,32
148,69923.248,65.03300000001036,-0.0425296630859375,-0.021803741455078126,0,-0.06532767390214776,0.09857619615263971,1.9091633088790372,0,0,1.068,0,32
149,69988.769,65.52099999999336,-0.032113452911376954,-0.07093756103515625,0,-0.06658431096358368,0.09714502616600437,1.9094774681443962,0,0,1.056,0,32
150,70053.588,64.81900000000314,-0.04041794586181641,-0.06782107543945312,0,-0.06901031862385579,0.09475392509077214,1.9097567208247155,0,0,1.077,0,32
151,70118.804,65.21600000000035,-0.04962733840942383,-0.0589285888671875,0,-0.06778858814745975,0.0951728041112508,1.9092680286341568,0,0,1.071,0,32
152,70183.868,65.06399999999849,-0.04900323486328125,-0.08609788513183594,0,-0.06726498937186146,0.09295623596121799,1.9087793364435985,0,0,1.058,0,32
153,70249.145,65.27700000000186,-0.06344477844238282,-0.05905924987792969,0,-0.064943701466709,0.09012880257298718,1.909285481926677,0,0,1.067,0,32
154,70314.27,65.125,-0.02652254295349121,-0.07382563781738281,0,-0.05787511799613196,0.08564330639536175,1.9091633088790372,0,0,1.06,0,32
155,70379.333,65.06299999999464,-0.007641212463378906,-0.024304637908935545,0,-0.05152211951887261,0.07869689597242432,1.9093552950967567,0,0,1.073,0,32
156,70444.519,65.18600000000151,-0.0034588093757629396,-0.0648246078491211,0,-0.04735078260660616,0.07545058356371487,1.9097741741172352,0,0,1.089,0,32
157,70509.826,65.3070000000007,-0.03544787979125977,-0.06086336135864258,0,-0.04499458811641381,0.07335618846132168,1.9102628663077938,0,0,1.08,0,32
158,70574.798,64.9719999999943,-0.010564855575561524,-0.08648210906982422,0,-0.04337143191205908,0.0718726585971265,1.9100359735050343,0,0,1.086,0,32
159,70639.984,65.18600000000151,-0.03239531326293945,-0.056342453002929685,0,-0.0446629755585349,0.06883578569865635,1.910158146552674,0,0,1.247,0,32
160,70705.078,65.09399999999732,0.055070114135742185,-0.05773453521728516,0,-0.04818854064756344,0.06932447788921477,1.9115195033692298,0,0,1.235,0,32
161,70770.324,65.24599999999919,0.017985580444335937,-0.040900859832763675,0,-0.04825835381764321,0.07431611954991854,1.912357261410187,0,0,1.22,0,32
162,70835.449,65.125,0.03957560729980469,-0.06742542266845702,0,-0.0461988653002899,0.07829547024446562,1.913212472743664,0,0,1.052,0,32
163,70900.634,65.18500000001222,0.049442794799804686,-0.05946312713623047,0,-0.048851765763321287,0.08082619765985741,1.9140502307846212,0,0,1.194,0,32
164,70965.759,65.125,0.03347288513183594,-0.04464602279663086,0,-0.048729592715681676,0.09082693427378491,1.9139280577369817,0,0,1.181,0,31
165,71031.036,65.27699999998731,0.0010175156593322755,-0.04024654388427734,0,-0.04977679026687827,0.1016654289286697,1.9152719612610172,0,0,1.17,0,31
166,71096.038,65.00200000000768,0.0328779182434082,-0.04856858444213867,0,-0.05375614096142535,0.11376056064499039,1.9155512139413364,0,0,1.16,0,31
167,71161.376,65.33800000000338,0.05919684982299805,-0.07746035766601563,0,-0.05937610115284709,0.12037535851004891,1.9153941343086571,0,0,1.155,0,31
168,71226.287,64.91099999999278,0.03744041442871094,-0.06569871520996094,0,-0.06045820528908357,0.12191124825180392,1.9165285983224534,0,0,1.154,0,31
169,71291.473,65.18600000000151,-0.049861133575439455,-0.07833649444580078,0,-0.05621705520673735,0.1219461548368438,1.917837595261449,0,0,1.148,0,31
170,71356.689,65.21600000000035,0.004824493408203125,-0.07156122589111329,0,-0.046844637123527814,0.1245641487148353,1.9186579000098865,0,0,1.153,0,31
171,71421.844,65.15499999999884,-0.01685011672973633,-0.04856818771362305,0,-0.036320301734002,0.12592550553139087,1.9186404467173663,0,0,1.039,0,31
172,71486.999,65.15499999999884,-0.1433151092529297,-0.03348730087280274,0,-0.02918190509334519,0.12287117934040079,1.9188673395201254,0,0,1.161,0,31
173,71552.276,65.27700000000186,-0.05873530578613281,-0.00593807315826416,0,-0.009616764178488757,0.09880308895539898,1.9195480179284037,0,0,1.167,0,31
174,71617.248,64.97200000000885,-0.12923284912109376,0.038367916107177734,0,0.022287854547967587,0.05862560957448952,1.9202810562142412,0,0,1.17,0,31
175,71682.464,65.21600000000035,0.07018634796142578,0.028858755111694338,0,0.032742376767413615,0.04061381169390805,1.918780073057526,0,0,1.174,0,31
176,71747.528,65.06399999999849,0.00260244083404541,0.07927259826660156,0,0.021310470166850764,0.046321038347929507,1.9178725018464888,0,0,1.182,0,31
177,71812.683,65.15499999999884,0.09084319305419922,0.11085655975341797,0,0.002495820830351891,0.05984734005088556,1.9181866611118479,0,0,1.205,0,31
178,71877.929,65.24599999999919,0.0610501708984375,0.056974273681640625,0,-0.02022836603061428,0.07635815477475191,1.9183088341594874,0,0,1.196,0,31
179,71942.962,65.03299999999581,0.12022555541992187,0.10900483703613281,0,-0.037559485502917975,0.09562658971676932,1.9171743701456914,0,0,1.074,0,31
180,72008.239,65.27700000000186,0.022472501754760742,0.11734963989257813,0,-0.05160938598147232,0.11348130796467129,1.9163889719822937,0,0,1.212,0,31
181,72073.425,65.18600000000151,0.06356998443603516,0.11006180572509766,0,-0.06332054526235427,0.12458160200735525,1.916580958200013,0,0,1.218,0,31
182,72138.397,64.9719999999943,-0.03507412338256836,0.07613533782958984,0,-0.07421139979479888,0.1300793891511374,1.9172965431933306,0,0,1.219,0,31
183,72203.674,65.27700000000186,0.04477587127685547,0.12980914306640626,0,-0.08257152691185173,0.12955579037553908,1.9182390209894076,0,0,1.014,0,31
184,72268.859,65.18499999999767,-0.1198280258178711,0.05831325531005859,0,-0.0898146433076282,0.12316788531323984,1.9206824819421997,0,0,1.009,0,31
185,72333.953,65.09399999999732,-0.0478873291015625,0.07321453857421875,0,-0.0913854396344231,0.1159422222099833,1.9238066213032696,0,0,1.009,0,31
186,72399.261,65.30800000000454,-0.04792528915405273,0.08454397583007812,0,-0.09033824208322651,0.11538371684934512,1.9248363655619463,0,0,1.014,0,31
187,72464.202,64.94100000000617,-0.005810840606689453,0.08677767944335937,0,-0.08918632477691024,0.11095058054927952,1.925796296650543,0,0,1.012,0,31
188,72529.357,65.15499999999884,-0.03742995834350586,0.07836750793457031,0,-0.09143779951198293,0.1034805713507438,1.9260231894533022,0,0,1.03,0,31
189,72594.696,65.33899999999267,-0.011329245567321778,0.07154206848144531,0,-0.08895943197415097,0.10177014868378936,1.9256217637253437,0,0,1.025,0,31
190,72659.667,64.971000000005,-0.05440489959716797,0.03317855453491211,0,-0.08504989444968368,0.10349802464326374,1.9249934451946258,0,0,1.051,0,31
191,72724.884,65.21700000000419,-0.02462986946105957,0.05320316696166992,0,-0.08548622676268225,0.10531316706533785,1.9239113410583892,0,0,1.029,0,31
192,72789.978,65.09399999999732,-0.05378240966796875,0.029155406951904297,0,-0.08684758357923783,0.1021541211192281,1.9226721572894734,0,0,1.031,0,31
193,72855.163,65.18499999999767,-0.04087813186645508,0.027779138565063477,0,-0.08396779031344719,0.09916960809831782,1.9216773196158365,0,0,1.047,0,31
194,72920.349,65.18600000000151,-0.07513495635986328,0.01635491371154785,0,-0.07791149780902688,0.09868091590775939,1.9211013609626784,0,0,1.056,0,31
195,72985.443,65.09399999999732,-0.07057538604736328,0.03397640609741211,0,-0.072640603468004,0.09742427884632347,1.9200541634114816,0,0,1.062,0,31
196,73050.598,65.15499999999884,-0.06421456146240234,0.008082477569580079,0,-0.07529350393103539,0.09447467241045306,1.9193385784181642,0,0,1.062,0,31
197,73115.905,65.3070000000007,-0.07029891967773437,0.020785297393798828,0,-0.07906341511534314,0.09218829109034049,1.9196352843910032,0,0,1.076,0,31
198,73180.847,64.94199999999546,-0.0621204833984375,-0.01110260009765625,0,-0.0805818515645782,0.09094910732142451,1.9196003778059634,0,0,1.254,0,31
199,73246.063,65.21600000000035,-0.08571214294433593,0.007418382644653321,0,-0.08293804605477054,0.08632398480363954,1.9203683226768407,0,0,1.071,0,31
200,73311.187,65.12400000001071,-0.05400655746459961,-0.017068559646606446,0,-0.08396779031344719,0.08265879337445145,1.9212758938878778,0,0,1.062,0,31
201,73376.373,65.18600000000151,-0.08449446868896485,-0.012191946029663087,0,-0.08285077959217083,0.0819606616736537,1.9216947729083567,0,0,1.06,0,31
202,73441.711,65.33799999998882,-0.05435167694091797,-0.03569839859008789,0,-0.07777187146886733,0.08180358204097422,1.9211537208402383,0,0,1.07,0,31
203,73506.652,64.94100000000617,-0.0842711181640625,-0.02342323875427246,0,-0.07463027881527752,0.08278096642209105,1.9207522951122797,0,0,1.056,0,31
204,73571.807,65.15499999999884,0.012390764236450195,-0.010731464385986328,0,-0.06747442888210077,0.08696975662687743,1.9190418724453253,0,0,1.092,0,31
205,73637.176,65.36900000000605,-0.028387428283691406,-0.03341239547729492,0,-0.06044075199656363,0.0908618408588248,1.9177852353838893,0,0,1.269,0,31
206,73702.148,64.9719999999943,-0.07179842376708985,-0.016801179885864256,0,-0.0558330827712986,0.09681341360812544,1.9155337606488163,0,0,1.272,0,31
207,73767.364,65.21600000000035,-0.07057138061523438,-0.03934991073608399,0,-0.054262286444503705,0.10026916552707424,1.9133520990838235,0,0,1.272,0,31
208,73832.458,65.09399999999732,-0.08126746368408203,0.00398609209060669,0,-0.05763077190085276,0.09826203688728076,1.912287448240107,0,0,1.265,0,31
209,73897.644,65.18600000000151,-0.039462772369384766,-0.007714231014251709,0,-0.06150540284028017,0.09817477042468103,1.9118511159271085,0,0,1.09,0,31
210,73962.86,65.21600000000035,-0.09115599822998047,0.0131573486328125,0,-0.0618370153981591,0.09923942126839758,1.9113100638589904,0,0,1.055,0,31
211,74027.954,65.09399999999732,-0.04310938262939453,0.01676507568359375,0,-0.06405358354819189,0.0974766387238833,1.9114845967841896,0,0,1.058,0,31
212,74093.261,65.3070000000007,-0.11097735595703125,0.02088938331604004,0,-0.07068583470577033,0.09698794653332489,1.912601607505466,0,0,1.064,0,31
213,74158.355,65.09399999999732,-0.04682332611083984,0.011826201438903809,0,-0.07904596182282318,0.09484119155337187,1.913003033233425,0,0,1.21,0,31
214,74223.327,64.97200000000885,-0.09704424285888671,0.004086842536926269,0,-0.08588765249064097,0.09234537072301999,1.9140327774921013,0,0,1.22,0,31
215,74288.513,65.18600000000151,-0.07349362182617188,-0.009276228904724121,0,-0.08957029721234898,0.09512044423369097,1.9136662583491826,0,0,1.205,0,31
216,74353.637,65.12399999999616,-0.10733357238769531,-0.02967008399963379,0,-0.09093165402890457,0.09672614714552574,1.913875697859422,0,0,1.206,0,31
217,74418.853,65.21600000000035,-0.09870527648925781,-0.024340423583984375,0,-0.08885471221903131,0.09218829109034049,1.9142771235873808,0,0,1.208,0,31
218,74484.039,65.18600000000151,-0.12131330108642578,-0.05302798080444336,0,-0.08813912722571364,0.08529424054496287,1.9153592277236173,0,0,1.207,0,31
219,74549.194,65.15499999999884,-0.09183451843261718,-0.057601173400878905,0,-0.08360127117052839,0.08236208740161242,1.9152370546759774,0,0,1.21,0,31
220,74614.379,65.18499999999767,-0.12157925415039063,-0.08411723327636719,0,-0.07775441817634737,0.08077383778229758,1.9151148816283379,0,0,1.217,0,31
221,74679.656,65.27700000000186,-0.0785873794555664,-0.029004344940185545,0,-0.07164576579436722,0.07667231404011089,1.9151148816283379,0,0,1.224,0,31
222,74744.689,65.03299999999581,-0.0826314468383789,-0.09887939453125,0,-0.06527531402458793,0.06635741816082441,1.9158479199141754,0,0,1.229,0,31
223,74809.967,65.2780000000057,-0.06213399887084961,-0.044469505310058596,0,-0.05780530482605219,0.05969026041820607,1.9172965431933306,0,0,1.234,0,31
224,74875.122,65.15499999999884,-0.07291489410400391,-0.06196637344360351,0,-0.052429690729909655,0.05585053606381855,1.9179074084315288,0,0,1.238,0,31
225,74940.216,65.09399999999732,-0.04862142562866211,-0.015403652191162109,0,-0.04996877648459765,0.051399946471233006,1.9189895125677654,0,0,1.239,0,31
226,75005.432,65.21600000000035,-0.04295446014404297,-0.04083101654052734,0,-0.04602433237509047,0.046321038347929507,1.9184135539146072,0,0,1.134,0,31
227,75070.556,65.12399999999616,-0.010005057334899902,-0.0018945846557617187,0,-0.04043927876870861,0.045553093477052,1.918221567696888,0,0,1.239,0,31
228,75135.864,65.30800000000454,0.013150051116943359,0.0025578625202178954,0,-0.038397243543875255,0.047647488579445195,1.917226730023251,0,0,1.237,0,31
229,75201.049,65.18499999999767,0.050505786895751956,0.04898453521728516,0,-0.040788344619107485,0.05049237526019595,1.9159700929618153,0,0,1.233,0,31
230,75266.082,65.03299999999581,0.07085918426513672,0.027002593994140626,0,-0.044628068973495,0.0549080582677416,1.9147483624854191,0,0,1.228,0,31
231,75331.207,65.125,0.08319816589355469,0.07843739318847656,0,-0.04475024202113461,0.07009242276009228,1.912880860185785,0,0,1.222,0,31
232,75396.362,65.15499999999884,0.09067119598388672,0.06350083923339844,0,-0.04368559117741807,0.07986626657126052,1.9131950194511438,0,0,1.212,0,31
233,75461.517,65.15500000001339,0.085666259765625,0.1226998062133789,0,-0.04574507969477137,0.08363617775556827,1.9202810562142412,0,0,1.203,0,31
234,75526.672,65.15499999999884,0.1081982192993164,0.08393903350830079,0,-0.05176646561415182,0.08897688526667091,1.9275067193174977,0,0,1.198,0,31
235,75591.766,65.09399999999732,0.0986072998046875,0.12607935333251954,0,-0.056042522281537915,0.09417796643761403,1.9301072599029694,0,0,1.193,0,31
236,75656.951,65.18499999999767,0.09416487884521485,0.09123554229736328,0,-0.06375687757535285,0.09719738604356422,1.932323828053002,0,0,1.187,0,31
237,75722.198,65.24700000000303,0.058460765838623044,0.11556654357910157,0,-0.07276277651564358,0.10274753306490617,1.936250818869989,0,0,1.182,0,31
238,75787.2,65.00199999999313,0.0776032485961914,0.05888771820068359,0,-0.0819606616736537,0.10843730642640768,1.940649048585015,0,0,1.18,0,31
239,75852.447,65.24700000000303,0.02213009452819824,0.04600968933105469,0,-0.08637634468119937,0.11573278269974399,1.9449076519598811,0,0,1.175,0,31
240,75917.541,65.09399999999732,0.011343642234802246,0.015352676391601563,0,-0.08895943197415097,0.12014846570728965,1.949567681062706,0,0,1.176,0,31
241,75982.757,65.21600000000035,-0.007922350406646728,0.027284643173217774,0,-0.09265952998837897,0.1159771287950232,1.9550131083289282,0,0,1.176,0,31
242,76047.882,65.125,-0.025104063034057617,0.006410408973693848,0,-0.09236282401553991,0.11131709969219834,1.9605632553502699,0,0,0.996,0,31
243,76113.037,65.15499999999884,-0.010499738693237304,-0.004704737663269043,0,-0.09082693427378491,0.10737265558269114,1.9649265784802559,0,0,0.99,0,31
244,76178.192,65.15499999999884,-0.02538945770263672,0.010684650421142578,0,-0.09208357133522083,0.10475466170469966,1.9691677285626024,0,0,1.017,0,31
245,76243.469,65.27700000000186,-0.0365918083190918,-0.052275222778320314,0,-0.09414305985257414,0.10225884087434776,1.9760443258154599,0,0,1.027,0,31
246,76308.807,65.33800000000338,-0.039997886657714844,-0.07152696228027344,0,-0.11229448407331516,0.09145525280450287,1.9851025846333104,0,0,1.027,0,31
247,76373.535,64.7280000000028,-0.023611543655395507,-0.0833237533569336,0,-0.13995795271742528,0.06981317007977318,1.9949113350295187,0,0,1.036,0,31
248,76438.659,65.12399999999616,-0.014565620422363281,-0.1714901580810547,0,-0.16259487311579174,0.04661774432076853,2.004248846527688,0,0,1.047,0,31
249,76503.906,65.24700000000303,-0.008059661865234375,-0.170421142578125,0,-0.17596409518606831,0.028885199120506154,2.0124693473045814,0,0,1.061,0,31
250,76569,65.09399999999732,0.02305091667175293,-0.22963169860839844,0,-0.18182840147276924,0.019146261894377795,2.0186652661491613,0,0,1.06,0,31
251,76634.155,65.15499999999884,0.03801608657836914,-0.29096035766601563,0,-0.18465583486100007,0.010053096491487336,2.0246168388984622,0,0,1.247,0,31
252,76699.279,65.12399999999616,0.08412214660644532,-0.412630126953125,0,-0.18018779197589457,0.005777039824101231,2.0306556781103624,0,0,1.261,0,31
253,76764.709,65.43000000000757,0.06892753601074218,-0.4720599365234375,0,-0.16924457756589012,0.007993607974134028,2.0361709185466643,0,0,1.257,0,31
254,76829.681,64.9719999999943,0.12802139282226563,-0.4925126953125,0,-0.1518960048010665,0.017278759594743863,2.0400979093636518,0,0,1.255,0,31
255,76895.111,65.43000000000757,0.12115721130371093,-0.5139319458007813,0,-0.13060298792673566,0.028885199120506154,2.044670672003877,0,0,1.198,0,31
256,76959.96,64.84900000000198,0.0705130386352539,-0.5182398071289063,0,-0.11292280260403312,0.04113741046950635,2.0485103963582647,0,0,1.145,0,31
257,77025.115,65.15499999999884,0.18135502624511718,-0.5156197509765625,0,-0.09620254836992743,0.055169857655540756,2.050796777678377,0,0,1.266,0,30
258,77090.332,65.21699999998964,0.11251731109619141,-0.49692254638671873,0,-0.0748920782030767,0.06969099703213358,2.053606757774088,0,0,1.261,0,30
259,77155.426,65.09400000001187,0.12592549896240235,-0.4879021301269531,0,-0.04653047785816882,0.0807912910748175,2.056922883352877,0,0,1.188,0,30
260,77220.581,65.15499999999884,0.07426663970947266,-0.4159740600585938,0,-0.013212142437597075,0.08911651160683047,2.058074800659193,0,0,1.243,0,30
261,77286.254,65.67299999999523,0.1150601806640625,-0.3822394104003906,0,0.02029817920069405,0.09688322677820524,2.058738025774951,0,0,1.249,0,30
262,77350.952,64.69800000000396,0.09632021331787109,-0.27541140747070314,0,0.03907792195215303,0.09754645189396308,2.057010149815477,0,0,1.244,0,30
263,77416.168,65.21600000000035,0.11882244873046875,-0.1557132110595703,0,0.05054473513775578,0.09958848711879645,2.0525072003453313,0,0,1.237,0,30
264,77481.14,64.9719999999943,0.0874359359741211,-0.047098777770996095,0,0.05386086071654501,0.09623745495496733,2.0466952539361905,0,0,1.237,0,30
265,77546.295,65.15499999999884,0.09640869140625,0.06681398773193359,0,0.05117305366847374,0.091717052192302,2.0413894530101278,0,0,1.225,0,30
266,77611.541,65.24599999999919,0.1112748031616211,0.11930766296386719,0,0.03939208121751202,0.09035569537574643,2.037305382560461,0,0,1.216,0,30
267,77676.635,65.09399999999732,0.18361341857910157,0.14948013305664062,0,0.014608405839192538,0.09077457439622506,2.03453030904979,0,0,1.203,0,30
268,77741.79,65.15499999999884,0.18428767395019532,0.1552662811279297,0,-0.012793263417118434,0.09082693427378491,2.033326031865914,0,0,1.193,0,30
269,77807.098,65.30800000000454,0.24383248901367188,0.09466294860839844,0,-0.04309217923174,0.0933227551041368,2.032976966015515,0,0,1.173,0,30
270,77872.1,65.00200000000768,0.20539111328125,0.06353810501098633,0,-0.06965609044709369,0.09789551774436195,2.0335005647911135,0,0,1.168,0,30
271,77937.255,65.15499999999884,0.21493122863769532,0.018063371658325195,0,-0.09269443657341885,0.10260790672474661,2.0356298664785464,0,0,1.151,0,30
272,78002.349,65.09399999999732,0.07294540405273438,-0.02403937911987305,0,-0.10620328498385495,0.10697122985473244,2.036275638301784,0,0,1.149,0,30
273,78067.565,65.21600000000035,0.03766162109375,-0.05800612258911133,0,-0.11150908590991772,0.10503391438501875,2.036973770002582,0,0,1.139,0,30
274,78132.751,65.18600000000151,-0.04533369827270508,-0.09196299743652343,0,-0.11526154380170552,0.10302678574522527,2.0386143794994567,0,0,1.139,0,30
275,78197.845,65.09399999999732,0.025635330200195313,-0.08864141845703125,0,-0.11866493584309447,0.10159561575858991,2.039679030343173,0,0,1.14,0,30
276,78262.969,65.12399999999616,0.012351716041564941,-0.09139622497558594,0,-0.11946778729901185,0.0956614963018092,2.0421748511735247,0,0,1.148,0,30
277,78328.369,65.40000000000873,-0.04055463409423828,-0.13580189514160157,0,-0.11932816095885229,0.08906415172927064,2.045229177364515,0,0,1.163,0,30
278,78393.28,64.91099999999278,-0.007813921928405762,-0.10168523406982422,0,-0.11779227121709729,0.08531169383748283,2.0490339951338625,0,0,1.172,0,30
279,78458.465,65.18499999999767,0.08362403106689453,-0.10289521789550782,0,-0.11280062955639351,0.08218755447641296,2.0512680165764157,0,0,1.197,0,30
280,78523.59,65.125,-0.023013242721557615,-0.12319276428222656,0,-0.10075785771763264,0.07764969842122772,2.0537987439918073,0,0,1.205,0,30
281,78588.867,65.27700000000186,-0.0025221872329711913,-0.12027278137207031,0,-0.08649851772883897,0.07302457590344276,2.0547761283729242,0,0,1.104,0,30
282,78654.022,65.15499999999884,0.09024142456054687,-0.12030359649658204,0,-0.07176793884200683,0.07021459580773187,2.055736059461521,0,0,1.257,0,30
283,78719.177,65.15499999999884,0.006603031158447265,-0.14198115539550782,0,-0.05811946409141117,0.06963863715457375,2.0549681145906433,0,0,1.272,0,30
284,78784.21,65.03300000001036,0.07695925140380859,-0.14098770141601563,0,-0.050003683069637546,0.06899286533133585,2.0528911727807704,0,0,1.11,0,30
285,78849.578,65.36799999998766,0.0593872184753418,-0.14473835754394532,0,-0.045099307871533476,0.0701447826376521,2.0503255387803385,0,0,1.166,0,30
286,78914.611,65.03300000001036,0.13650088500976562,-0.14525926208496093,0,-0.04024729255098924,0.07271041663808378,2.0473584790519483,0,0,1.326,0,30
287,78979.766,65.15499999999884,0.047647918701171875,-0.15607196044921876,0,-0.023649211364523165,0.07684684696531033,2.0451419109019153,0,0,1.185,0,30
288,79044.83,65.06399999999849,0.08190679931640625,-0.06685293579101563,0,0.00003490658503988659,0.0757472895365539,2.041354546425088,0,0,1.164,0,30
289,79110.107,65.27700000000186,0.07128350830078126,-0.031228281021118163,0,0.004904375198104066,0.07358308126408093,2.0478122646574666,0,0,1.192,0,30
290,79175.628,65.52099999999336,0.12807269287109374,-0.020285823822021484,0,-0.003909537524467298,0.0696211838620538,2.055736059461521,0,0,1.18,0,30
291,79240.356,64.7280000000028,0.06925460815429688,-0.015275167465209962,0,-0.012688543661998775,0.06843435997069766,2.0608149675848244,0,0,1.209,0,30
292,79305.541,65.18499999999767,0.1299884490966797,0.01642654228210449,0,-0.020629791758572973,0.07342600163140145,2.064986304497091,0,0,1.274,0,30
293,79370.819,65.2780000000057,0.09079705810546874,0.04371944808959961,0,-0.032724923474893676,0.07908086840786306,2.0698906796951952,0,0,1.272,0,30
294,79435.821,65.00199999999313,0.12370863342285156,0.09948918151855468,0,-0.04307472593922005,0.08347909812288878,2.0742365495326607,0,0,1.308,0,30
295,79501.098,65.27700000000186,0.10426226043701171,0.12589330291748047,0,-0.0510334273283142,0.0857131195654415,2.0777446613291697,0,0,1.306,0,30
296,79566.009,64.91100000000733,0.16861869812011718,0.18178614807128907,0,-0.06148794954776023,0.09222319767538036,2.079786696554003,0,0,1.302,0,30
297,79631.256,65.24699999998847,0.13869183349609376,0.15968896484375,0,-0.07831292353698557,0.10026916552707424,2.0812527731256782,0,0,1.3,0,30
298,79696.411,65.15499999999884,0.187539306640625,0.2195834503173828,0,-0.09377654070965533,0.10709340290237207,2.082544316772154,0,0,1.308,0,30
299,79761.657,65.24600000001374,0.1151680908203125,0.18691534423828124,0,-0.10721557595001166,0.11573278269974399,2.0842198328540684,0,0,1.299,0,30
300,79826.904,65.24699999998847,0.10237974548339844,0.1950817108154297,0,-0.11817624365253605,0.12035790521752895,2.0860000686911024,0,0,1.291,0,30
301,79892.15,65.24599999999919,0.0971927719116211,0.1624488525390625,0,-0.12859585928694223,0.12295844580300051,2.0880246506234164,0,0,1.274,0,30
302,79956.97,64.82000000000698,0.0800243148803711,0.16321337890625,0,-0.14079571075838257,0.12131783630612583,2.093627157522318,0,0,1.175,0,30
303,80022.308,65.33800000000338,0.0355032844543457,0.11489241027832031,0,-0.15362388076054087,0.10927506446736497,2.1023188971972497,0,0,1.143,0,30
304,80087.28,64.9719999999943,0.056410987854003905,0.14758358764648438,0,-0.1419476280646988,0.0805469449795383,2.112616339784016,0,0,1.165,0,30
305,80152.465,65.18499999999767,0.018782604217529298,0.11629800415039063,0,-0.12391837689159739,0.04803146101488394,2.121273172873908,0,0,1.254,0,30
306,80217.681,65.21600000000035,0.0823626480102539,0.09950382995605468,0,-0.10365510427594322,0.02757620218151041,2.127067665990529,0,0,1.263,0,30
307,80282.745,65.06399999999849,0.07919477844238282,0.09105061340332031,0,-0.09009389598794729,0.015114551322270893,2.130505964616958,0,0,1.263,0,30
308,80347.9,65.15499999999884,0.15188563537597657,0.06690811920166016,0,-0.08056439827205825,0.016057029118347832,2.1322687471614725,0,0,1.243,0,30
309,80413.238,65.33800000000338,0.11438238525390625,0.01042797565460205,0,-0.07290240285580314,0.024644049038159928,2.1334555710528287,0,0,1.217,0,30
310,80478.21,64.97200000000885,0.17665782165527344,0.015816525459289552,0,-0.06979571678725324,0.035203291012725624,2.1333857578827486,0,0,1.287,0,30
311,80543.457,65.24699999998847,0.1618673858642578,-0.009547368049621582,0,-0.06583381938522612,0.041713369122664476,2.133577744100468,0,0,1.297,0,30
312,80608.52,65.0630000000092,0.18747114562988282,0.019586967468261718,0,-0.05757841202329293,0.04546582701445229,2.1328796123996705,0,0,1.298,0,30
313,80673.706,65.18600000000151,0.20288070678710937,0.028137123107910156,0,-0.0510334273283142,0.04867723283812185,2.131675335215794,0,0,1.311,0,30
314,80739.257,65.5509999999922,0.27416390991210937,0.0438418197631836,0,-0.04468042885105484,0.0530929158456675,2.128987528167723,0,0,1.317,0,30
315,80803.985,64.7280000000028,0.2102871551513672,0.0593067741394043,0,-0.04190535534038385,0.05630432166933707,2.125863388806653,0,0,2.103,0,30
316,80869.11,65.125,0.3200487060546875,0.12133463287353516,0,-0.04972443038931845,0.05558873667601939,2.121936397989666,0,0,4.304,0,30
317,80934.509,65.39900000000489,0.329675537109375,-0.012631367683410645,0,-0.07209955139988576,0.05543165704333991,2.1194580304518342,0,0,1.153,0,30
318,80999.542,65.03299999999581,0.25196530151367186,-0.07784310150146484,0,-0.09950122065619672,0.05459389900238262,2.1206274010506703,0,0,1.172,0,30
319,81064.727,65.18499999999767,0.24343247985839844,0.02199441909790039,0,-0.1117010721276371,0.057037359955174685,2.122931235663303,0,0,1.126,0,29
320,81129.821,65.09399999999732,0.25057603454589844,0.050440662384033205,0,-0.10843730642640768,0.059044488594968164,2.1272421989157286,0,0,1.132,0,29
321,81195.037,65.21600000000035,0.25542840576171877,0.046656177520751956,0,-0.09676105373056564,0.06459463561631014,2.1329145189847103,0,0,1.111,0,29
322,81260.162,65.125,0.275401611328125,0.038212608337402344,0,-0.08532914713000277,0.07061602153569058,2.1349914607945832,0,0,1.087,0,29
323,81325.225,65.0630000000092,0.12767333221435548,-0.029104585647583007,0,-0.03715805977495927,0.060650191506802946,2.141309552686803,0,0,1.101,0,29
324,81390.411,65.18599999998696,0.043408260345458985,-0.13537515258789062,0,0.03467969223712733,0.044436082755775624,2.2089759677866234,0,0,1.243,0,29
325,81455.718,65.3070000000007,0.04646236038208008,-0.11430064392089843,0,0.10159561575858991,0.05119050696099368,2.2882837289972455,0,0,1.134,0,29
326,81520.751,65.03300000001036,-0.002864958047866821,-0.058014060974121096,0,0.12103858362580676,0.07094763409356951,2.344186624938624,0,0,1.105,0,29
327,81585.906,65.15499999999884,0.048775569915771484,0.010558332443237305,0,0.1205324381427284,0.09297368925373792,2.379599355461589,0,0,1.159,0,29
328,81651,65.09399999999732,-0.08993086242675781,0.11864647674560547,0,0.10253809355466686,0.1037598240310629,2.3913977812050704,0,0,1.149,0,29
329,81716.156,65.15600000000268,0.02042428970336914,0.19730125427246092,0,0.06878342582109652,0.09873327578531922,2.3801753141147466,0,0,1.36,0,29
330,81781.585,65.42900000000373,0.005445246696472168,0.2672135925292969,0,0.022636920398366452,0.06850417314077742,2.359632788818774,0,0,1.191,0,29
331,81846.527,64.94199999999546,0.026911064147949217,0.24273724365234375,0,0.010855947947404729,0.006684611035138282,2.2830302879487427,0,0,1.174,0,29
332,81911.59,65.06299999999464,0.010113129615783692,0.18478895568847656,0,0.0019896753472735357,-0.04420918995301636,2.2372852082539714,0,0,1.217,0,29
333,81977.02,65.43000000000757,0.04228435134887695,0.13597702026367187,0,-0.004834562028024293,-0.06939429105929454,2.2111052694740563,0,0,1.209,0,29
334,82041.9,64.8799999999901,0.13806591796875,0.10498379516601562,0,-0.046879543708567686,-0.04262094033370153,2.2119953873925735,0,0,1.451,0,29
335,82107.147,65.24700000000303,-0.0014897363185882569,0.08888804626464844,0,-0.011920598791121272,-0.05436700619962337,2.1731967181207392,0,0,1.278,0,29
336,82172.302,65.15499999999884,0.08873405456542968,0.14735325622558593,0,0.015690509975429024,-0.04817108735504349,2.1499838390692148,0,0,1.312,0,29
337,82237.396,65.09399999999732,-0.03294295120239258,0.03516179656982422,0,0.05569345643113906,-0.037088246604879506,2.130174352059079,0,0,1.486,0,29
338,82303.161,65.76499999999942,0.0700755844116211,0.08095278930664063,0,0.06960373056953387,-0.012723450247038663,2.1093700273753067,0,0,1.475,0,29
339,82367.828,64.66700000000128,-0.00857209587097168,0.09655050659179687,0,0.08843583319855268,0.0010122909661567112,2.084394365779268,0,0,1.477,0,29
340,82433.135,65.3070000000007,0.032488967895507814,0.13340908813476562,0,0.0767595805027106,0.02106612407157156,2.054165263134726,0,0,1.481,0,29
341,82498.199,65.06399999999849,-0.05303901290893555,0.09190145874023438,0,0.07984881327874058,0.043353978619539144,2.022539897088589,0,0,1.464,0,29
342,82563.079,64.88000000000466,-0.14762838745117188,0.14424966430664063,0,0.09133307975686325,0.07969173364606108,1.9844044529325127,0,0,1.465,0,29
343,82628.234,65.15499999999884,-0.2243616943359375,0.15552468872070313,0,0.08569566627292158,0.1278802742936245,1.9305784988010077,0,0,1.257,0,29
344,82693.542,65.30800000000454,-0.22221487426757813,0.21219367980957032,0,0.07744025891098841,0.16009905228543986,1.855581700842811,0,0,1.457,0,29
345,82758.789,65.24700000000303,-0.345329345703125,0.18692073059082032,0,0.04958480404915891,0.18243926671096725,1.7690831831139724,0,0,1.228,0,29
346,82823.944,65.15499999999884,-0.370508544921875,0.20250418090820313,0,0.002373647782712288,0.19240509673985487,1.67745339738427,0,0,1.214,0,29
347,82888.885,64.94099999999162,-0.4216489868164062,0.16298770141601562,0,-0.049253191491279984,0.18430676901060122,1.5946026177920993,0,0,1.206,0,29
348,82954.01,65.125,-0.40558462524414063,0.14683268737792968,0,-0.10402162341886204,0.1652128669937832,1.5237247968686094,0,0,1.22,0,29
349,83019.531,65.52100000000792,-0.22731582641601564,0.0720854721069336,0,-0.15819664340076603,0.14409438304465183,1.482953905542022,0,0,1.157,0,29
350,83084.594,65.06299999999464,-0.45246893310546876,0.054078712463378906,0,-0.20961404316451898,0.13426817935592375,1.4772466788880005,0,0,1.133,0,27
351,83149.505,64.91100000000733,-0.64180810546875,0.019349037170410158,0,-0.2562666940703274,0.14238396037769738,1.5187680617929455,0,0,1.195,0,27
352,83214.874,65.3689999999915,-0.7839689331054688,-0.01818288803100586,0,-0.29044024082437636,0.1581791901082461,1.595649815343296,0,0,1.135,0,27
353,83345.092,130.21800000000803,-0.8446416015625,-0.07040458679199219,0,-0.30162780132966005,0.11023499555596185,1.7671982275218185,0,0,1.125,0,27
354,83410.186,65.09399999999732,-0.8174929809570313,-0.11579901123046875,0,-0.290859119844855,0.0694990108144142,1.840310069887861,0,0,1.16,0,27
355,83475.311,65.125,-0.8184558715820313,-0.21323049926757812,0,-0.26434756850706115,0.03953170755767157,1.8949737820603234,0,0,1.159,0,27
356,83540.649,65.33800000000338,-0.72378271484375,-0.27973605346679686,0,-0.23342033416172164,0.01816887751326097,1.9337026381620777,0,0,2.255,0,27
357,83605.59,64.94099999999162,-0.6062528076171875,-0.38409091186523436,0,-0.20247564652386218,0.0008552113334772215,1.9604061757175906,0,0,1.235,0,27
358,83670.806,65.21600000000035,-0.54634033203125,-0.406612548828125,0,-0.17502161738999136,-0.012863076587198208,1.9789764789588105,0,0,1.052,0,27
359,83735.992,65.18600000000151,-0.29030795288085937,-0.4062991943359375,0,-0.14388494353441253,-0.021223203704251046,1.9912112370152906,0,0,1.022,0,27
360,83801.116,65.12399999999616,-0.12295663452148438,-0.4638828125,0,-0.11156144578747755,-0.021694442602289518,1.9993619246221044,0,0,1.343,0,27
361,83866.271,65.15499999999884,-0.11246808624267578,-0.5462284545898437,0,-0.07942993425826193,-0.012130038301360588,2.0036030747044506,0,0,1.448,0,27
362,83931.396,65.125,-0.0625521240234375,-0.5410087280273438,0,-0.04825835381764321,0.0038222710618675813,2.005610203344244,0,0,1.47,0,27
363,83996.49,65.09400000001187,0.12925631713867186,-0.6255394897460937,0,-0.01911135530933791,0.01918116847941768,2.0057323763918835,0,0,1.5,0,27
364,84061.828,65.33799999998882,-0.07402106475830078,-0.6676259765625,0,0.008552113334772213,0.031014500807939237,2.006500321262761,0,0,4.242,0,27
365,84126.739,64.91100000000733,-0.3321849365234375,-0.5715897216796875,0,0.03077015471266003,0.046652650905808425,2.007076279915919,0,0,1.729,0,27
366,84191.833,65.09399999999732,-0.40734942626953125,-0.4862154235839844,0,0.04773475504204491,0.0666366708411435,2.007495158936398,0,0,1.617,0,27
367,84257.019,65.18600000000151,-0.41602847290039063,-0.38143536376953124,0,0.05899212871740834,0.08061675814961808,2.0085947163651543,0,0,1.627,0,27
368,84322.235,65.21600000000035,-0.40477413940429685,-0.32993212890625,0,0.06363470452771325,0.0764803278223915,2.0094499276986313,0,0,1.648,0,27
369,84387.451,65.21600000000035,-0.34784722900390624,-0.2372857666015625,0,0.06852162643329737,0.05979498017332573,2.009205581603352,0,0,1.807,0,27
370,84452.514,65.06299999999464,-0.29378643798828125,-0.15933975219726562,0,0.06459463561631014,0.040823251204147364,2.0090659552631926,0,0,1.469,0,27
371,84517.639,65.125,-0.17961093139648437,-0.09833759307861328,0,0.055309483995700306,0.029722957161463434,2.009502287576191,0,0,1.477,0,27
372,84582.977,65.33800000000338,-0.11028256225585938,-0.04631223297119141,0,0.04787438138220446,0.02605776573227534,2.010322592324629,0,0,1.479,0,27
373,84648.01,65.03299999999581,-0.06731419372558593,0.005570792198181153,0,0.04068362486398782,0.027087509990951997,2.0120330149915833,0,0,1.487,0,27
374,84713.195,65.18500000001222,0.004790919303894043,0.042697154998779296,0,0.02787290815434944,0.027157323161031765,2.013237292175459,0,0,1.482,0,27
375,84778.411,65.2159999999858,0.0837402572631836,0.05056953430175781,0,0.013526301702956054,0.03481931857728687,2.015418953740452,0,0,1.849,0,27
376,84843.566,65.15500000001339,0.13130877685546874,0.0962134780883789,0,0.0017453292519943296,0.04562290664713177,2.017478442257805,0,0,1.538,0,27
377,84908.843,65.27699999998731,0.19072378540039062,0.11695588684082031,0,-0.0113271868454432,0.056740653982335645,2.0193459445574393,0,0,1.862,0,27
378,84973.785,64.94200000001001,0.23221141052246094,0.13765682983398436,0,-0.02204350845268838,0.06597344572538565,2.019328491264919,0,0,1.737,0,27
379,85038.97,65.18499999999767,0.27415838623046873,0.13624270629882812,0,-0.03399901382884954,0.07723081940074908,2.0202360624759566,0,0,1.876,0,27
380,85104.4,65.42999999999302,0.2926283264160156,0.13460292053222656,0,-0.04242895411598215,0.09222319767538036,2.020044076258237,0,0,1.716,0,27
381,85169.281,64.8810000000085,0.28185440063476563,0.12903550720214843,0,-0.04707152992628707,0.10665707058937346,2.020026622965717,0,0,1.694,0,27
382,85234.466,65.18499999999767,0.282471435546875,0.10486140441894531,0,-0.048485246620402475,0.12137019618368566,2.019485570897599,0,0,1.708,0,27
383,85299.56,65.09399999999732,0.24603387451171874,0.088533935546875,0,-0.04733332931408622,0.1345997919138027,2.018769985904281,0,0,1.859,0,27
384,85364.715,65.15499999999884,0.2691879577636719,0.10598951721191406,0,-0.04515166774909331,0.14309954537101507,2.018124214081043,0,0,1.863,0,27
385,85430.084,65.36900000000605,0.2985601806640625,0.1031641845703125,0,-0.042010075095503516,0.1525068700392645,2.0187350793192413,0,0,1.663,0,27
386,85495.147,65.06299999999464,0.2641305847167969,0.08596550750732422,0,-0.039095375244672985,0.16046557142835866,2.0190492385846004,0,0,1.685,0,27
387,85560.272,65.125,0.23355412292480468,0.08478997802734375,0,-0.03804817769347638,0.1660506250347405,2.0186478128566416,0,0,1.723,0,27
388,85626.037,65.76499999999942,0.20642803955078126,0.09072647094726563,0,-0.03811799086355616,0.1716182253486024,2.019328491264919,0,0,1.723,0,27
389,85690.582,64.54499999999825,0.16689207458496094,0.07983280181884765,0,-0.035185837720205684,0.17470745812463237,2.021946485142911,0,0,1.719,0,27
390,85755.737,65.15499999999884,0.10630984497070313,0.09102879333496093,0,-0.03258529713473413,0.1764527873766267,2.0243201329256233,0,0,2.66,0,27
391,85820.892,65.15500000001339,0.09348053741455079,0.07400706481933594,0,-0.030159289474462014,0.1794722069825769,2.02840420337529,0,0,1.742,0,27
392,85886.016,65.12399999999616,0.049380531311035154,0.08422820281982422,0,-0.0290248254606657,0.18165386854756982,2.032907152845435,0,0,1.729,0,27
393,85951.232,65.21600000000035,0.021891952514648438,0.07208879089355469,0,-0.030805061297699915,0.1829454121940456,2.039434684247894,0,0,1.768,0,27
394,86016.357,65.125,0.00032909059524536134,0.0720203628540039,0,-0.03279473664497345,0.17893115491445866,2.0489990885488227,0,0,1.725,0,27
395,86081.512,65.15499999999884,-0.009035151481628418,0.07326101684570313,0,-0.030997047515419294,0.17425367251911386,2.0596455969859884,0,0,1.763,0,27
396,86146.759,65.24700000000303,-0.06514598083496094,0.07234308624267578,0,-0.03316125578789226,0.16650441064025903,2.0699779461577945,0,0,1.779,0,27
397,86211.761,65.00199999999313,-0.07464164733886719,0.07645185852050781,0,-0.042568580456141696,0.1518960048010665,2.079437630703604,0,0,1.772,0,27
398,86276.977,65.21600000000035,-0.07080193328857422,0.0651337890625,0,-0.05201081170943102,0.13727014566935403,2.087151985997419,0,0,1.788,0,27
399,86342.041,65.06399999999849,-0.08055939483642578,0.042798038482666015,0,-0.05810201079889124,0.12779300783102482,2.0930861054541996,0,0,1.788,0,27
400,86407.135,65.09399999999732,-0.09395370483398438,0.03532273864746094,0,-0.06448991586119047,0.1179144442647369,2.098444266257822,0,0,1.74,0,27
401,86472.381,65.24599999999919,-0.11192733764648438,0.01872813606262207,0,-0.06131341662256079,0.10892599861696609,2.1029646690204875,0,0,1.833,0,27
