n,time,dt,vx,vy,vz,roll,pitch,yaw,x,y,z,detected,battery
0,287454.895,NaN,0,0,0,-0.00003490658503988659,0,1.466041665090197,0,0,0.242,0,26
1,287525.207,NaN,0,0,0,-0.00005235987755982989,0.000017453292519943296,1.465989305212637,0,0,0.242,0,26
2,287600.28,NaN,0,0,0,0.00005235987755982989,-0.00019198621771937622,1.465989305212637,0,0,0.242,0,26
3,287670.623,NaN,0,0,0,0.00027925268031909274,-0.00047123889803846896,1.465989305212637,0,0,0.242,0,26
4,287735.626,NaN,0,0,0,0.0004188790204786391,-0.0007504915783575615,1.465954398627597,0,0,0.242,0,26
5,287800.781,65.15500000002794,0,0,0,0.000645771823237902,-0.0010122909661567112,1.4663732776480758,0,0,0.243,0,26
6,287865.875,65.09399999998277,0,0,0,0.0006806784082777885,-0.0014835298641951804,1.466286011185476,0,0,0.242,0,26
7,287931.06,65.18499999999767,0,0,0,0.0007853981633974483,-0.0020245819323134223,1.465395893266959,0,0,0.242,0,26
8,287996.246,65.18599999998696,0,0,0,0.0008726646259971648,-0.0021991148575128553,1.465779865702398,0,0,0.242,0,26
9,288061.431,65.18499999999767,0,0,0,0.0010297442586766543,-0.002408554367752175,1.465779865702398,0,0,0.242,0,26
10,288126.495,65.06400000001304,0,0,0,0.001117010721276371,-0.0027576202181510408,1.465657692654758,0,0,0.243,0,26
11,288191.864,65.36900000000605,0,0,0,0.0012217304763960308,-0.003001966313430246,1.4655355196071185,0,0,0.243,0,26
12,288256.835,64.97100000001956,0,0,0,0.0014835298641951804,-0.003298672286269283,1.4659194920425571,0,0,0.243,0,26
13,288321.96,65.125,0,0,0,0.001553343034274953,-0.0037524578917878084,1.4661638381378364,0,0,0.243,0,26
14,288387.176,65.2159999999567,0,0,0,0.0015882496193148398,-0.003961897402027128,1.466390730940596,0,0,0.243,0,26
15,288452.301,65.125,0,0,0,0.0017453292519943296,-0.003787364476827695,1.4659194920425571,0,0,0.243,0,26
16,288517.425,65.12400000001071,0,0,0,0.001658062789394613,-0.003961897402027128,1.4655180663145988,0,0,0.243,0,26
17,288582.641,65.2160000000149,0,0,0,0.0019198621771937623,-0.00466002910282486,1.4664430908181556,0,0,0.243,0,26
18,288647.796,65.15499999996973,0,0,0,0.0019198621771937623,-0.003892084231947355,1.465326080096879,0,0,0.243,0,26
19,288713.073,65.27700000000186,0,0,0,0.0019198621771937623,-0.0043982297150257105,1.4654307998519989,0,0,0.243,0,26
20,288778.076,65.00300000002608,0,0,0,0.0024434609527920616,-0.00460766922526503,1.465675145947278,0,0,0.243,0,26
21,288843.292,65.2160000000149,0,0,0,0.002303834612632515,-0.0044156830075456534,1.465343533389399,0,0,0.243,0,26
22,288908.355,65.06299999996554,0,0,0,0.0026005405854715507,-0.0049741883681838385,1.4659369453350772,0,0,0.243,0,26
23,288973.602,65.24700000003213,0,0,0,0.0028274333882308137,-0.004729842272904633,1.4651864537567196,0,0,0.243,0,26
24,289038.757,65.15499999996973,0,0,0,0.0027925268031909274,-0.005532693728822024,1.4660591183827167,0,0,0.243,0,26
25,289103.851,65.09400000004098,0,0,0,0.002775073510670984,-0.004834562028024293,1.46506428070908,0,0,0.243,0,26
26,289169.036,65.18499999999767,0,0,0,0.003001966313430246,-0.005707226654021458,1.46506428070908,0,0,0.243,0,26
27,289234.375,65.33899999997811,0,0,0,0.0032114058236695662,-0.005899212871740834,1.4646104951035614,0,0,0.243,0,26
28,289299.316,64.94099999999162,0,0,0,0.002967059728390361,-0.005445427266222308,1.463022245484247,0,0,0.243,0,26
29,289364.532,65.2160000000149,0,0,0,0.002879793265790644,-0.005619960191421741,1.4614339958649316,0,0,0.242,0,26
30,289429.656,65.12400000001071,0,0,0,0.0024434609527920616,-0.006754424205218055,1.4599330127082166,0,0,0.242,0,26
31,289495.025,65.36900000000605,0,0,0,0.0036477381366681488,-0.004939281783143952,1.4592348810074192,0,0,0.242,0,26
32,289560.028,65.00299999996787,0,0,0,0.0017976891295541592,-0.005288347633542819,1.4588683618645004,0,0,0.242,0,26
33,289625.213,65.18499999999767,0,0,0,0.002844886680750757,-0.007470009198535731,1.4580829637011028,0,0,0.242,0,26
34,289690.277,65.06400000001304,0,0,0,0.000017453292519943296,-0.0067369709126981125,1.457698991265664,0,0,0.242,0,26
35,289755.676,65.39899999997579,0,0,0,0.003089232776029963,-0.005829399701661061,1.4607358641641341,0,0,0.243,0,26
36,289820.617,64.94100000004983,0,0,0,0.0041887902047863905,-0.005532693728822024,1.4678044476347112,0,0,0.242,0,26
37,289885.803,65.18599999998696,0,0,0,0.0070685834705770355,-0.0031764992386296795,1.475239550248207,0,0,0.242,0,26
38,289950.988,65.18499999999767,0,0,0,0.013631021458075715,-0.00645771823237902,1.4833902378550206,0,0,0.242,0,26
39,290016.204,65.2160000000149,0,0,0,0.019634954084936207,-0.006649704450098395,1.4883644262232043,0,0,0.242,0,26
40,290081.42,65.2159999999567,0,0,0,0.01722639971718403,-0.0058468529941810045,1.4879630004952458,0,0,0.242,0,26
41,290146.484,65.06400000001304,0,0,0,0.014172073526193957,-0.010332349171806431,1.4878059208625662,0,0,0.242,0,26
42,290211.639,65.15500000002794,0,0,0,0.005619960191421741,-0.008656833089891874,1.488486599270844,0,0,0.242,0,26
43,290277.191,65.55199999996694,0,0,0,-0.004049163864626845,-0.01001818990644745,1.4908078871759964,0,0,0.242,0,26
44,290341.857,64.66600000002654,0,0,0,-0.008342673824532893,-0.00986111027376796,1.4907904338834763,0,0,0.242,0,26
45,290407.165,65.30799999996088,0.004330037117004394,-0.011703842163085938,0,-0.00890117918517108,-0.0046251225177849735,1.4808595104396287,0,0,0.242,0,26
46,290472.259,65.09400000004098,-0.1467286834716797,0.03941070556640625,0,-0.007225663103256523,-0.0005235987755982988,1.4800217523986716,0,0,0.243,0,26
47,290537.445,65.18599999998696,-0.09614974212646485,0.011981157302856446,0,0.002670353755551324,0.003351032163829113,1.482657199569183,0,0,0.252,0,26
48,290602.691,65.24599999998463,-0.12516512298583984,-0.009207853317260742,0,0.019844393595175525,0.016685347649065787,1.4865143772160905,0,0,0.292,0,25
49,290667.724,65.03299999999581,-0.18612039184570311,0.01905528450012207,0,0.023387411976724018,0.017715091907742442,1.4872648687944479,0,0,0.324,0,25
50,290732.91,65.18599999998696,-0.1394892578125,0.013744647979736329,0,0.002513274122871834,-0.005619960191421741,1.4864620173385308,0,0,0.405,0,25
51,290798.248,65.33800000004703,-0.13413475036621095,0.0013021354675292968,0,-0.016441001553786583,-0.027104963283471933,1.485397366494814,0,0,0.49,0,25
52,290863.342,65.09399999998277,-0.17526225280761717,-0.015038481712341309,0,-0.022776546738526,-0.03529055747532534,1.4859384185629323,0,0,0.535,0,25
53,290928.558,65.2160000000149,-0.17025927734375,0.010746225357055664,0,-0.021031217486531674,-0.04284783313646079,1.4862351245357712,0,0,0.614,0,25
54,290993.591,65.03299999999581,-0.1363016357421875,0.028483274459838868,0,-0.017976891295541593,-0.053494341573626196,1.4852228335696145,0,0,0.653,0,25
55,291058.746,65.15499999996973,-0.13754148864746094,0.03377840042114258,0,-0.016283921921107097,-0.05796238445873169,1.4854497263723738,0,0,0.727,0,25
56,291124.084,65.33799999998882,-0.13149771118164064,0.04645433044433594,0,-0.01514945790731078,-0.06250024051391694,1.4850832072294549,0,0,0.771,0,25
57,291189.239,65.15500000002794,-0.12237614440917968,0.050462520599365235,0,-0.012775810124598492,-0.065868725970266,1.4846294216239366,0,0,0.786,0,25
58,291254.241,65.00199999997858,-0.10454064178466797,0.044929149627685544,0,-0.012287117934040078,-0.06538003377970758,1.4842803557735376,0,0,0.8,0,25
59,291319.549,65.30800000001909,-0.08544371795654297,0.0357544937133789,0,-0.012967796342317869,-0.06227334771115768,1.4838614767530591,0,0,0.796,0,25
60,291384.613,65.06400000001304,-0.06501040649414062,0.023328495025634766,0,-0.010524335389525807,-0.0549080582677416,1.4836171306577797,0,0,0.792,0,25
61,291449.829,65.2160000000149,-0.0602906265258789,0.01514786434173584,0,-0.006981317007977318,-0.04705407663376713,1.482971358834542,0,0,0.773,0,25
62,291514.923,65.09399999998277,-0.03433816146850586,0.018652305603027344,0,-0.0042935099599060505,-0.0422893277758226,1.4828317324943823,0,0,0.759,0,25
63,291580.139,65.2160000000149,-0.010308551788330077,0.015739134788513184,0,-0.003717551306747922,-0.03663446099936098,1.4823954001813837,0,0,0.742,0,25
64,291645.294,65.15499999996973,0.0005615363121032715,0.015498882293701171,0,-0.004258603374866164,-0.030124382889422128,1.4822034139636644,0,0,0.724,0,25
65,291710.327,65.03299999999581,0.023894489288330076,0.006694347858428955,0,-0.0010297442586766543,-0.021310470166850764,1.482081240916025,0,0,0.714,0,25
66,291775.512,65.18499999999767,0.012502747535705567,0.013490589141845703,0,-0.00005235987755982989,-0.016982053621904827,1.4818194415282255,0,0,0.709,0,25
67,291840.759,65.24700000003213,0.02099239730834961,0.011344052314758301,0,-0.001064650843716541,-0.012618730491919002,1.4816449086030263,0,0,0.705,0,25
68,291905.761,65.00199999997858,0.028251205444335938,0.029494226455688475,0,-0.0006632251157578452,-0.010314895879286487,1.4817845349431857,0,0,0.708,0,25
69,291971.13,65.36900000000605,0.01202212619781494,0.02733039093017578,0,-0.0008552113334772215,-0.008168140899333463,1.4828317324943823,0,0,0.705,0,25
70,292036.193,65.06300000002375,0.010498775482177734,0.03010651206970215,0,-0.0028623399732707008,-0.009704030641088473,1.482081240916025,0,0,0.707,0,25
71,292101.318,65.125,0.011177250862121582,0.034032283782958986,0,-0.0067369709126981125,-0.01499237827463129,1.482011427745945,0,0,0.713,0,25
72,292166.595,65.27699999994365,0.01007026195526123,0.030933053970336914,0,-0.008377580409572781,-0.02064724505109292,1.4817496283581457,0,0,0.717,0,25
73,292231.658,65.06300000002375,0.02119154739379883,0.018415300369262696,0,-0.008883725892651137,-0.017784905077822218,1.4823081337187842,0,0,0.718,0,25
74,292296.813,65.15500000002794,0.014611931800842285,0.012359105110168456,0,-0.009180431865490174,-0.015393804002589986,1.4823954001813837,0,0,0.721,0,25
75,292362.091,65.27799999999115,0.037910232543945314,0.008355009078979491,0,-0.0076270888312152205,-0.014765485471872028,1.4822383205487044,0,0,0.726,0,25
76,292427.062,64.97099999996135,0.023445032119750978,-0.002085719585418701,0,-0.008255407361933179,-0.014398966328953218,1.4833029713924206,0,0,0.729,0,25
77,292492.279,65.21700000000419,0.025037298202514647,-0.007246253967285156,0,-0.0062482787221397,-0.013264502315156903,1.4827270127392624,0,0,0.729,0,25
78,292557.342,65.06300000002375,0.016209442138671874,-0.004978407859802246,0,-0.00486946861306418,-0.012967796342317869,1.4823954001813837,0,0,0.728,0,25
79,292622.589,65.24699999997392,0.013677833557128906,-0.012988162994384765,0,-0.002967059728390361,-0.010873401239924672,1.482343040303824,0,0,0.729,0,25
80,292687.896,65.3070000000298,0.01399031639099121,-0.007713074207305908,0,0.001186823891356144,-0.011414453308042916,1.4819765211609053,0,0,0.725,0,25
81,292752.868,64.97200000000885,0.014614531517028809,-0.0015492305755615235,0,0.0005759586531581287,-0.013980087308474581,1.481470375677827,0,0,0.727,0,25
82,292818.023,65.15499999996973,0.022410293579101563,0.0014858680963516235,0,-0.0018500490071139892,-0.01546361717266976,1.4813132960451472,0,0,0.728,0,25
83,292883.422,65.399000000034,0.03251377105712891,-0.011859831809997558,0,-0.002565634000431664,-0.01275835683207855,1.4824652133514633,0,0,0.727,0,25
84,292948.303,64.88099999999395,0.022370964050292968,-0.012349920272827148,0,-0.0006806784082777885,-0.008255407361933179,1.4823779468888638,0,0,0.726,0,25
85,293013.519,65.2159999999567,0.023037988662719725,-0.0052161612510681155,0,-0.0019198621771937623,-0.00832522053201295,1.4825524798140635,0,0,0.728,0,25
86,293078.643,65.12400000001071,0.021474821090698242,-0.006353507995605469,0,-0.0020245819323134223,-0.006806784082777885,1.482971358834542,0,0,0.728,0,25
87,293143.859,65.2160000000149,0.01639978790283203,-0.011398907661437988,0,-0.002565634000431664,-0.006161012259539982,1.4836694905353394,0,0,0.734,0,25
88,293209.106,65.24700000003213,0.012444918632507324,-0.009830098152160644,0,-0.0020769418098732523,-0.007173303225696694,1.4831807983447813,0,0,0.729,0,25
89,293274.169,65.06299999996554,0.008070015907287597,-0.009492949485778808,0,-0.0016057029118347831,-0.008866272600131194,1.4833378779774606,0,0,0.729,0,25
90,293339.324,65.15500000002794,-0.00987224292755127,-0.010858210563659668,0,-0.002513274122871834,-0.01069886831472524,1.4837567569979395,0,0,0.728,0,25
91,293404.602,65.27799999999115,0.0017689789533615113,-0.01431179141998291,0,-0.0020943951023931952,-0.010821041362364843,1.4836869438278595,0,0,0.729,0,25
92,293469.604,65.00199999997858,0.003380932569503784,-0.011023682594299316,0,-0.0017278759594743865,-0.011711159280881954,1.4835473174877,0,0,0.728,0,25
93,293534.79,65.18599999998696,-0.0007076501250267028,-0.01085311222076416,0,-0.0012740903539558604,-0.010000736613927507,1.484140729433378,0,0,0.725,0,25
94,293599.792,65.00200000003679,-0.0029802231788635253,-0.015998860359191895,0,-0.0014137166941154068,-0.003333578871309169,1.488538959148404,0,0,0.727,0,25
95,293665.069,65.27700000000186,-0.013192909240722656,-0.030393522262573244,0,0.0026878070480712674,0.010367255756846317,1.4940891061697459,0,0,0.724,0,25
96,293730.407,65.33799999998882,-0.010631813049316406,-0.02327938461303711,0,0.006143558967020039,0.023439771854283843,1.4994298136808484,0,0,0.723,0,25
97,293795.288,64.88099999999395,-0.03989813232421875,-0.01587318992614746,0,0.00986111027376796,0.032882003107573166,1.5039327631509938,0,0,0.722,0,25
98,293860.534,65.24599999998463,-0.0529563102722168,0.00228371524810791,0,0.011100294042683936,0.03494149162492648,1.5062191444711064,0,0,0.723,0,25
99,293925.872,65.33799999998882,-0.08998207092285156,0.01180982208251953,0,0.006894050545377602,0.030682888250060315,1.5088022317640577,0,0,0.721,0,25
100,293990.753,64.88100000005215,-0.10526791381835937,0.012774494171142578,0,0.007836528341454539,0.028850292535466268,1.511507492104649,0,0,0.715,0,25
101,294055.999,65.24599999998463,-0.13707339477539063,0.012119393348693847,0,0.008360127117052838,0.02631956512007449,1.5136542470846022,0,0,0.717,0,25
102,294121.002,65.00299999996787,-0.15865188598632812,0.024203763961791993,0,0.007260569688296411,0.021223203704251046,1.515905721819675,0,0,0.716,0,25
103,294186.218,65.2160000000149,-0.1888802947998047,0.035689197540283206,0,0.004747295565424576,0.014974924982111346,1.5185935288677461,0,0,0.715,0,25
104,294251.495,65.27700000000186,-0.21428054809570313,0.019448348999023438,0,0.006003932626860492,0.010978120995044333,1.5209497233579388,0,0,0.716,0,25
105,294316.528,65.03299999999581,-0.20950956726074219,0.03983082962036133,0,0.005375614096142535,0.0007155849933176752,1.5217525748138558,0,0,0.713,0,25
106,294381.683,65.15500000002794,-0.21275941467285156,0.05137564086914063,0,0.0038571776469074684,-0.013194689145077132,1.5237946100386892,0,0,0.712,0,25
107,294447.143,65.45999999996275,-0.207096435546875,0.03432797241210937,0,0.006475171524898962,-0.02087413785385218,1.5253479530729641,0,0,0.712,0,25
108,294511.993,64.85000000003492,-0.19630381774902345,0.03917023849487305,0,0.0045553093477052,-0.026878070480712675,1.5298858091281495,0,0,0.718,0,25
109,294577.27,65.27700000000186,-0.1743634033203125,0.04255184173583984,0,0.0034033920413889425,-0.029391344603584505,1.5359071950475298,0,0,0.718,0,25
110,294642.303,65.03299999999581,-0.16948941040039062,0.04224979400634766,0,0.0007330382858376184,-0.03769911184307752,1.5413177157287123,0,0,0.721,0,25
111,294773.162,65.58199999999488,-0.0930527572631836,0.05395305252075195,0,-0.006108652381980153,-0.056880280322495196,1.5492764171178064,0,0,0.738,0,25
112,294837.829,64.66700000001583,-0.06110301971435547,0.04592168807983398,0,-0.009232791743050004,-0.06541494036474747,1.552487822941476,0,0,0.744,0,25
113,294903.015,65.18599999998696,-0.026662708282470703,0.040261680603027344,0,-0.013264502315156903,-0.06944665093685437,1.554966190479308,0,0,0.762,0,25
114,294968.292,65.27700000000186,0.013980484008789063,0.019601411819458008,0,-0.019233528356977513,-0.07098254067860939,1.5573223849695002,0,0,0.776,0,25
115,295033.294,65.00199999997858,0.0371307373046875,0.0022845175266265868,0,-0.0170518667919846,-0.06600835231042554,1.5599229255549718,0,0,0.79,0,25
116,295098.51,65.2160000000149,0.05796302032470703,-0.007826157093048096,0,-0.016406094968746697,-0.06049311187412347,1.5614762685892467,0,0,0.804,0,25
117,295163.604,65.09399999998277,0.1075556640625,-0.027874841690063476,0,-0.014538592669112763,-0.05419247327442393,1.5623489332152443,0,0,0.816,0,25
118,295228.759,65.15500000002794,0.1212704086303711,-0.03664704895019531,0,-0.011501719770642632,-0.0438601241026175,1.5622267601676043,0,0,0.835,0,25
119,295293.975,65.2159999999567,0.13166168212890625,-0.03926375961303711,0,-0.00968657734856853,-0.03537782393792506,1.562401293092804,0,0,0.85,0,25
120,295359.069,65.09400000004098,0.15418959045410155,-0.040960773468017575,0,-0.010838494654884786,-0.028326693759867967,1.5624711062628835,0,0,0.859,0,25
121,295424.224,65.15499999996973,0.158489013671875,-0.04659808349609375,0,-0.010349802464326372,-0.01944296786721683,1.561633348221926,0,0,0.872,0,25
122,295489.471,65.24700000003213,0.16312629699707032,-0.05740815734863281,0,-0.009407324668249437,-0.011466813185602744,1.5618078811471259,0,0,0.886,0,25
123,295554.504,65.03299999999581,0.16242343139648438,-0.06050462341308594,0,-0.008447393579652554,-0.006998770300497261,1.5621569469975245,0,0,0.892,0,25
124,295619.659,65.15499999996973,0.15587106323242186,-0.057804939270019534,0,-0.00874409955249159,-0.007051130178057092,1.562017320657365,0,0,0.901,0,25
125,295684.844,65.18499999999767,0.15379515075683595,-0.06430941772460938,0,-0.007609635538695277,-0.004886921905584123,1.5618602410246856,0,0,0.913,0,25
126,295750.03,65.18600000004517,0.15670721435546875,-0.06946414947509766,0,-0.0024434609527920616,0.002181661564992912,1.561336642249087,0,0,0.905,0,25
127,295815.185,65.15499999996973,0.142171142578125,-0.0679254913330078,0,0.003979350694547071,0.007539822368615503,1.5607083237183692,0,0,0.91,0,25
128,295880.249,65.06400000001304,0.13586541748046874,-0.06463822937011719,0,0.010855947947404729,0.013177235852557187,1.5601847249427712,0,0,0.913,0,25
129,295945.434,65.18499999999767,0.12205691528320313,-0.052983596801757814,0,0.015812683023068628,0.01802925117310142,1.5607432303034092,0,0,0.912,0,25
130,296010.772,65.33799999998882,0.10851329803466797,-0.04987055206298828,0,0.019757127132575807,0.030229102644541785,1.56051633750065,0,0,0.917,0,25
131,296075.714,64.94199999998091,0.08401984405517578,-0.024156810760498047,0,0.0187448361664191,0.03499385150248631,1.5603068979904107,0,0,0.925,0,25
132,296140.899,65.18499999999767,0.07003343963623047,0.008624113082885743,0,0.011431906600562858,0.026878070480712675,1.5601847249427712,0,0,0.923,0,25
133,296206.054,65.15500000002794,0.03840865707397461,0.010376545906066894,0,0.008203047484373348,0.022392574303087245,1.559818205799852,0,0,0.923,0,25
134,296271.27,65.2160000000149,0.030675683975219727,0.008474323272705078,0,0.009669124056048585,0.01972222054753592,1.559294607024254,0,0,0.921,0,25
135,296336.517,65.24699999997392,0.0021063096523284914,0.022971416473388673,0,0.010140362954087054,0.01747074581246324,1.559521499827013,0,0,0.923,0,25
136,296401.519,65.00199999997858,-0.007241055011749268,0.026371597290039062,0,0.011588986233242348,0.01642354826126664,1.559329513609294,0,0,0.923,0,25
137,296466.674,65.15500000002794,-0.01616890335083008,0.03349547958374023,0,0.011728612573401895,0.013473941825396225,1.5593818734868539,0,0,0.922,0,25
138,296531.982,65.30800000001909,-0.03828170394897461,0.04701456069946289,0,0.011030480872604163,0.009197885158010117,1.5597658459222923,0,0,0.923,0,25
139,296596.923,64.94099999999162,-0.03546675491333008,0.0581466178894043,0,0.004572762640225143,0.0023212879051524586,1.5596960327522127,0,0,0.92,0,25
140,296662.109,65.18599999998696,-0.036722320556640625,0.06124649429321289,0,0.0004886921905584122,-0.0010995574287564276,1.5594691399494534,0,0,0.919,0,25
141,296727.294,65.18499999999767,-0.04676891326904297,0.057123767852783204,0,-0.002775073510670984,-0.0038397243543875246,1.5597134860447324,0,0,0.92,0,25
142,296792.419,65.125,-0.04189435195922851,0.05612023162841797,0,-0.007871434926494426,-0.005672320068981571,1.5601498183577311,0,0,0.914,0,25
143,296858.093,65.67399999999907,-0.051252792358398434,0.052986011505126954,0,-0.012810716709638379,-0.00736528944341607,1.5602370848203309,0,0,0.915,0,25
144,296922.943,64.85000000003492,-0.033269371032714844,0.03567922592163086,0,-0.014521139376592822,-0.0064053583548191895,1.5600625518951314,0,0,0.919,0,25
145,296988.006,65.06299999996554,-0.046238719940185545,0.03517270660400391,0,-0.014905111812031574,-0.007138396640656808,1.5600450986026115,0,0,0.917,0,25
146,297053.253,65.24700000003213,-0.047673675537109376,0.03781409072875976,0,-0.014695672301792253,-0.022584560520806627,1.558997901051415,0,0,0.914,0,25
147,297118.225,64.97199999995064,-0.03637458801269531,0.05334333038330078,0,-0.016632987771505958,-0.055710909723659,1.558962994466375,0,0,0.912,0,25
148,297183.41,65.18499999999767,-0.018762235641479493,0.04429400253295898,0,-0.014329153158873445,-0.08895943197415097,1.558020516670298,0,0,0.912,0,25
149,297248.565,65.15500000002794,0.059146671295166015,0.028435829162597657,0,-0.015550883635269476,-0.1192408944962526,1.5559610281529448,0,0,0.908,0,25
150,297313.751,65.18599999998696,0.10957500457763672,0.01700664710998535,0,-0.017435839227423353,-0.14159856221429995,1.5542156989009506,0,0,0.909,0,25
151,297378.967,65.2160000000149,0.21251126098632814,0.011582052230834961,0,-0.020821777976292352,-0.15529939684245544,1.5515104385603593,0,0,0.913,0,25
152,297444.061,65.09399999998277,0.30311114501953124,-0.025021549224853515,0,-0.01907644872429802,-0.15437437233889847,1.5476707142059718,0,0,0.916,0,25
153,297509.185,65.12400000001071,0.3773336486816406,-0.03761054611206055,0,-0.01987930018021541,-0.14732324216084136,1.5440753359468633,0,0,0.921,0,25
154,297574.523,65.33799999998882,0.4631167297363281,-0.049395378112792966,0,-0.018203784098300854,-0.1345997919138027,1.5402181582999561,0,0,0.932,0,25
155,297639.465,64.94200000003912,0.5242955932617187,-0.06991488647460938,0,-0.013596114873035827,-0.11707668622377962,1.5365006069932081,0,0,0.937,0,25
156,297704.65,65.18499999999767,0.6014149169921875,-0.06605327606201172,0,-0.016022122533307946,-0.10018189906447451,1.5332717478770184,0,0,0.943,0,25
157,297769.775,65.125,0.6365089111328125,-0.08662372589111328,0,-0.01996656664281513,-0.07789404451650693,1.5302174216860285,0,0,0.943,0,25
158,297834.96,65.18499999999767,0.7057874755859375,-0.10439956665039063,0,-0.022218041377887812,-0.046705010783368264,1.5275121613454372,0,0,0.949,0,25
159,297900.207,65.24699999997392,0.7128411865234375,-0.129278564453125,0,-0.02729694950119131,-0.013351768777756621,1.5252432333178445,0,0,0.953,0,25
160,297965.332,65.125,0.7048583984375,-0.13557145690917968,0,-0.02977531703902326,0.01626646862858715,1.5235677172359299,0,0,0.954,0,25
161,298030.395,65.06300000002375,0.6678367919921875,-0.15213575744628907,0,-0.02532472744643772,0.04553564018453206,1.5247196345422462,0,0,0.962,0,25
162,298095.764,65.36900000000605,0.6509348754882812,-0.18347221374511719,0,-0.016859880574265223,0.0718726585971265,1.5265696835493603,0,0,0.957,0,25
163,298160.705,64.94099999999162,0.5760160522460938,-0.17161720275878906,0,-0.00773180858633488,0.08955284391982905,1.5291702241348317,0,0,0.96,1,25
164,298225.891,65.18599999998696,0.49479443359375,-0.1672536163330078,0,0.0014311699866353504,0.10447540902438056,1.5321721904482621,0,0,0.957,0,25
165,298291.015,65.12400000001071,0.39610861206054687,-0.13286595153808595,0,-0.00757472895365539,0.09204866475018093,1.535243969931772,0,0,0.963,0,25
166,298356.414,65.39899999997579,0.34775439453125,-0.11542899322509766,0,-0.028797932657906436,0.04159119607502487,1.5389091613609602,0,0,0.973,0,25
167,298421.508,65.09399999998277,0.33807901000976565,-0.1344765167236328,0,-0.03750712562535814,-0.012060225131280817,1.5434819240011854,0,0,0.973,0,25
168,298486.511,65.00300000002608,0.34541766357421877,-0.17618899536132812,0,-0.031328660073298216,-0.03490658503988659,1.5464140771445358,0,0,0.97,0,25
169,298551.696,65.18499999999767,0.33253213500976564,-0.22623878479003906,0,-0.0170518667919846,-0.03447025272688801,1.548473565661889,0,0,0.962,0,25
170,298617.37,65.67399999999907,0.3279676818847656,-0.27211886596679685,0,-0.007679448708775049,-0.030473448739820993,1.5505679607642824,0,0,0.965,0,25
171,298681.945,64.57500000001164,0.33543365478515624,-0.26196707153320314,0,0.002565634000431664,-0.026686084262993296,1.5517198780705983,0,0,0.966,0,25
172,298747.192,65.24699999997392,0.33786807250976564,-0.2624839782714844,0,0.013823007675795092,-0.021868975527488947,1.5537095534178722,0,0,0.963,0,25
173,298812.316,65.12400000001071,0.32344378662109374,-0.25110606384277345,0,0.02403318379996192,-0.01649336143134641,1.5553152563297068,0,0,0.964,0,25
174,298877.502,65.18599999998696,0.33364794921875,-0.2591881103515625,0,0.03670427416944075,-0.008045967851693859,1.5570780388742211,0,0,0.964,1,25
175,298942.749,65.24700000003213,0.31769561767578125,-0.2229453582763672,0,0.045116761164053415,-0.0035081117965086025,1.5581950495954977,0,0,0.969,1,25
176,299007.751,65.00199999997858,0.2913972473144531,-0.16340925598144532,0,0.05970771371072601,-0.01801179788058148,1.558264862765577,0,0,0.971,1,25
177,299072.845,65.09399999998277,0.2880115661621094,-0.1150975341796875,0,0.07934266779566222,-0.04218460802070294,1.557688904112419,0,0,0.973,1,25
178,299138.214,65.36900000000605,0.32863995361328124,-0.056847412109375,0,0.08831366015091306,-0.06347762489503377,1.5557690419352252,0,0,0.972,1,25
179,299203.186,64.97200000000885,0.3552723388671875,-0.017178047180175782,0,0.087720248205235,-0.07401941357707952,1.5543029653635503,0,0,0.969,1,25
180,299268.493,65.3070000000298,0.37839120483398436,0.01523305320739746,0,0.08456120225912526,-0.07229153761760514,1.5545647647513492,0,0,0.976,1,25
181,299333.526,65.03299999999581,0.40054055786132814,0.038442192077636717,0,0.0825191670342919,-0.05914920835008782,1.555891214982865,0,0,0.976,1,25
182,299398.925,65.39899999997579,0.42946649169921874,0.08960665893554688,0,0.07817329719682602,-0.04806636759992384,1.5569209592415416,0,0,0.982,1,25
183,299463.989,65.06400000001304,0.431083740234375,0.12974371337890625,0,0.07066838141325041,-0.03832743037379548,1.5575318244797396,0,0,0.986,0,25
184,299529.174,65.18499999999767,0.42451971435546876,0.14784632873535156,0,0.06489134158914917,-0.027419122548830912,1.5578983436226583,0,0,0.988,0,25
185,299594.299,65.125,0.45044903564453126,0.17445341491699218,0,0.055955255818938204,-0.012863076587198208,1.5581601430104577,0,0,0.993,0,25
186,299659.515,65.2160000000149,0.46292971801757815,0.19546470642089844,0,0.04239404753094226,0.005654866776461627,1.5577587172824987,0,0,0.999,0,25
187,299724.517,65.00199999997858,0.4415790100097656,0.23204600524902344,0,0.02516764781375823,0.021956241990088665,1.557095492166741,0,0,0.996,0,25
188,299789.794,65.27700000000186,0.39342388916015625,0.24498135375976562,0,0.010175269539126942,0.03733259270015871,1.5559435748604247,0,0,0.998,0,25
189,299854.827,65.03299999999581,0.3805393676757812,0.24692164611816406,0,-0.0016755160819145565,0.05213298475707063,1.5548614707241886,0,0,0.996,0,25
190,299920.349,65.5219999999972,0.3418936767578125,0.23143142700195313,0,-0.012932889757277981,0.06131341662256079,1.554023712683231,0,0,1,0,25
191,299985.229,64.88000000000466,0.28585809326171874,0.20866046142578126,0,-0.021711895894809458,0.06735225583446117,1.5535350204926723,0,0,0.996,0,25
192,300050.323,65.09399999998277,0.23521211242675782,0.1720533447265625,0,-0.026162485487395002,0.07096508738608943,1.5541982456084305,0,0,0.997,0,25
193,300115.478,65.15500000002794,0.14463629150390625,0.1798913116455078,0,-0.029513517651224112,0.056740653982335645,1.556222827540744,0,0,0.997,0,25
194,300180.816,65.33799999998882,0.1030797119140625,0.15645657348632813,0,-0.03185225884889651,0.039461894387591796,1.558125236425418,0,0,0.991,0,25
195,300245.788,64.97200000000885,0.07790501403808593,0.12887342834472656,0,-0.033510321638291124,0.024364796357840838,1.561109749446328,0,0,0.989,0,25
196,300311.065,65.27700000000186,0.01682346534729004,0.0857483673095703,0,-0.034540065896967787,0.01691224045182505,1.564530594780237,0,0,0.99,0,25
197,300376.098,65.03299999999581,-0.010906232833862304,0.07702626800537109,0,-0.031171580440618726,0.011222467090323538,1.5666773497601898,0,0,0.99,0,25
198,300441.314,65.2160000000149,-0.02888358688354492,0.05778267669677734,0,-0.027820548276789613,0.0014486232791552935,1.5682306927944647,0,0,0.987,0,25
199,300506.53,65.2160000000149,-0.028005353927612303,0.04603031921386719,0,-0.02494075501099897,-0.007958701389094143,1.5701505549716586,0,0,0.989,0,25
200,300571.655,65.125,-0.057256385803222655,0.021669195175170897,0,-0.01802925117310142,-0.011292280260403314,1.5736586667681671,0,0,0.991,0,25
201,300636.84,65.18499999999767,-0.073268310546875,0.013135458946228027,0,-0.01607448241086778,-0.018046704465621368,1.5769747923469564,0,0,0.99,0,24
202,300702.087,65.24699999997392,-0.061508872985839846,-0.005456169605255127,0,-0.009669124056048585,-0.022026055160168437,1.579243720374549,0,0,0.999,0,24
203,300767.059,64.97200000000885,-0.0631955909729004,-0.012818893432617188,0,-0.006265732014659643,-0.02707005669843205,1.5820013405927,0,0,0.996,0,24
204,300832.275,65.2160000000149,-0.07271432495117187,-0.023880813598632814,0,-0.0021467549799530253,-0.03262020371977402,1.5836943099671348,0,0,0.997,0,24
205,300897.399,65.1239999999525,-0.06954033660888671,-0.028936443328857423,0,0.001780235837034216,-0.03558726344816438,1.5856839853144082,0,0,1.003,0,24
206,300962.677,65.27800000004936,-0.0703720703125,-0.03320703887939453,0,0.006265732014659643,-0.036041049053682904,1.587952913342001,0,0,1.007,0,24
207,301027.801,65.1239999999525,-0.0643133773803711,-0.02201409721374512,0,0.009302604913129776,-0.04077089132658753,1.5902043880770735,0,0,1.009,0,24
208,301093.048,65.24700000003213,-0.05251036071777344,-0.02913761901855469,0,0.01223475805648025,-0.04646066468808906,1.5945502579145394,0,0,1.012,0,24
209,301158.05,65.00199999997858,-0.03906597900390625,-0.022348100662231446,0,0.02998475654926258,-0.04303981935418017,1.60050183066384,0,0,1.016,0,24
210,301223.358,65.30800000001909,-0.04195945358276367,-0.026459663391113282,0,0.058712876037089246,-0.036896260387160124,1.6067152028009402,0,0,1.018,0,24
211,301288.299,64.94099999999162,-0.05534457015991211,0.03373377990722656,0,0.09192649170254133,-0.030752701420140086,1.6127540420128403,0,0,1.02,0,24
212,301353.515,65.2160000000149,-0.04130673599243164,0.07742342376708984,0,0.11702432634621979,-0.029513517651224112,1.6184787219593817,0,0,1.023,0,24
213,301418.64,65.125,-0.026170536041259764,0.13736529541015624,0,0.1343903524035634,-0.02986258350162298,1.6228594983818874,0,0,1.026,0,24
214,301483.825,65.18499999999767,-0.007250141143798828,0.24581529235839844,0,0.14187781489461904,-0.028431413514987625,1.6268039424913947,0,0,1.03,0,24
215,301549.041,65.2160000000149,0.013479687690734864,0.31457794189453125,0,0.13948671381938682,-0.024452062820440556,1.6316559578119387,0,0,1.033,0,24
216,301614.471,65.42999999999302,0.015390730857849122,0.38697573852539063,0,0.13042845500153624,-0.021851522234969004,1.6355480420438862,0,0,1.03,0,24
217,301679.321,64.84999999997672,0.022141822814941405,0.4463727722167969,0,0.11676252695842064,-0.02118829711921116,1.6384801951872368,0,0,1.03,0,24
218,301744.628,65.3070000000298,0.03548770141601563,0.4862854614257813,0,0.09749409201640324,-0.01848303677861995,1.64062695016719,0,0,1.031,0,24
219,301809.692,65.06399999995483,0.05385064697265625,0.53323486328125,0,0.07105235384868915,-0.013473941825396225,1.6431925841676212,0,0,1.021,0,24
220,301875.061,65.36900000000605,0.04267598724365235,0.5499453735351563,0,0.04284783313646079,-0.007714355293814937,1.6447633804944162,0,0,1.01,0,24
221,301940.063,65.00200000003679,0.0285209903717041,0.5677722778320312,0,0.014154620233674012,-0.004136430327226561,1.6455487786578138,0,0,1.013,0,24
222,302005.279,65.2159999999567,0.014558205604553223,0.5543487548828125,0,-0.01267109036947883,-0.000645771823237902,1.6460374708483723,0,0,1.008,0,24
223,302070.465,65.18600000004517,0.006686967849731445,0.536142578125,0,-0.03340560188317147,0.004328416544945937,1.6457058582904933,0,0,0.998,0,24
224,302135.864,65.39899999997579,-0.01408822250366211,0.515736328125,0,-0.05056218843027572,0.008220500776893291,1.646124737310972,0,0,0.997,0,24
225,302200.744,64.88000000000466,-0.007033116340637207,0.4261147766113281,0,-0.0610341639422417,0.008970992355250854,1.6461596438960115,0,0,1.004,0,24
226,302266.113,65.36900000000605,-0.01853260612487793,0.38096630859375,0,-0.06791076119509937,0.00905825881785057,1.6468228690117692,0,0,1.012,0,24
227,302331.115,65.00199999997858,-0.013584992408752442,0.3339001770019531,0,-0.07061602153569058,0.008726646259971648,1.6471719348621683,0,0,1.025,0,24
228,302396.331,65.2160000000149,-0.0623703842163086,0.30916854858398435,0,-0.06948155752189426,0.010157816246606997,1.6477129869302864,0,0,1.454,0,24
229,302461.456,65.125,-0.08886643981933594,0.2928385009765625,0,-0.06871361265101675,0.007836528341454539,1.6465436163314504,0,0,1.449,0,24
230,302526.58,65.12400000001071,-0.11872350311279296,0.3104355773925781,0,-0.06880087911361647,0.0026005405854715507,1.646997401936969,0,0,1.441,0,24
231,302591.796,65.2159999999567,-0.16179257202148437,0.263021728515625,0,-0.06714281632422185,-0.001954768762233649,1.6471195749846086,0,0,1.435,0,24
232,302656.951,65.15500000002794,-0.1690813751220703,0.22755856323242188,0,-0.0662352451131848,-0.00890117918517108,1.6479049731480062,0,0,1.431,0,23
233,302721.954,65.00300000002608,-0.20107916259765626,0.16918681335449218,0,-0.06234316088123745,-0.016563174601426187,1.6477478935153265,0,0,1.421,0,23
234,302787.322,65.36799999995856,-0.1928691101074219,0.12539254760742188,0,-0.06541494036474747,-0.031241393610698498,1.6489347174066826,0,0,1.015,0,23
235,302852.355,65.03299999999581,-0.18183609008789062,0.04849856948852539,0,-0.06403613025567195,-0.03961897402027128,1.649144156916922,0,0,1.005,0,23
236,302917.541,65.18600000004517,-0.15776687622070312,-0.003998929500579834,0,-0.06330309196983433,-0.04838052686528282,1.6499819149578794,0,0,1.395,0,23
237,302982.666,65.125,-0.1845247802734375,-0.07159200286865235,0,-0.061557762717840005,-0.060562925044203235,1.650138994590559,0,0,1.398,0,23
238,303047.821,65.15499999996973,-0.1841219940185547,-0.1329994812011719,0,-0.055169857655540756,-0.06806784082777885,1.6499644616653595,0,0,1.391,0,23
239,303113.25,65.42900000000373,-0.17053170776367188,-0.2118265380859375,0,-0.03860668305411457,-0.06813765399785862,1.6491965167944818,0,0,1.391,0,23
240,303178.283,65.03299999999581,-0.15398251342773436,-0.24831620788574219,0,-0.021275563581810878,-0.06846926655573755,1.6484634785086443,0,0,1.39,0,23
241,303243.286,65.00300000002608,-0.12697602081298828,-0.2839529113769531,0,-0.004468042885105484,-0.07044148861049113,1.6488998108216426,0,0,1.398,0,23
242,303308.715,65.42900000000373,-0.08275919342041016,-0.316259033203125,0,0.0108035880698449,-0.07302457590344276,1.6493361431346414,0,0,1.399,0,23
243,303373.718,65.00299999996787,-0.026038457870483398,-0.3153724670410156,0,0.020699604928652745,-0.07698647330546986,1.6486903713114034,0,0,0.986,0,23
244,303438.873,65.15500000002794,0.025469356536865235,-0.24861402893066406,0,0.031625366046137256,-0.07546803685623481,1.6492663299645616,0,0,1.396,0,23
245,303503.845,64.97199999995064,0.05911312103271484,-0.25995965576171876,0,0.04646066468808906,-0.06515314097694833,1.6503484341007981,0,0,1.401,0,23
246,303569.03,65.18500000005588,0.12903857421875,-0.2944197082519531,0,0.05222025121967034,-0.04253367387110181,1.6524079226181514,0,0,1.4,0,23
247,303634.307,65.27699999994365,0.17766354370117188,-0.29635623168945313,0,0.05860815628196959,-0.002303834612632515,1.6557415014894608,0,0,0.956,0,23
248,303699.371,65.06400000001304,0.10428462219238281,-0.15186990356445312,0,0.06450736915371043,0.03834488366631542,1.658376948659972,0,0,0.947,0,23
249,303764.556,65.18499999999767,0.05065438461303711,-0.09761916351318359,0,0.07747516549602829,0.07780677805390722,1.6605411569324449,0,0,0.95,0,23
250,303829.895,65.33900000003632,0.020315658569335936,-0.03933453369140625,0,0.08532914713000277,0.10374237073854295,1.6615709011911217,0,0,0.921,0,23
251,303894.836,64.94099999999162,-0.036583446502685545,0.019258073806762695,0,0.0889245253891111,0.12276645958528114,1.660802956320244,0,0,0.921,0,23
252,303960.083,65.24699999997392,-0.09930851745605469,0.08532086944580078,0,0.08590510578316089,0.12864821916450203,1.6601746377895261,0,0,0.907,0,23
253,304025.146,65.06300000002375,-0.20066673278808594,0.1535784454345703,0,0.07806857744170635,0.12583823906879116,1.6572948445237354,0,0,0.901,0,23
254,304090.393,65.24699999997392,-0.2750154724121094,0.22406771850585938,0,0.0644201026911107,0.1116661655425972,1.653769279434707,0,0,0.876,0,23
255,304155.609,65.2160000000149,-0.3306034240722656,0.25005770874023436,0,0.05223770451219028,0.09367182095453568,1.650138994590559,0,0,0.874,0,23
256,304220.672,65.06300000002375,-0.3772014770507813,0.28143408203125,0,0.03886848244191372,0.06911503837897545,1.6459851109708123,0,0,0.863,0,23
257,304285.858,65.18599999998696,-0.46116064453125,0.2998258056640625,0,0.03146828641345776,0.04305727264670011,1.642302466249104,0,0,0.841,0,23
258,304351.348,65.48999999999069,-0.45758306884765626,0.3216862182617187,0,0.025621433419276758,0.014503686084072877,1.638811807745116,0,0,0.83,0,23
259,304416.198,64.84999999997672,-0.4455782470703125,0.32603610229492186,0,0.01731366617978375,-0.0091106186954104,1.6368919455679218,0,0,0.826,0,23
260,304481.445,65.24700000003213,-0.3906641235351562,0.29572244262695313,0,0.00926769832808989,-0.030647981665020425,1.6349720833907282,0,0,0.796,0,23
261,304546.508,65.06299999996554,-0.36820523071289063,0.28970870971679685,0,0.000890117918517108,-0.04972443038931845,1.6337154463292924,0,0,0.824,0,23
262,304611.724,65.2160000000149,-0.28905227661132815,0.2810643310546875,0,-0.011658799403322121,-0.06478662183402951,1.6317781308595785,0,0,0.78,0,23
263,304676.94,65.2160000000149,-0.248382080078125,0.26785614013671877,0,-0.022706733568446227,-0.07202973822980598,1.6312196254989402,0,0,1.16,0,23
264,304742.034,65.09399999998277,-0.2813519287109375,0.32856268310546877,0,-0.03378957431861022,-0.07581710270663368,1.6300677081926238,0,0,1.145,0,23
265,304807.22,65.18599999998696,-0.30830734252929687,0.42342999267578124,0,-0.04719370297392667,-0.0793775743807021,1.6292474034441868,0,0,1.113,0,23
266,304872.528,65.30800000001909,-0.15570126342773438,0.34752688598632814,0,-0.05763077190085276,-0.08038986534685881,1.6282874723555898,0,0,1.083,0,23
267,304937.5,64.97200000000885,-0.15116276550292967,0.2637724609375,0,-0.06871361265101675,-0.08108799704765655,1.6278162334575512,0,0,1.068,0,23
268,305002.746,65.24599999998463,-0.03268146896362305,0.1850002136230469,0,-0.0798139066937007,-0.08210028801381325,1.6273100879744729,0,0,1.037,0,23
269,305067.962,65.2160000000149,-0.018466773986816405,0.10786986541748046,0,-0.08751080869499568,-0.07819075048934597,1.6266643161512349,0,0,1.037,0,23
270,305133.087,65.125,0.030796493530273437,0.02887731170654297,0,-0.08651597102135891,-0.0682947336305381,1.626088357498077,0,0,1.004,0,23
271,305198.272,65.18499999999767,0.014699875831604004,-0.032212093353271486,0,-0.08255407361933179,-0.05670574739729577,1.6244652012937224,0,0,0.982,0,23
272,305263.366,65.09399999998277,0.04675075149536133,-0.10232157135009766,0,-0.07410668003967924,-0.04066617157146788,1.6234878169126052,0,0,0.981,0,23
273,305328.582,65.2160000000149,-0.004721267223358154,-0.15340809631347657,0,-0.06120869686744114,-0.023404865269243957,1.6242383084909628,0,0,0.957,0,23
274,305393.859,65.27700000000186,0.013417716026306153,-0.2237670135498047,0,-0.04485496177625426,-0.008866272600131194,1.623941602518124,0,0,0.948,0,23
275,305458.862,65.00300000002608,-0.04207517242431641,-0.22750102233886718,0,-0.029757863746503316,0.004590215932745087,1.6236798031303248,0,0,0.948,0,23
276,305524.108,65.24599999998463,-0.004201310634613037,-0.28163140869140624,0,-0.010471975511965976,0.017278759594743863,1.624500107878762,0,0,0.943,0,23
277,305589.202,65.09399999998277,0.003127748966217041,-0.34767401123046876,0,0.007435102613495844,0.021642082724729686,1.624796813851601,0,0,0.943,0,23
278,305654.479,65.27700000000186,-0.021921363830566407,-0.347560302734375,0,0.030351275692181393,0.024888395133439135,1.6243255749535623,0,0,0.535,0,23
279,305719.635,65.15600000001723,-0.031731130599975586,-0.1942681121826172,0,0.05213298475707063,0.02759365547403035,1.6242906683685225,0,0,0.514,0,23
280,305784.698,65.06299999996554,-0.05396908950805664,-0.17283990478515626,0,0.06396631708559218,0.02193878869756872,1.6241859486134032,0,0,0.511,0,23
281,305849.884,65.18600000004517,-0.041876953125,-0.1414541473388672,0,0.07450810576763793,0.01329940890019679,1.6236623498378047,0,0,0.51,0,23
282,305915.283,65.39899999997579,-0.051600780487060544,-0.10038966369628906,0,0.07600908892435305,0.009930923443847734,1.6227896852118076,0,0,0.51,0,23
283,305980.163,64.88000000000466,-0.04752736663818359,-0.05309274291992187,0,0.07202973822980598,0.005375614096142535,1.6215330481503716,0,0,0.521,0,23
284,306045.379,65.2160000000149,-0.049461368560791016,-0.0373310546875,0,0.06398377037811212,-0.00008726646259971648,1.6199797051160967,0,0,0.513,0,23
285,306110.473,65.09399999998277,-0.03753905868530273,0.00393825912475586,0,0.056042522281537915,-0.0037350045992678655,1.6199797051160967,0,0,0.52,0,23
286,306175.72,65.24699999997392,-0.02473439025878906,0.016454734802246095,0,0.04461061568097506,-0.005550147021341968,1.6228071385043277,0,0,0.528,0,23
287,306240.844,65.12400000001071,-0.01576511764526367,0.03584682846069336,0,0.02787290815434944,-0.01022762941668677,1.6254076790897993,0,0,0.547,0,23
288,306306.03,65.18600000004517,-0.027017810821533202,0.04316559219360352,0,0.01783726495538205,-0.008918632477691025,1.627275181389433,0,0,0.557,0,23
289,306371.124,65.09399999998277,-0.015226802825927734,0.058229053497314456,0,0.010838494654884786,-0.008045967851693859,1.6281129394303906,0,0,0.565,0,23
290,306436.492,65.36800000001676,-0.008523557662963867,0.05554522705078125,0,0.009808750396208132,-0.008587019919812101,1.629753548927265,0,0,0.574,0,23
291,306501.464,64.97199999995064,-0.009669219017028809,0.06418869781494141,0,0.011676252695842066,-0.00869173967493176,1.6316908643969787,0,0,0.591,0,23
292,306566.833,65.36900000000605,-0.01257022762298584,0.059453628540039063,0,0.013194689145077132,-0.008587019919812101,1.6342914049824502,0,0,1.026,0,23
293,306631.835,65.00200000003679,-0.011268166542053223,0.11550184631347657,0,0.010524335389525807,-0.01462585913171248,1.6372235581258006,0,0,0.61,0,23
294,306697.021,65.18599999998696,0.010490148544311524,0.07199705505371094,0,0.010786134777324957,-0.01933824811209717,1.6387594478675558,0,0,0.61,0,22
295,306762.359,65.33799999998882,0.03262579727172851,0.09759149932861329,0,0.003560471674068432,-0.02033308578573394,1.6435591033105403,0,0,0.631,0,22
296,306827.453,65.09399999998277,0.06226874923706055,0.08442705535888671,0,-0.01677261411166551,-0.014503686084072877,1.6490219838692826,0,0,0.629,0,22
297,306892.486,65.03299999999581,0.06236263656616211,0.08438731384277344,0,-0.04646066468808906,-0.005881759579220891,1.6545197710130646,0,0,0.639,0,22
298,306958.038,65.55200000002515,0.06219886779785156,0.04407600784301758,0,-0.07944738755078187,0.0027052603405912107,1.6594241462111685,0,0,1.031,0,22
299,307022.705,64.66700000001583,0.0456464958190918,-0.005190980911254883,0,-0.1042485162216213,0.013596114873035827,1.6633860436131958,0,0,1.033,0,22
300,307087.89,65.18499999999767,0.04834683990478516,-0.07092510986328125,0,-0.11932816095885229,0.023649211364523165,1.6668592488246645,0,0,1.039,0,22
301,307153.045,65.15499999996973,0.00923731517791748,-0.13240428161621093,0,-0.12555898638847207,0.03359758810089085,1.6700881079408538,0,0,1.05,0,22
302,307218.261,65.2160000000149,0.008180809020996094,-0.21310012817382812,0,-0.1246863217624749,0.040421825476188666,1.673124980839324,0,0,0.64,0,22
303,307283.386,65.125,-0.028986017227172853,-0.34120428466796876,0,-0.11962486693169135,0.04351105825221863,1.6766505459283527,0,0,1.029,0,22
304,307348.541,65.15500000002794,-0.05349567413330078,-0.4347474365234375,0,-0.10780898789568973,0.042568580456141696,1.6800539379697417,0,0,0.609,0,22
305,307413.665,65.1239999999525,-0.0799690170288086,-0.3205674133300781,0,-0.08979719001510825,0.041172317054546236,1.6825846653851335,0,0,0.583,0,22
306,307479.003,65.33800000004703,-0.11897126007080078,-0.3709620056152344,0,-0.0704240353179712,0.03907792195215303,1.6850979395080055,0,0,0.55,0,22
307,307544.036,65.03299999999581,-0.18221971130371092,-0.3823232116699219,0,-0.05185373207675153,0.035028758087526195,1.687855559726156,0,0,0.542,0,22
308,307609.344,65.30799999996088,-0.18321156311035156,-0.4665625915527344,0,-0.03647738136668148,0.028274333882308142,1.689199463250192,0,0,0.524,0,22
309,307674.316,64.97200000000885,-0.1737314453125,-0.44471759033203123,0,-0.025708699881876473,0.01689478715930511,1.691276405060065,0,0,0.502,0,22
310,307739.562,65.24599999998463,-0.18877186584472655,-0.45771466064453126,0,-0.016249015336067207,0.004084070449666731,1.6932835336998586,0,0,0.5,0,21
311,307804.687,65.125,-0.1694877166748047,-0.4588518371582031,0,-0.007382742735936014,-0.0050789081233034985,1.6950463162443727,0,0,0.493,0,21
312,307870.178,65.49100000003818,-0.1785585174560547,-0.4434211730957031,0,0.0002443460952792061,-0.01488765851951163,1.6960586072105295,0,0,0.491,0,21
313,307934.997,64.81899999995949,-0.14865412902832031,-0.44176144409179685,0,0.006387905062299246,-0.025499260371637158,1.697193071224326,0,0,0.486,0,21
314,308000.335,65.33800000004703,-0.13195167541503905,-0.46395767211914063,0,0.008726646259971648,-0.033196162372932145,1.6983275352381222,0,0,0.493,0,21
315,308065.338,65.00299999996787,-0.12650037384033203,-0.44440072631835936,0,0.013369222070276564,-0.03303908274025266,1.698659147796001,0,0,0.487,0,21
316,308130.615,65.27700000000186,-0.12041797637939453,-0.41431460571289064,0,0.02389355745980237,-0.027925268031909273,1.6986416945034812,0,0,0.49,0,21
317,308195.617,65.00200000003679,-0.0799084701538086,-0.37031869506835935,0,0.03431317309420852,-0.02323033234404453,1.6970883514692063,0,0,0.49,0,21
318,308260.864,65.24699999997392,-0.06255002975463868,-0.3667541809082031,0,0.03752457891787808,-0.022130774915288098,1.6951684892920125,0,0,0.502,0,21
319,308325.988,65.12400000001071,-0.04278066635131836,-0.35268344116210937,0,0.040020399748229976,-0.01689478715930511,1.6931439073596992,0,0,0.499,0,21
320,308391.265,65.27700000000186,-0.031108678817749022,-0.33359622192382815,0,0.04063126498642799,-0.011641346110802179,1.6908226194545466,0,0,0.499,0,21
321,308456.268,65.00299999996787,-0.04047206497192383,-0.29511895751953127,0,0.04529129408925286,-0.005445427266222308,1.6892518231277518,0,0,0.502,0,21
322,308521.606,65.33800000004703,-0.03430517959594727,-0.24396090698242187,0,0.04293509959906051,-0.0004188790204786391,1.6876984800934767,0,0,0.507,0,21
323,308586.669,65.06299999996554,-0.03049322509765625,-0.22445387268066405,0,0.03804817769347638,0.006702064327658226,1.6885536914269539,0,0,0.507,0,21
324,308651.824,65.15500000002794,-0.05010986328125,-0.202286376953125,0,0.03717551306747922,0.01377064779823526,1.693772225890417,0,0,0.509,0,21
325,308716.888,65.06399999995483,-0.051654254913330075,-0.17983840942382812,0,0.03783873818323706,0.01619665545850738,1.6988511340137207,0,0,0.509,0,20
326,308782.135,65.24700000003213,-0.0704581069946289,-0.16622474670410156,0,0.039950586578150205,0.014817845349431856,1.701800740449591,0,0,0.507,0,20
327,308847.32,65.18499999999767,-0.08403520202636719,-0.1451383514404297,0,0.042708206796301246,0.006230825429619756,1.7046107205453018,0,0,0.505,0,20
328,308912.506,65.18599999998696,-0.08093342590332031,-0.1241236572265625,0,0.047560222116845484,-0.0036651914291880917,1.706129156994537,0,0,0.5,0,20
329,308977.569,65.06300000002375,-0.08806238555908204,-0.1000523681640625,0,0.056182148621697466,-0.009302604913129776,1.7084155383146498,0,0,0.497,0,20
330,309042.877,65.30799999996088,-0.08158586120605468,-0.05846062469482422,0,0.06319837221471467,-0.012880529879718152,1.7104401202469628,0,0,0.497,0,20
331,309107.849,64.97200000000885,-0.080798828125,-0.023942361831665038,0,0.06716026961674179,-0.014660765716752367,1.7109113591450014,0,0,0.497,0,20
332,309173.095,65.24599999998463,-0.0805230484008789,0.015026643753051757,0,0.06403613025567195,-0.015358897417550098,1.712621781811956,0,0,0.499,0,20
333,309238.372,65.27700000000186,-0.06605463409423828,0.0509524040222168,0,0.05794493116621174,-0.01387536755335492,1.714925616424588,0,0,0.501,0,20
334,309303.497,65.125,-0.0717526626586914,0.07108299255371094,0,0.04790928796724435,-0.01446877949903299,1.7164789594588632,0,0,0.504,0,20
335,309368.774,65.27700000000186,-0.06091283798217773,0.09429644012451172,0,0.034033920413889425,-0.017767451785302275,1.7172818109147805,0,0,0.508,0,20
336,309433.685,64.91100000002189,-0.05219248580932617,0.0945346908569336,0,0.02469640891571976,-0.01595230936322817,1.717822862982899,0,0,0.512,0,20
337,309498.87,65.18499999999767,-0.05620901870727539,0.10088671875,0,0.015097098029750951,-0.01811651763570114,1.7181370222482577,0,0,0.523,0,20
338,309564.178,65.30800000001909,-0.035624134063720704,0.0948212127685547,0,0.006667157742618338,-0.023649211364523165,1.7187129809014159,0,0,0.535,0,20
339,309629.119,64.94099999999162,-0.038434318542480465,0.09516159820556641,0,-0.0008726646259971648,-0.029007372168145754,1.7180846623706978,0,0,0.54,0,20
340,309694.396,65.27700000000186,-0.029690221786499025,0.09056770324707031,0,-0.004084070449666731,-0.03228859116189509,1.718416274928577,0,0,0.547,0,20
341,309759.49,65.09399999998277,-0.02831784439086914,0.08240628814697265,0,-0.0019722220547535923,-0.03209660494417572,1.7194460191872536,0,0,0.556,0,19
342,309824.615,65.125,-0.011835448265075684,0.07658837890625,0,0.0026878070480712674,-0.03551745027808461,1.7194809257722934,0,0,0.57,0,19
343,309889.892,65.27700000000186,0.009003984451293945,0.07996169281005859,0,0.005794493116621174,-0.042114794850623166,1.7191667665069343,0,0,0.564,0,19
344,309954.986,65.09399999998277,0.025609161376953123,0.06593363952636719,0,0.010611601852125523,-0.0436157780073383,1.7187653407789756,0,0,0.568,0,19
345,310020.141,65.15500000002794,0.02949695587158203,0.07923957824707031,0,0.010873401239924672,-0.043737951054977894,1.718747887486456,0,0,0.572,0,19
346,310085.418,65.27700000000186,0.07025061798095703,0.07646615600585938,0,0.008970992355250854,-0.040491638646268445,1.7189224204116553,0,0,0.571,0,19
347,310150.39,64.97200000000885,0.08735616302490234,0.07359356689453125,0,0.007557275661135446,-0.035203291012725624,1.7201616041805714,0,0,0.57,0,19
348,310215.606,65.2160000000149,0.11633986663818359,0.07355979919433593,0,0.005253441048502931,-0.030159289474462014,1.7213309747794077,0,0,0.569,0,19
349,310280.792,65.18599999998696,0.12839030456542969,0.07378690338134766,0,0.002879793265790644,-0.02617993877991494,1.722779598058563,0,0,0.569,0,19
350,310345.977,65.18499999999767,0.14332084655761718,0.0649902801513672,0,0.001117010721276371,-0.02113593724165133,1.7252754188889148,0,0,0.566,0,19
351,310411.224,65.24699999997392,0.14789706420898438,0.06752774047851562,0,-0.0021642082724729686,-0.01747074581246324,1.7271952810661082,0,0,0.566,0,19
352,310476.165,64.94099999999162,0.14989306640625,0.05141550827026367,0,-0.0020420352248333657,-0.01064650843716541,1.729219862998422,0,0,0.563,0,19
353,310541.473,65.30800000001909,0.16005499267578124,0.053670135498046875,0,-0.002897246558310587,-0.00471238898038469,1.7312269916382153,0,0,0.565,0,19
354,310606.75,65.27700000000186,0.15224383544921874,0.04616415023803711,0,-0.00778416846389471,0.0004537856055185257,1.7330770406453293,0,0,0.567,0,19
355,310671.783,65.03299999999581,0.14220295715332032,0.037092296600341794,0,-0.01282817000215832,0.0020943951023931952,1.7332166669854887,0,0,0.567,0,19
356,310736.907,65.12400000001071,0.13452529907226562,0.021112428665161134,0,-0.014276793281313616,0.009023352232810684,1.7344558507544048,0,0,0.564,0,18
357,310802.062,65.15499999996973,0.13073822021484374,0.0054198532104492185,0,-0.014189526818713898,0.017453292519943295,1.7368469518296372,0,0,0.564,0,18
358,310867.279,65.21700000000419,0.0927600326538086,-0.003935206174850464,0,-0.011449359893082803,0.02614503219487506,1.7382781218162724,0,0,0.56,0,18
359,310932.525,65.24600000004284,0.07898759460449219,-0.005162389755249024,0,-0.01275835683207855,0.029932396671702756,1.7392729594899092,0,0,0.562,0,18
360,310997.589,65.06399999995483,0.06732170104980469,-0.02040724754333496,0,-0.009896016858807847,0.036198128686362394,1.7397267450954277,0,0,0.56,0,18
361,311062.744,65.15500000002794,0.035776611328125,-0.0208853759765625,0,-0.00968657734856853,0.036791540632040466,1.7396045720477882,0,0,0.558,0,18
362,311128.021,65.27700000000186,0.005416830062866211,-0.030081024169921877,0,-0.007819075048934596,0.032183871406775436,1.7401456241159063,0,0,0.557,0,18
363,311192.993,64.97200000000885,-0.0154149169921875,-0.03176745986938476,0,-0.007504915783575617,0.019617500792416264,1.7398140115580272,0,0,0.556,0,18
364,311258.3,65.3069999999716,-0.026530729293823243,-0.04212643814086914,0,-0.00481710873550435,0.007714355293814937,1.7396045720477882,0,0,0.551,0,18
365,311323.333,65.03299999999581,-0.040688915252685545,-0.049684520721435546,0,0.0002443460952792061,0.0017453292519943296,1.73904606668715,0,0,0.546,0,18
366,311388.549,65.2160000000149,-0.041354408264160154,-0.0525151252746582,0,0.007644542123735163,-0.004677482395344803,1.7380337757209932,0,0,0.542,0,18
367,311454.345,65.79599999997299,-0.04239199829101563,-0.0539801139831543,0,0.016022122533307946,-0.009965830028887622,1.7372309242650759,0,0,0.538,0,18
368,311518.859,64.51400000002468,-0.018531654357910158,-0.0416669921875,0,0.022183134792847926,-0.008272860654453122,1.7367771386595574,0,0,0.535,0,18
369,311583.984,65.125,-0.03648091888427735,-0.009519027709960938,0,0.023492131731843675,-0.009459684545809265,1.7354855950130816,0,0,0.518,0,18
370,311649.597,65.61300000001211,-0.01505420207977295,0.01209774398803711,0,0.02389355745980237,-0.013578661580515882,1.7346478369721243,0,0,0.478,0,18
371,311714.477,64.88000000000466,-0.012110116958618165,0.032115760803222655,0,0.021415189921970425,-0.017872171540421936,1.7336355460059676,0,0,0.454,0,18
372,311779.602,65.125,-0.00023850345611572265,0.023646575927734375,0,0.020158552860534504,-0.017278759594743863,1.7337751723461268,0,0,0.397,0,18
373,311844.604,65.00199999997858,0.01925907516479492,0.025418254852294923,0,0.01864011641129944,-0.013596114873035827,1.7340893316114858,0,0,0.37,0,18
374,311909.79,65.18599999998696,0.0076302108764648435,0.006203571319580078,0,0.023282692221604357,-0.004904375198104066,1.7336529992984875,0,0,0.31,0,18
375,311975.189,65.399000000034,-0.008861459732055665,-0.003951772689819336,0,0.02790781473938933,0.007592182246175334,1.7332690268630488,0,0,0.266,0,18
376,312040.039,64.84999999997672,-0.0062718276977539065,0.045898433685302734,0,0.025778513051956248,0.014940018397071462,1.7333039334480889,0,0,0.248,0,18
377,312105.163,65.12400000001071,0.006627569675445557,0.14599496459960937,0,0.013177235852557187,0.012775810124598492,1.7333039334480889,0,0,0.242,0,18
378,312170.44,65.27700000000186,-0.008801012039184571,0.1752435302734375,0,0.0005759586531581287,0.013962634015954637,1.7279806792295058,0,0,0.243,0,18
379,312235.504,65.06400000001304,0.009802909851074218,0.025962032318115235,0,0.0032637657012293962,0.008674286382411817,1.7209120957589288,0,0,0.242,0,18
380,312300.598,65.09399999998277,0.006044758796691895,-0.016075809478759764,0,0.027035150113392165,0.018727382873899155,1.7301797940870187,0,0,0.242,0,18
