n,time,dt,vx,vy,vz,roll,pitch,yaw,x,y,z,detected,battery
0,861662.292,NaN,0,0,0,0.04309217923174,0.061261056745000965,1.7186431677313363,0,0,0.242,0,21
1,861732.574,NaN,0,0,0,0.04303981935418017,0.06129596333004085,1.7186431677313363,0,0,0.243,0,21
2,861797.76,NaN,0,0,0,0.04310963252425994,0.06138322979264057,1.718678074316376,0,0,0.242,0,21
3,861868.072,NaN,0,0,0,0.04309217923174,0.06148794954776023,1.7186955276088962,0,0,0.242,0,21
4,861938.079,NaN,0,0,0,0.04316199240181977,0.06150540284028017,1.7187129809014159,0,0,0.242,0,21
5,862003.143,NaN,0,0,0,0.04307472593922005,0.061243603452481025,1.718678074316376,0,0,0.243,0,21
6,862068.908,65.76500000001397,0,0,0,0.04290019301402062,0.061261056745000965,1.7187653407789756,0,0,0.242,0,21
7,862133.483,64.57499999995343,0,0,0,0.04283037984394085,0.06120869686744114,1.7185035413911764,0,0,0.242,0,21
8,862198.699,65.2160000000149,0,0,0,0.042708206796301246,0.0611563369898813,1.7182941018809372,0,0,0.242,0,21
9,862263.885,65.18599999998696,0,0,0,0.04267330021126135,0.0610341639422417,1.7182591952958977,0,0,0.242,0,21
10,862329.101,65.2160000000149,0,0,0,0.04267330021126135,0.0609119908946021,1.7184337282210969,0,0,0.242,0,21
11,862394.287,65.18599999998696,0,0,0,0.042638393626221474,0.06082472443200238,1.7183115551734574,0,0,0.242,0,21
12,862459.442,65.15500000002794,0,0,0,0.04251622057858187,0.060859631017042275,1.7181544755407776,0,0,0.242,0,21
13,862524.597,65.15499999991152,0,0,0,0.042411500823462206,0.06077236455444256,1.7182068354183375,0,0,0.243,0,21
14,862589.874,65.27700000000186,0,0,0,0.042481313993541985,0.06059783162924312,1.7185908078537766,0,0,0.243,0,21
15,862654.876,65.002000000095,0,0,0,0.042167154728183,0.06045820528908357,1.718102115663218,0,0,0.242,0,21
16,862720.092,65.21599999989849,0,0,0,0.042114794850623166,0.05984734005088556,1.7184511815136168,0,0,0.242,0,21
17,862785.217,65.125,0,0,0,0.04227187448330266,0.05958554066308641,1.7185908078537766,0,0,0.242,0,21
18,862850.433,65.2160000000149,0,0,0,0.04206243497306335,0.059480820907966754,1.718102115663218,0,0,0.243,0,21
19,862915.557,65.12400000006892,0,0,0,0.041957715217943684,0.05881759579220891,1.7184511815136168,0,0,0.243,0,21
20,862980.773,65.2160000000149,0,0,0,0.042114794850623166,0.05907939518000805,1.7182941018809372,0,0,0.243,0,21
21,863045.928,65.15499999991152,0,0,0,0.04138175656478556,0.05899212871740834,1.7179799426155784,0,0,0.243,0,21
22,863111.236,65.3080000000773,0,0,0,0.041661009245104644,0.05827654372409066,1.7187129809014159,0,0,0.242,0,21
23,863176.269,65.0329999999376,0,0,0,0.0415213829049451,0.058311450309130555,1.718678074316376,0,0,0.243,0,21
24,863241.424,65.15500000002794,0,0,0,0.040962877544306914,0.058416170064250206,1.7176832366427395,0,0,0.243,0,21
25,863306.518,65.09400000004098,0,0,0,0.04068362486398782,0.05892231554732856,1.7182417420033775,0,0,0.243,0,21
26,863371.704,65.18599999998696,0,0,0,0.040858157789187256,0.05867796945204936,1.7188526072415755,0,0,0.243,0,21
27,863436.798,65.09399999992456,0,0,0,0.041573742782504926,0.05747369226817327,1.718363915051017,0,0,0.243,0,21
28,863502.014,65.2160000000149,0,0,0,0.04148647631990521,0.05757841202329293,1.7175436103025798,0,0,0.243,0,21
29,863567.169,65.15500000002794,0,0,0,0.041887902047863905,0.05653121447209633,1.7177355965202992,0,0,0.243,0,21
30,863632.446,65.27700000000186,0,0,0,0.04178318229274425,0.0549429648527815,1.7203361371057706,0,0,0.242,0,21
31,863697.479,65.03300000005402,0,0,0,0.04138175656478556,0.05599016240397809,1.724891446453476,0,0,0.242,0,21
32,863762.664,65.18499999993946,0,0,0,0.04159119607502487,0.05359906132874586,1.7266018691204303,0,0,0.242,0,21
33,863828.033,65.36900000006426,0,0,0,0.043807764225057666,0.051871185369271475,1.7289057037330628,0,0,0.255,0,21
34,863893.035,65.00199999997858,0,0,0,0.03963642731279122,0.05174901232163187,1.734665290264644,0,0,0.243,0,21
35,863958.16,65.125,0,0,0,0.04310963252425994,0.04731587602156627,1.743618829327375,0,0,0.242,0,21
36,864023.406,65.24599999992643,0,0,0,0.03438298626428829,0.04953244417159907,1.749134069763677,0,0,0.242,0,21
37,864088.5,65.09400000004098,0,0,0,0.020053833105414847,0.05619960191421742,1.7495878553691957,0,0,0.242,0,21
38,864153.747,65.24699999997392,0,0,0,0.01541125729510993,0.03986332011555049,1.744229694565573,0,0,0.242,0,21
39,864218.811,65.06400000001304,0,0,0,0.012950343049797924,0.014014993893514467,1.7343336777067653,0,0,0.243,0,21
40,864284.027,65.2160000000149,0,0,0,0.005497787143782138,-0.0037699111843077517,1.7311746317606556,0,0,0.242,0,21
41,864349.151,65.1239999999525,0,0,0,-0.003298672286269283,-0.012252211349000194,1.7324836286996512,0,0,0.242,0,21
42,864414.337,65.18600000010338,0,0,0,-0.007487462491055673,-0.01879719604397893,1.7305288599374176,0,0,0.241,0,21
43,864479.949,65.61199999996461,0,0,0,-0.006702064327658226,-0.021868975527488947,1.7308953790803365,0,0,0.242,0,21
44,864544.738,64.78899999998976,0,0,0,-0.0008552113334772215,-0.01748819910498318,1.7314364311484547,0,0,0.242,0,21
45,864609.924,65.18599999998696,0,0,0,0.0028099800957108703,-0.015219271077390554,1.7318378568764135,0,0,0.242,0,21
46,864675.17,65.24600000004284,0,0,0,0.0014311699866353504,-0.004206243497306334,1.73297232089021,0,0,0.243,0,21
47,864740.264,65.09399999992456,0,0,0,0.0016231562043547262,0.00830776723949301,1.7340369717339261,0,0,0.249,0,20
48,864805.633,65.36900000006426,-0.030163738250732423,0.013923419952392577,0,0.0011344640137963143,0.019931660057775243,1.552819435499355,0,0,0.285,0,20
49,864870.544,64.91099999996368,-0.07675636291503907,0.034468215942382814,0,0.002897246558310587,0.022567107228286677,1.5577761705750188,0,0,0.308,0,20
50,864935.729,65.18500000005588,-0.12236674499511718,0.0490345458984375,0,0.011135200627723822,0.025935592684635737,1.5608828566435689,0,0,0.369,0,20
51,865000.885,65.15599999995902,-0.14086148071289062,0.054467308044433595,0,-0.0003665191429188092,0.009878563566287904,1.5620347739498852,0,0,0.437,0,20
52,865066.07,65.18499999993946,0.17922938537597657,-0.192637451171875,0,-0.0014486232791552935,0.0035953782591083183,1.5632565044262812,0,0,0.479,0,20
53,865131.469,65.3990000000922,0.1727703857421875,-0.20931802368164062,0,0.018413223608540176,0.02389355745980237,1.5644607816101572,0,0,0.539,0,20
54,865196.594,65.125,0.18331349182128906,-0.205263916015625,0,0.03722787294503905,0.04298745947662034,1.5655079791613538,0,0,0.604,0,20
55,865261.688,65.09399999992456,0.1971314697265625,-0.18119676208496094,0,0.048869219055841226,0.05733406592801373,1.5666075365901102,0,0,0.64,0,20
56,865326.873,65.18500000005588,0.18941647338867187,-0.162609375,0,0.055274577410660414,0.06921975813409512,1.5676023742637466,0,0,0.695,0,20
57,865391.876,65.00300000002608,0.24455242919921874,-0.1635214080810547,0,0.061016710649721764,0.07951720072086164,1.5675325610936672,0,0,0.721,0,20
58,865457.153,65.27700000000186,0.2654288330078125,-0.18086860656738282,0,0.06257005368399671,0.08890707209659114,1.5669740557330292,0,0,0.782,0,20
59,865522.43,65.27700000000186,0.26930572509765627,-0.19932339477539063,0,0.06658431096358368,0.10075785771763264,1.5669216958554693,0,0,0.81,0,20
60,865587.402,64.97199999995064,0.2510306396484375,-0.21997998046875,0,0.07309438907352252,0.11294025589655306,1.5664330036649106,0,0,0.814,0,20
61,865652.557,65.15500000002794,0.23731515502929687,-0.20820596313476564,0,0.08101818387757678,0.11950269388405174,1.5661886575696315,0,0,0.821,0,20
62,865717.956,65.39899999997579,0.1861337127685547,-0.166336669921875,0,0.08531169383748283,0.12046262497264863,1.5657174186715932,0,0,0.813,0,20
63,865782.928,64.97199999995064,0.16152725219726563,-0.13228236389160156,0,0.08332201849020929,0.1150870108765061,1.564827300753076,0,0,0.808,0,20
64,865848.144,65.2160000000149,0.1019619140625,-0.09844621276855468,0,0.07780677805390722,0.10894345190948604,1.5639895427121187,0,0,0.79,0,20
65,865913.208,65.06400000001304,0.06672084045410157,-0.0513966064453125,0,0.06958627727701393,0.09883799554043889,1.5634833972290403,0,0,0.784,0,20
66,865978.363,65.15500000002794,0.04469639205932617,-0.02334280014038086,0,0.05813691738393111,0.08635889138867943,1.5630645182085616,0,0,0.768,0,20
67,866043.701,65.33799999998882,0.0115473051071167,-0.009346229553222656,0,0.049235738198760044,0.08012806595905966,1.5627678122357227,0,0,0.756,0,20
68,866108.795,65.09400000004098,-0.003965589046478271,0.022610511779785156,0,0.043580871422298405,0.07302457590344276,1.5625758260180034,0,0,0.748,0,20
69,866173.858,65.06299999996554,-0.027281703948974608,0.03412842559814453,0,0.03513347784264585,0.06270968002415625,1.5621918535825645,0,0,0.74,0,20
70,866239.166,65.30799999996088,-0.04637453079223633,0.03808089447021484,0,0.028588493147667114,0.053930673886624786,1.562628185895563,0,0,0.738,0,20
71,866304.107,64.94099999999162,-0.05080834579467773,0.037568588256835934,0,0.02569124658935653,0.0486946861306418,1.5624536529703639,0,0,0.736,0,20
72,866369.415,65.3080000000773,-0.05080998992919922,0.03919364166259766,0,0.024294983187761066,0.04520402762665313,1.562715452358163,0,0,0.736,0,20
73,866434.478,65.06299999996554,-0.05194681549072266,0.043294967651367186,0,0.020909044438892067,0.040962877544306914,1.562628185895563,0,0,0.737,0,20
74,866499.755,65.27700000000186,-0.045846408843994144,0.036996040344238285,0,0.018186330805780915,0.037192966359999156,1.5626107326030432,0,0,0.738,0,20
75,866565.002,65.24699999997392,-0.051190628051757815,0.02691111183166504,0,0.019285888234537342,0.033894294073729875,1.5625060128479236,0,0,0.741,0,20
76,866630.004,65.00199999997858,-0.042999835968017576,0.01859909439086914,0,0.021013764194011724,0.031276300195738384,1.562279120045164,0,0,0.744,0,20
77,866695.19,65.18599999998696,-0.043058528900146484,0.009290200233459472,0,0.02501056818107874,0.03204424506661589,1.562017320657365,0,0,0.748,0,20
78,866760.498,65.3080000000773,-0.026907556533813475,0.013138105392456054,0,0.027628562059070234,0.030560715202420707,1.5614762685892467,0,0,0.75,0,20
79,866825.5,65.00199999997858,-0.02659142303466797,0.01156028175354004,0,0.02787290815434944,0.030002209841782524,1.5608304967660092,0,0,0.751,0,20
80,866890.991,65.49100000003818,-0.019094926834106445,0.0073297548294067386,0,0.02925171826342496,0.03159045946109736,1.56046397762309,0,0,0.745,0,20
81,866955.932,64.94099999999162,-0.012960869789123535,0.00814723777770996,0,0.02871066619530672,0.03396410724380965,1.5606559638408095,0,0,0.743,0,20
82,867021.179,65.24699999997392,0.013223551750183105,0.004926051616668701,0,0.02881538595042638,0.037943457938356726,1.5608828566435689,0,0,0.741,0,20
83,867086.425,65.24600000004284,-0.006837192058563232,-0.0037112052440643312,0,0.030839967882739797,0.0432143522793796,1.5612144692014476,0,0,0.748,0,20
84,867151.428,65.00299999990966,-0.00871288013458252,0.004107178688049317,0,0.030909781052819572,0.0419228086329038,1.561458815296727,0,0,0.749,0,20
85,867216.613,65.18500000005588,-0.004047346591949463,0.001571139931678772,0,0.032934362985133,0.042551127163621756,1.5621918535825645,0,0,0.746,0,20
86,867281.921,65.30799999996088,-0.006783627986907959,0.0035887367725372316,0,0.03363249468593073,0.04454080251089529,1.5621045871199648,0,0,0.745,0,20
87,867346.893,64.97200000006706,0.003009468078613281,0.013442768096923827,0,0.02853613327010729,0.046129052130210124,1.5622965733376841,0,0,0.744,0,20
88,867412.2,65.30699999991339,-0.0038063507080078125,0.007425618648529053,0,0.02399827721492203,0.04843288674284264,1.5624187463853236,0,0,0.747,0,20
89,867477.233,65.03300000005402,-0.019153602600097658,-0.0013559861183166503,0,0.023020892833805207,0.05237733085234983,1.562628185895563,0,0,0.747,0,20
90,867542.51,65.27700000000186,-0.01949209403991699,-0.012878038406372071,0,0.02453932928304027,0.05262167694762904,1.5630470649160417,0,0,0.746,0,20
91,867607.757,65.24699999997392,-0.028285703659057616,-0.014944214820861817,0,0.027558748888990462,0.050213122579876854,1.5629074385758823,0,0,0.745,0,20
92,867672.76,65.00300000002608,-0.032198722839355466,-0.011162602424621582,0,0.028832839242946322,0.045727626402251434,1.5624711062628835,0,0,0.747,0,20
93,867737.976,65.2160000000149,-0.024875097274780274,-0.0161497802734375,0,0.0273318560862312,0.04305727264670011,1.5622442134601244,0,0,0.743,0,20
94,867803.253,65.27700000000186,-0.028406822204589843,-0.02714040946960449,0,0.030647981665020425,0.042708206796301246,1.5621918535825645,0,0,0.748,0,20
95,867868.164,64.91099999996368,-0.025076379776000978,-0.025403398513793946,0,0.03452261260444784,0.04178318229274425,1.5621569469975245,0,0,0.745,0,20
96,867933.532,65.36800000001676,-0.03442482376098633,-0.0039144914150238035,0,0.03173008580125691,0.03677408733952053,1.5590502609289747,0,0,0.749,0,20
97,867998.565,65.0329999999376,-0.008880035400390625,-0.012047273635864258,0,0.012688543661998775,0.022549653935766738,1.5504108811316026,0,0,0.743,0,20
98,868063.751,65.18600000010338,0.01938693618774414,-0.03598108291625977,0,-0.005427973973702364,0.009023352232810684,1.5431154048582667,0,0,0.741,0,20
99,868129.028,65.27700000000186,0.04408632278442383,-0.049052616119384766,0,-0.019826940302655582,-0.002181661564992912,1.5368845794286468,0,0,0.743,0,20
100,868194.061,65.0329999999376,0.058598548889160156,-0.09172003936767578,0,-0.028291787174828085,-0.006352998477259359,1.5317882180128233,0,0,0.738,0,20
101,868259.216,65.15500000002794,0.06802257537841797,-0.11803059387207031,0,-0.03209660494417572,-0.008447393579652554,1.5259239117261223,0,0,0.745,0,20
102,868324.798,65.58199999993667,0.10566301727294922,-0.18535400390625,0,-0.03108431397801901,-0.007679448708775049,1.5205133910449398,0,0,0.739,0,20
103,868389.465,64.66700000001583,0.1332705535888672,-0.22198707580566407,0,-0.02553416695667704,-0.003926990816987242,1.5160453481598344,0,0,0.738,0,20
104,868454.803,65.33799999998882,0.1746322021484375,-0.24860848999023438,0,-0.02087413785385218,-0.0008377580409572782,1.5121009040503273,0,0,0.741,0,20
105,868519.836,65.03300000005402,0.19400650024414062,-0.2683147583007813,0,-0.013194689145077132,0.0051836278784231585,1.5085055257912188,0,0,0.739,0,20
106,868585.144,65.30799999996088,0.23667596435546875,-0.29526300048828125,0,-0.0010995574287564276,0.011676252695842066,1.5053464798451093,0,0,0.734,0,20
107,868650.329,65.18500000005588,0.24288909912109374,-0.32081961059570313,0,0.014381513036433273,0.02415535684760152,1.502606312919478,0,0,0.737,0,20
108,868715.27,64.94099999999162,0.2451396484375,-0.3226314697265625,0,0.028448866807507567,0.03899065548955332,1.4996392531910878,0,0,0.741,0,20
109,868780.578,65.30799999996088,0.2317449645996094,-0.32288446044921876,0,0.042952552891580446,0.05190609195431136,1.4981208167418527,0,0,0.733,0,20
110,868845.794,65.2160000000149,0.26447625732421876,-0.3197897338867188,0,0.05661848093469605,0.06363470452771325,1.4954679162788214,0,0,0.735,0,20
111,868910.766,64.97199999995064,0.24874807739257812,-0.2914349365234375,0,0.06632251157578452,0.07237880408020485,1.4984698825922516,0,0,0.74,0,20
112,868976.135,65.36900000006426,0.2313292236328125,-0.25745425415039064,0,0.07667231404011089,0.08236208740161242,1.5034964308379952,0,0,0.741,0,20
113,869041.076,64.94099999999162,0.2132545166015625,-0.190971435546875,0,0.08902924514423075,0.09428268619273368,1.508749871886498,0,0,0.746,0,20
114,869106.262,65.18599999998696,0.1680113525390625,-0.13489364624023437,0,0.10211921453418821,0.10629055144645466,1.5128863022137249,0,0,0.766,0,20
115,869171.6,65.33799999998882,0.11995172882080078,-0.05149094772338867,0,0.11229448407331516,0.11388273369263001,1.5160104415747946,0,0,0.796,0,20
116,869236.907,65.3070000000298,0.07774744415283204,0.017321056365966796,0,0.11616911501274257,0.11627383476786222,1.5181048366771877,0,0,0.81,0,20
117,869301.727,64.81999999994878,0.022414127349853517,0.10058197021484375,0,0.1125562834611143,0.11573278269974399,1.5190124078882248,0,0,0.856,0,20
118,869367.248,65.52100000006612,-0.009140708923339843,0.1611879425048828,0,0.10431832939170109,0.11180579188275674,1.5201294186095011,0,0,0.878,0,20
119,869432.098,64.84999999997672,-0.044739269256591795,0.2123839111328125,0,0.0933227551041368,0.10639527120157433,1.5209671766504584,0,0,0.9,0,20
120,869497.375,65.27700000000186,-0.04679551696777344,0.2242889862060547,0,0.07983135998622062,0.09733701238372375,1.520845003602819,0,0,0.931,0,20
121,869562.438,65.06299999996554,-0.08531660461425782,0.24500099182128907,0,0.06347762489503377,0.08649851772883897,1.5216653083512561,0,0,0.945,0,20
122,869627.777,65.33900000003632,-0.0968484878540039,0.24604705810546876,0,0.04745550236172582,0.07525859734599549,1.522276173589454,0,0,0.977,0,20
123,869692.871,65.09400000004098,-0.09568916320800781,0.2585851135253906,0,0.03354522822333102,0.06213372137099814,1.5228346789500924,0,0,1.006,0,20
124,869757.965,65.09399999992456,-0.10272993469238281,0.24333209228515626,0,0.02398082392240209,0.05113814708343386,1.5237247968686094,0,0,1.024,0,20
125,869823.181,65.2160000000149,-0.10204592895507812,0.2468125457763672,0,0.014433872913993106,0.04159119607502487,1.5244054752768872,0,0,1.051,0,19
126,869888.488,65.3070000000298,-0.11751943969726562,0.21794813537597657,0,0.005951572749300664,0.035953782591083186,1.524562554909567,0,0,1.08,0,19
127,869953.43,64.94200000003912,-0.12025804901123047,0.17449383544921876,0,-0.00013962634015954637,0.032253684576855214,1.524771994419806,0,0,1.092,0,19
128,870018.707,65.27700000000186,-0.09031866455078125,0.1584225311279297,0,-0.004904375198104066,0.02631956512007449,1.525330499780444,0,0,1.124,0,19
129,870083.74,65.0329999999376,-0.10711064147949219,0.13132955932617188,0,-0.007086036763096978,0.02532472744643772,1.5257842853859631,0,0,1.142,0,19
130,870148.925,65.18500000005588,-0.10571737670898437,0.0977388458251953,0,-0.0051836278784231585,0.023631758072003222,1.5256970189233632,0,0,1.166,0,19
131,870214.172,65.24699999997392,-0.06246289825439453,0.06489375305175782,0,-0.0027401669256310974,0.020909044438892067,1.5257842853859631,0,0,1.198,0,19
132,870279.327,65.15500000002794,-0.07772758483886719,0.06258367156982422,0,0.00012217304763960306,0.021327923459370707,1.5257842853859631,0,0,1.206,0,19
133,870344.421,65.09399999992456,-0.06624531555175782,0.03556798934936523,0,0.004171336912266447,0.02076941809873252,1.5245800082020868,0,0,1.229,0,19
134,870409.729,65.3080000000773,-0.037122669219970705,0.0021015181541442873,0,0.010122909661567111,0.021170843826691217,1.5240913160115281,0,0,1.248,0,19
135,870475.036,65.30699999991339,-0.036449337005615236,-0.008038127899169922,0,0.01773254520026239,0.02150245638457014,1.5230441184603316,0,0,1.257,0,19
136,870540.069,65.03300000005402,-0.02952107620239258,-0.028949995040893555,0,0.025132741228718346,0.02614503219487506,1.5218747478614956,0,0,1.278,0,19
137,870605.01,64.94099999999162,0.0003152594566345215,-0.03594705581665039,0,0.03316125578789226,0.030700341542580258,1.5208973634803786,0,0,1.287,0,19
138,870670.349,65.33900000003632,0.0000909266471862793,-0.03859150695800781,0,0.0404741853537485,0.03560471674068432,1.5203388581197406,0,0,1.303,0,19
139,870735.565,65.21599999989849,0.010652212142944336,-0.053236770629882815,0,0.04611159883769018,0.03935717463247213,1.5190822210583046,0,0,1.325,0,19
140,870800.598,65.03300000005402,0.01561640739440918,-0.0455821647644043,0,0.0490612052735606,0.04155628948998498,1.518663342037826,0,0,1.339,0,19
141,870865.814,65.2160000000149,0.022775341033935546,-0.034947708129882814,0,0.05373868766890541,0.04399975044277704,1.5180699300921479,0,0,1.348,0,19
142,870931.091,65.27700000000186,0.017217557907104494,-0.021290620803833007,0,0.05543165704333991,0.04544837372193235,1.51737179839135,0,0,1.371,0,19
143,870996.063,64.97199999995064,0.021777097702026366,-0.009557798385620117,0,0.05550147021341968,0.04977679026687827,1.5170576391259913,0,0,1.369,0,19
144,871061.37,65.3070000000298,0.030585620880126955,-0.01345743465423584,0,0.05398303376418461,0.05361651462126581,1.5169529193708715,0,0,1.387,0,19
145,871126.434,65.06400000001304,0.029665008544921875,-0.015919954299926757,0,0.05597270911145815,0.05996951309852516,1.5164991337653528,0,0,1.391,0,19
146,871191.741,65.3070000000298,0.034383495330810546,-0.005470932006835938,0,0.056042522281537915,0.06339035843243405,1.5168132930307119,0,0,1.404,0,19
147,871256.927,65.18599999998696,0.027007709503173827,0.013307039260864257,0,0.05551892350593962,0.0666017642561036,1.5172321720511905,0,0,1.418,0,19
148,871321.96,65.0329999999376,0.0076472930908203125,0.02580843734741211,0,0.0528485697503883,0.06754424205218056,1.518314276187427,0,0,1.422,0,19
149,871387.084,65.12400000006892,0.0016807209253311157,0.02418253707885742,0,0.05169665244407204,0.0704240353179712,1.5195011000787835,0,0,1.432,0,19
150,871452.484,65.40000000002328,-0.015246694564819335,0.0220579833984375,0,0.04820599394008338,0.06998770300497262,1.5201643251945411,0,0,1.433,0,19
151,871517.425,64.94099999999162,-0.028004302978515624,0.020112979888916017,0,0.04468042885105484,0.06850417314077742,1.5207228305551792,0,0,1.442,0,19
152,871582.794,65.36899999994785,-0.041295902252197265,0.03155037879943848,0,0.04155628948998498,0.0655894732899469,1.5215780418886566,0,0,1.442,0,19
153,871647.827,65.03300000005402,-0.06170487976074219,0.026497611999511717,0,0.0409977841293468,0.061871921983198984,1.5219794676166152,0,0,1.438,0,19
154,871712.982,65.15499999991152,-0.06252590560913086,0.036671035766601565,0,0.04167846253762459,0.05715953300281429,1.522607786147333,0,0,1.455,0,19
155,871778.35,65.36800000001676,-0.06452484130859375,0.039903110504150394,0,0.04239404753094226,0.051731559029111925,1.5232535579705708,0,0,1.446,0,19
156,871843.292,64.94200000003912,-0.06291048812866211,0.04086855697631836,0,0.044261549830576195,0.04824090052512327,1.5240738627190082,0,0,1.454,0,18
157,871908.508,65.2160000000149,-0.05247079086303711,0.050687091827392575,0,0.0432143522793796,0.043336525327019204,1.5252257800253246,0,0,1.451,0,18
158,871973.785,65.27700000000186,-0.043821853637695314,0.03492787170410156,0,0.0415213829049451,0.041887902047863905,1.525993724896202,0,0,1.458,0,18
159,872038.848,65.06299999996554,-0.044577396392822266,0.04186928939819336,0,0.03899065548955332,0.04000294645571003,1.5272154553725983,0,0,1.451,0,18
160,872104.095,65.24699999997392,-0.041911327362060546,0.036230617523193356,0,0.03623303527140228,0.03869394951671429,1.5277390541481963,0,0,1.46,0,18
161,872169.128,65.03300000005402,-0.038377674102783206,0.041995121002197267,0,0.029949849964222692,0.029967303256742638,1.5283673726789144,0,0,1.453,0,18
162,872234.375,65.24699999997392,-0.018682266235351564,0.03411808013916016,0,0.023195425759004636,0.02012364627549462,1.5292225840123914,0,0,1.463,1,18
163,872299.56,65.18500000005588,0.002453101634979248,0.02401974105834961,0,0.021886428820008894,0.016371188383706808,1.5301650618084683,0,0,1.463,1,18
164,872364.624,65.06399999989662,0.006623366355895996,-0.027520805358886718,0,0.04122467693210607,0.03295181627765294,1.531910391060463,0,0,1.447,1,18
165,872429.809,65.18500000005588,-0.000301142692565918,-0.05898765563964844,0,0.0829205927622506,0.0676838683923401,1.5364133405306082,0,0,1.451,0,18
166,872495.239,65.42999999993481,-0.03866279602050781,-0.03674847030639648,0,0.12739158210306611,0.09733701238372375,1.5451574400830999,0,0,1.445,0,18
167,872560.241,65.002000000095,-0.06934462738037109,0.030848287582397462,0,0.15699236621688994,0.11281808284891347,1.5510217463698008,0,0,1.448,0,18
168,872625.457,65.2160000000149,-0.08106407165527343,0.13723786926269532,0,0.17126915949820357,0.11486011807374684,1.5542680587785103,0,0,1.451,0,18
169,872690.46,65.00299999990966,-0.09952729034423828,0.239682861328125,0,0.1758419221384287,0.1103746218961214,1.557182758629341,0,0,1.454,0,18
170,872755.737,65.27700000000186,-0.1268280029296875,0.3238172607421875,0,0.17130406608324344,0.10547024669801733,1.5603418045754505,0,0,1.437,0,18
171,872821.044,65.3070000000298,-0.1590062255859375,0.43648764038085935,0,0.15908676131928315,0.09712757287348445,1.5631692379636812,0,0,1.438,0,17
172,872885.986,64.94200000003912,-0.15003871154785156,0.4784861145019531,0,0.1401324856426247,0.08625417163355976,1.5659268581818326,0,0,1.43,0,17
173,872951.171,65.18499999993946,-0.12904173278808595,0.5284658813476563,0,0.11623892818282235,0.07593927575427328,1.5688066514476229,0,0,1.44,0,17
174,873016.448,65.27700000000186,-0.1539319305419922,0.561157958984375,0,0.0899368163552678,0.06548475353482723,1.5723322165366513,0,0,1.436,0,17
175,873081.42,64.97200000006706,-0.1397036590576172,0.5791170654296875,0,0.06520550085450814,0.057508598853213154,1.5760672211359195,0,0,1.426,1,17
176,873146.759,65.3389999999199,-0.1635147399902344,0.5702579345703125,0,0.042551127163621756,0.046879543708567686,1.5834325105793357,0,0,1.426,1,17
177,873211.822,65.06300000008196,-0.1660249786376953,0.5530673217773437,0,0.03391174736624983,0.02261946710584651,1.5936601399960222,0,0,1.422,1,17
178,873277.099,65.27700000000186,-0.15353009033203124,0.5791069946289062,0,0.04267330021126135,-0.020350539078253883,1.6019504539429954,0,0,1.417,1,17
179,873342.315,65.21599999989849,-0.10752696228027343,0.5938101806640625,0,0.04855505979048225,-0.06977826349473329,1.6088445044883732,0,0,1.414,1,17
180,873407.409,65.09400000004098,-0.034083431243896484,0.5798246459960937,0,0.04305727264670011,-0.11184069846779665,1.614394651509715,0,0,1.412,1,17
181,873472.534,65.125,0.08306040954589844,0.532163330078125,0,0.032253684576855214,-0.1386664090709495,1.6191594003676595,0,0,1.402,1,17
182,873537.872,65.33799999998882,0.14334739685058595,0.5174705810546875,0,0.01801179788058148,-0.1540776663660594,1.6231562043547263,0,0,1.396,1,17
183,873602.874,65.00199999997858,0.29573773193359376,0.45848248291015625,0,0.004799655442984407,-0.1604481181358387,1.625460038967359,0,0,1.391,1,17
184,873668.09,65.2160000000149,0.405672119140625,0.40953997802734377,0,-0.009023352232810684,-0.16144295580947549,1.6268213957839146,0,0,1.396,1,17
185,873733.306,65.2160000000149,0.4962091674804687,0.36378887939453125,0,-0.02469640891571976,-0.15950564033976178,1.6275195274847123,0,0,1.384,1,17
186,873798.4,65.09400000004098,0.6225541381835937,0.3074661865234375,0,-0.0411199571769864,-0.1562942345160922,1.6261058107905968,0,0,1.38,1,17
187,873863.555,65.15500000002794,0.7246163330078125,0.24609121704101564,0,-0.05316272901574728,-0.14938273067819466,1.624796813851601,0,0,1.382,1,17
188,873928.741,65.18599999998696,0.8547296752929687,0.1386696319580078,0,-0.06304129258203518,-0.12927653769522,1.621742487660611,0,0,1.297,1,17
189,873993.927,65.18599999998696,0.9392617797851562,0.0575325927734375,0,-0.07262315017548404,-0.10266026660230645,1.617780590258584,0,0,1.368,1,17
190,874059.173,65.24599999992643,1.0328289794921874,-0.02877775001525879,0,-0.07656759428499123,-0.07330382858376185,1.6137837862715168,0,0,1.361,1,17
191,874124.237,65.06400000001304,1.071558349609375,-0.10809384155273437,0,-0.0713141532364883,-0.042114794850623166,1.6105025672777675,0,0,1.359,0,17
192,874189.514,65.27700000000186,1.036522705078125,-0.15617213439941408,0,-0.05852088981936987,-0.0038048177693476384,1.608443078760414,0,0,1.358,0,17
193,874254.455,64.94099999999162,1.0937667236328126,-0.24995840454101562,0,-0.03639011490408177,0.041713369122664476,1.6081638260800952,0,0,1.354,0,17
194,874319.793,65.33799999998882,1.0582315673828124,-0.3256669921875,0,-0.009669124056048585,0.08672541053159824,1.6092982900938915,0,0,1.354,0,17
195,874384.979,65.18600000010338,1.014973388671875,-0.3620146789550781,0,0.021240656996770992,0.1262222115042299,1.610677100202967,0,0,1.388,0,17
196,874450.347,65.36799999990035,0.9464954833984375,-0.37955328369140623,0,0.051557026103912496,0.16276940604099116,1.6127540420128403,0,0,1.388,0,17
197,874515.258,64.9110000000801,0.8837645263671875,-0.3631693115234375,0,0.07504915783575616,0.1957910354887239,1.6138361461490764,0,0,1.369,0,17
198,874580.566,65.30799999996088,0.728513916015625,-0.30834906005859375,0,0.09204866475018093,0.22420499571119157,1.6147611706526337,0,0,1.298,0,17
199,874645.568,65.00199999997858,0.5445108032226562,-0.24394834899902343,0,0.10309659891530504,0.24057618409489837,1.6147262640675937,0,0,1.267,0,17
200,874710.876,65.3080000000773,0.41235101318359374,-0.16706361389160157,0,0.10976375665792337,0.24668483647687853,1.6141153988293957,0,0,1.237,0,17
201,874775.939,65.06299999996554,0.2919308776855469,-0.1293089599609375,0,0.1152091839241457,0.23705061900586982,1.6135918000537977,0,0,1.22,0,17
202,874841.186,65.24699999997392,0.1406014862060547,-0.08531311798095703,0,0.12274900629276121,0.20682151636132803,1.610677100202967,0,0,1.209,0,16
203,874906.402,65.2160000000149,0.09314435577392578,0.09979881286621094,0,0.12201596800692358,0.1636246173744684,1.6091412104612122,0,0,1.206,0,16
204,874971.557,65.15500000002794,0.05756072235107422,0.13556631469726563,0,0.11294025589655306,0.12414526969435666,1.6104851139852476,0,0,1.23,0,16
205,875036.59,65.0329999999376,0.028923938751220703,0.19946006774902345,0,0.09796533091444173,0.09484119155337187,1.6149007969927933,0,0,1.264,0,16
206,875102.294,65.70400000002701,-0.03285182571411133,0.2286396026611328,0,0.07803367085666647,0.07410668003967924,1.6211141691298931,0,0,1.24,0,16
207,875166.992,64.69799999997485,-0.04266229248046875,0.2110196075439453,0,0.05742133239061344,0.05822418384653083,1.626088357498077,0,0,1.26,0,16
208,875232.208,65.2160000000149,-0.0398310432434082,0.20979107666015626,0,0.03555235686312449,0.04389503068765739,1.6296139225871056,0,0,1.274,0,16
209,875297.332,65.12400000006892,-0.07157312774658203,0.1822818603515625,0,0.019233528356977513,0.03944444109507184,1.6339946990096113,0,0,1.388,0,16
210,875362.548,65.21599999989849,-0.05614034271240234,0.2035620574951172,0,0.001256637061435917,0.040194932673429405,1.6381834892143976,0,0,1.313,0,16
211,875427.703,65.15500000002794,-0.09002378845214844,0.14761653137207031,0,-0.01403244718603441,0.03960152072775134,1.643000597949902,0,0,1.343,0,16
212,875492.828,65.125,-0.08428562164306641,0.1564162139892578,0,-0.02535963403147761,0.036582101121801144,1.6475035474200475,0,0,1.348,0,16
213,875558.013,65.18500000005588,-0.11626644134521484,0.13127615356445313,0,-0.03549999698556466,0.030682888250060315,1.653193320781549,0,0,1.352,0,16
214,875623.291,65.27799999993294,-0.11093888092041015,0.13329579162597657,0,-0.04651302456564888,0.022846359908605774,1.6587260145103708,0,0,1.449,0,16
215,875688.446,65.15500000002794,-0.11240592193603516,0.07585720825195312,0,-0.055309483995700306,0.014678219009272311,1.664503054334472,0,0,1.433,0,16
216,875753.631,65.18500000005588,-0.10061342620849609,0.058039939880371094,0,-0.05867796945204936,0.006440264939859076,1.6699135750156544,0,0,1.464,0,16
217,875818.634,65.00299999990966,-0.07775978088378906,0.011808151245117188,0,-0.05701990666265474,-0.001954768762233649,1.6742419915606006,0,0,1.476,0,16
218,875883.85,65.2160000000149,-0.09021751403808594,-0.035044452667236325,0,-0.049026298688520716,-0.009965830028887622,1.6769821584862317,0,0,1.467,0,16
219,875949.096,65.24600000004284,-0.08042864227294921,-0.08943610382080078,0,-0.037734018428117404,-0.01457349925415265,1.6790067404185451,0,0,1.439,0,16
220,876014.129,65.0329999999376,-0.06446581268310547,-0.11982650756835937,0,-0.023474678439323732,-0.015481070465189702,1.6806124433303797,0,0,1.486,0,16
221,876079.376,65.24700000009034,-0.07027057647705078,-0.1542241973876953,0,-0.009354964790689606,-0.015533430342749534,1.6812058552760578,0,0,1.43,0,16
222,876144.653,65.27700000000186,-0.03663384246826172,-0.17365196228027344,0,0.006440264939859076,-0.016406094968746697,1.6820785199020551,0,0,1.422,0,16
223,876209.747,65.09399999992456,-0.02167641067504883,-0.18660165405273438,0,0.02001892652037496,-0.01722639971718403,1.6825148522150535,0,0,1.414,0,16
224,876274.932,65.18500000005588,-0.026255237579345704,-0.21689675903320313,0,0.032742376767413615,-0.016755160819145562,1.6824799456300137,0,0,1.379,0,16
225,876339.965,65.0329999999376,0.02292788314819336,-0.20902047729492187,0,0.04499458811641381,-0.01530653753999027,1.6828290114804123,0,0,1.41,0,16
226,876405.273,65.3080000000773,0.038336341857910156,-0.2155240478515625,0,0.053407075111026485,-0.013892820845874865,1.6825148522150535,0,0,1.371,0,16
227,876470.458,65.18499999993946,0.09223503875732422,-0.21594943237304687,0,0.06241297405131722,-0.010855947947404729,1.6818516270992956,0,0,1.311,0,16
228,876535.522,65.06400000001304,0.08908512115478516,-0.20099957275390626,0,0.07040658202545125,-0.007871434926494426,1.6816072810040166,0,0,1.249,0,16
229,876600.799,65.27700000000186,0.12345452880859376,-0.1587781524658203,0,0.07321656212116213,-0.0015184364492350666,1.6826021186776536,0,0,1.288,0,16
230,876666.381,65.58200000005309,0.11325841522216797,-0.12431083679199219,0,0.07066838141325041,0.007260569688296411,1.6844347143922473,0,0,1.261,0,16
231,876731.048,64.66699999989942,0.13910714721679687,-0.09420732879638671,0,0.06901031862385579,0.01774999849278233,1.6855517251135237,0,0,1.285,0,16
232,876796.234,65.18600000010338,0.13159210205078126,-0.07869561004638671,0,0.06935938447425466,0.025028021473598682,1.6872446944879582,0,0,1.28,0,16
233,876861.358,65.1239999999525,0.1293558807373047,-0.05051028060913086,0,0.06956882398449397,0.03783873818323706,1.6896008889781506,0,0,1.195,0,14
234,876926.605,65.24699999997392,0.1188234634399414,-0.030874427795410157,0,0.06283185307179587,0.0486597795456019,1.690665539821867,0,0,1.201,0,14
235,876991.79,65.18500000005588,0.10607603454589844,0.022428279876708986,0,0.05614724203665758,0.056409041424456734,1.691363671522665,0,0,1.198,0,14
236,877056.884,65.09399999992456,0.0628759536743164,0.036782546997070314,0,0.05115560037595379,0.0636521578202332,1.692306149318742,0,0,1.272,0,14
237,877122.039,65.15500000002794,0.04963393783569336,0.04178815460205078,0,0.048014007722364,0.07061602153569058,1.694348184543575,0,0,1.213,0,14
238,877187.438,65.39899999997579,0.005004138946533203,0.09638333129882813,0,0.043336525327019204,0.06866125277345693,1.6944703575912146,0,0,1.23,0,14
239,877252.41,64.97200000006706,0.015331353187561035,0.08125725555419921,0,0.03743731245527837,0.06569419304506656,1.6952033958770525,0,0,1.237,0,14
240,877317.687,65.27700000000186,-0.011517709732055664,0.10580419158935547,0,0.030194196059501903,0.06359979794267337,1.694662343808934,0,0,1.26,0,14
241,877382.751,65.06400000001304,-0.03692779541015625,0.10948385620117188,0,0.02569124658935653,0.06188937527571892,1.6941736516183756,0,0,1.269,0,14
242,877447.967,65.21599999989849,-0.04688022613525391,0.10405745697021485,0,0.01773254520026239,0.06030112565640408,1.6928297480943402,0,0,1.313,0,14
243,877513.153,65.18600000010338,-0.059059017181396486,0.09446202850341796,0,0.008656833089891874,0.05787511799613196,1.691363671522665,0,0,1.332,0,14
244,877578.216,65.06299999996554,-0.049733146667480466,0.04576654434204101,0,-0.00013962634015954637,0.05194099853935124,1.688902757277353,0,0,1.356,0,14
245,877643.463,65.24699999997392,-0.09679205322265624,0.03911594009399414,0,-0.001954768762233649,0.04834562028024293,1.6874541339981977,0,0,1.383,0,14
246,877708.74,65.27700000000186,-0.10382067108154297,0.002711118698120117,0,0.0024260076602721182,0.04319689898685966,1.6851153928005251,0,0,1.414,0,14
247,877773.651,64.91099999996368,-0.0892664794921875,0.00009697916358709336,0,0.0076270888312152205,0.03639011490408177,1.6832478905008912,0,0,1.436,0,14
248,877838.958,65.3070000000298,-0.10687264251708985,-0.025442358016967773,0,0.009354964790689606,0.033370695298131574,1.6838762090316093,0,0,1.513,0,13
249,877903.991,65.03300000005402,-0.13451077270507814,-0.0408504524230957,0,0.002513274122871834,0.07047639519553103,1.6812058552760578,0,0,1.479,0,13
250,877969.268,65.27700000000186,0.005900776863098144,-0.019144798278808595,0,0.001186823891356144,0.050038589654677425,1.6781515290850677,0,0,1.51,0,13
251,878034.484,65.2160000000149,0.048224822998046875,-0.03251766204833984,0,0.003420845333908886,0.02022836603061428,1.6744339777783197,0,0,1.427,0,13
252,878099.578,65.09399999992456,0.096407958984375,-0.020423202514648436,0,0.006544984694978735,-0.001500983156715123,1.6701230145258938,0,0,1.414,0,13
253,878164.764,65.18599999998696,0.12653504943847657,-0.03719351959228516,0,0.004642575810304917,-0.002478367537831948,1.6667719823620646,0,0,1.394,0,13
254,878230.072,65.3080000000773,0.145206787109375,-0.07861411285400391,0,0.003351032163829113,0.011205013797803597,1.6644506944569122,0,0,1.389,0,13
255,878295.104,65.03200000000652,0.13630038452148438,-0.11937110900878906,0,0.004084070449666731,0.028431413514987625,1.6623039394769592,0,0,1.334,0,13
256,878360.351,65.24699999997392,0.10313425445556641,-0.1398995819091797,0,0.010925761117484502,0.042952552891580446,1.6608204096127641,0,0,1.302,0,13
257,878425.354,65.00300000002608,0.11082306671142578,-0.10452820587158203,0,0.02326523892908441,0.04808382089244378,1.6607680497352044,0,0,1.29,0,13
258,878490.661,65.30699999991339,0.09212506866455078,-0.10047213745117188,0,0.03682644721708035,0.04778711491960474,1.6599302916942469,0,0,1.25,0,13
259,878555.816,65.15500000002794,0.06007250595092774,-0.07062806701660156,0,0.04637339822548933,0.04207988826558329,1.65900526719069,0,0,1.249,0,13
260,878620.941,65.125,0.06498680114746094,-0.04811100769042969,0,0.049794243559398224,0.0419228086329038,1.6589180007280906,0,0,1.255,0,13
261,878686.004,65.06299999996554,0.049235324859619144,-0.03536239624023438,0,0.05237733085234983,0.048869219055841226,1.6596684923064478,0,0,1.324,0,13
262,878751.373,65.36900000006426,0.0672501220703125,0.004281279563903809,0,0.0512777734235934,0.05745623897565333,1.6590401737757299,0,0,1.233,0,13
263,878816.436,65.06299999996554,0.028515981674194335,0.026461692810058595,0,0.041329396687225725,0.0611563369898813,1.6571028583060161,0,0,1.216,0,13
264,878881.988,65.55200000002515,0.057642974853515626,0.025639463424682617,0,0.028623399732707,0.06810274741281873,1.655252809298902,0,0,1.227,0,12
265,878946.746,64.75800000003073,-0.01432969093322754,-0.010479658126831055,0,0.016790067404185448,0.07370525431172054,1.655357529054022,0,0,1.228,0,12
266,879012.115,65.36899999994785,0.017576850891113282,-0.030657936096191406,0,0.011938052083641213,0.07806857744170635,1.6575042840339749,0,0,1.251,0,12
267,879077.178,65.06299999996554,-0.08305599975585938,-0.05738718795776367,0,0.017558012275062956,0.08349655141540872,1.6613440083883626,0,0,1.264,0,12
268,879142.242,65.06400000001304,-0.10103224182128906,-0.008412137031555175,0,0.020176006153054447,0.07836528341454539,1.665497892008109,0,0,1.276,0,12
269,879207.397,65.15500000002794,-0.09744695281982421,-0.01211258029937744,0,0.02818706741970842,0.07391469382195985,1.6695296025802158,0,0,1.313,0,12
270,879272.796,65.39899999997579,-0.09080045318603516,-0.019774322509765626,0,0.03576179637336381,0.07590436916923339,1.6738754724176816,0,0,1.344,0,12
271,879337.707,64.9110000000801,-0.13556655883789062,-0.002068403244018555,0,0.03876376268679406,0.07712609964562941,1.677872276404749,0,0,1.383,0,12
272,879403.045,65.33799999998882,-0.13451466369628906,-0.016702795028686525,0,0.04536110725933262,0.07314674895108235,1.6805949900378598,0,0,1.404,0,12
273,879468.139,65.09399999992456,-0.17257406616210938,0.027024229049682616,0,0.05485569839018177,0.04961971063419879,1.6822355995347344,0,0,1.411,0,12
274,879533.538,65.39899999997579,-0.18167198181152344,0.04172900009155273,0,0.06843435997069766,0.024521875990520327,1.6812233085685777,0,0,1.422,0,12
275,879598.51,64.97200000006706,-0.15618734741210938,0.06345929336547852,0,0.06476916854150956,0.01007054978400728,1.67745339738427,0,0,1.416,0,12
276,879663.604,65.09400000004098,0.08379483032226563,0.01116112518310547,0,0.0542971930295436,0.0042935099599060505,1.6757953345948755,0,0,1.394,0,12
277,879728.82,65.21599999989849,0.12021773529052734,0.04705367279052734,0,0.03663446099936098,0.003316125578789226,1.6753764555743966,0,0,1.406,0,12
278,879794.067,65.24700000009034,0.1344262237548828,0.0032534284591674806,0,0.02530727415391778,0.008063421144213804,1.6763538399555138,0,0,1.348,0,12
279,879859.13,65.06299999996554,0.1753818664550781,-0.03337442779541016,0,0.028955012290585926,0.038414696836395194,1.6791812733437441,0,0,1.323,0,11
280,879924.316,65.18599999998696,0.16459510803222657,-0.11342044830322266,0,0.03569198320328404,0.09021606903558688,1.683317703670971,0,0,1.297,0,11
281,879989.44,65.1239999999525,0.08422372436523437,-0.12008213043212891,0,0.04447098934081551,0.140656084418223,1.6868956286375594,0,0,1.281,0,11
282,880054.687,65.24700000009034,-0.006131622314453125,-0.059771553039550784,0,0.05693264020005503,0.18132225598969087,1.6905608200667472,0,0,1.256,0,11
283,880119.842,65.15499999991152,-0.09263738250732421,-0.03230605316162109,0,0.07099999397112931,0.21299998191338798,1.6944529042986947,0,0,1.25,0,11
284,880185.028,65.18600000010338,-0.23463279724121094,0.024267477035522463,0,0.08112290363269643,0.23387411976724018,1.6971232580542461,0,0,1.24,0,11
285,880250.183,65.15499999991152,-0.3656586608886719,0.06212255859375,0,0.08269369995949134,0.2471909819599569,1.699095480109,0,0,1.26,0,11
286,880315.46,65.27700000000186,-0.49364031982421874,0.10778329467773437,0,0.07504915783575616,0.24822072621863353,1.7001601309527163,0,0,1.26,0,11
287,880380.493,65.03300000005402,-0.5808799438476563,0.11878617095947265,0,0.06529276731710787,0.2365619268153114,1.6996365321771179,0,0,1.281,0,11
288,880445.77,65.27700000000186,-0.6300606689453125,0.18559336853027344,0,0.058573249696929695,0.22071433720720293,1.6984671615782818,0,0,1.321,0,11
289,880510.772,65.00199999997858,-0.7417393188476562,0.1777680969238281,0,0.05729915934297384,0.20542525295973257,1.6979435628026835,0,0,1.34,0,11
290,880576.019,65.24699999997392,-0.7493430786132812,0.2168052978515625,0,0.059201568227647654,0.18826866641262832,1.6982751753605625,0,0,1.41,0,11
291,880641.235,65.2160000000149,-0.9473125,0.0776388931274414,0,0.06716026961674179,0.17140878583836308,1.6981180957278827,0,0,1.452,0,11
292,880706.298,65.06299999996554,-1.0191631469726563,0.23632833862304686,0,0.0753807703936351,0.1559800752507332,1.6981355490204029,0,0,1.503,0,11
293,880771.545,65.24700000009034,-1.0988240966796874,0.23309274291992188,0,0.07529350393103539,0.13840460968315033,1.6981180957278827,0,0,1.477,0,11
294,880836.761,65.2160000000149,-1.148484619140625,0.19531259155273437,0,0.07590436916923339,0.10580185925589626,1.695622274897531,0,0,1.459,0,11
295,880901.794,65.0329999999376,-1.1369622802734376,0.23948597717285156,0,0.08012806595905966,0.06293657282691552,1.6926377618766206,0,0,1.459,0,10
296,880967.132,65.33799999998882,-1.156626953125,0.27137701416015625,0,0.08883725892651137,0.01832595714594046,1.6901593943387887,0,0,1.459,0,10
297,881032.165,65.03300000005402,-1.1678858642578125,0.3027269592285156,0,0.09250245035569946,-0.025708699881876473,1.6885711447194738,0,0,1.454,0,10
298,881097.564,65.39899999997579,-1.0967890625,0.36116973876953123,0,0.08295549934729049,-0.06302383928951524,1.6877508399710366,0,0,1.457,0,10
299,881162.628,65.06400000001304,-0.9879695434570313,0.36669723510742186,0,0.0659908990179056,-0.08998917623282762,1.6894787159305111,0,0,1.458,0,10
300,881227.63,65.00199999997858,-0.9289153442382813,0.3938338928222656,0,0.041189770347066175,-0.11191051163787641,1.6922712427337019,0,0,1.454,0,10
301,881292.816,65.18599999998696,-0.7785025024414063,0.3570597229003906,0,0.016685347649065787,-0.12760102161330544,1.6950637695368929,0,0,1.46,0,10
302,881358.215,65.39899999997579,-0.67492041015625,0.31284408569335936,0,0.00006981317007977319,-0.13700834628155484,1.6984322549932418,0,0,1.465,0,10
303,881423.309,65.09400000004098,-0.579184814453125,0.26880792236328127,0,-0.011030480872604163,-0.14196508135721878,1.7019578200822705,0,0,1.461,0,10
304,881488.311,65.00199999997858,-0.49867178344726565,0.21821746826171876,0,-0.015009831567151233,-0.13932963418670732,1.7058149977291779,0,0,1.463,0,10
305,881553.558,65.24699999997392,-0.3906846008300781,0.17051162719726562,0,-0.010088003076527224,-0.12753120844322566,1.70822355209693,0,0,1.466,0,10
306,881618.713,65.15500000002794,-0.30183450317382815,0.11558876037597657,0,-0.009546951008408983,-0.11365584088987074,1.7092358430630867,0,0,1.466,0,10
307,881683.929,65.2160000000149,-0.2039866943359375,0.1054681167602539,0,-0.012199851471440362,-0.10592403230353585,1.7108764525599613,0,0,1.471,0,10
308,881749.084,65.15500000002794,-0.149805419921875,0.10046379852294922,0,-0.011292280260403314,-0.09269443657341885,1.7086773377024485,0,0,1.462,0,10
309,881814.27,65.18599999998696,-0.07310897827148438,0.09816325378417969,0,-0.010175269539126942,-0.07962192047598131,1.707298527593373,0,0,1.428,0,10
310,881879.516,65.24599999992643,0.008296417236328126,0.08911189270019532,0,-0.012095131716320704,-0.07246607054280456,1.7058149977291779,0,0,1.382,1,10
311,881944.549,65.03300000005402,0.09155607604980469,0.06681257629394531,0,-0.013369222070276564,-0.0642630230584312,1.703284270313786,0,0,1.358,1,10
312,882009.735,65.18599999998696,0.17735231018066405,0.042191143035888674,0,-0.029077185338225526,-0.04858996637552213,1.7013469548440725,0,0,1.312,1,10
313,882074.829,65.09400000004098,0.3065815124511719,-0.008098979949951172,0,-0.06061528492176306,-0.022287854547967587,1.698676601088521,0,0,1.278,1,10
314,882140.045,65.2160000000149,0.3766026611328125,-0.0377464599609375,0,-0.09194394499506128,0.010157816246606997,1.696233140135729,0,0,1.222,0,10
315,882205.291,65.24599999992643,0.42895745849609374,-0.11957736968994141,0,-0.11842058974781526,0.04485496177625426,1.6941038384482958,0,0,1.165,0,10
316,882270.385,65.09400000004098,0.3903041381835938,-0.24256161499023438,0,-0.12306316555812016,0.0814719694830953,1.6914334846927448,0,0,1.143,0,10
317,882335.51,65.125,0.3583685913085938,-0.3566626281738281,0,-0.10068804454755287,0.11351621454971118,1.68979287519587,0,0,1.079,0,10
318,882400.848,65.33799999998882,0.2787316284179687,-0.42802947998046875,0,-0.07052875507309087,0.13683381335635542,1.68979287519587,0,0,1.002,0,10
319,882465.972,65.1239999999525,0.22999778747558594,-0.47230264282226564,0,-0.038659042931674395,0.15348425442038136,1.6898975949509896,0,0,0.972,0,10
320,882531.066,65.09400000004098,0.1728162841796875,-0.5398755493164062,0,-0.0079412480965742,0.16585863881702112,1.6898801416584694,0,0,0.905,0,10
321,882596.191,65.125,0.09123811340332032,-0.5435999755859375,0,0.022322761133007473,0.16875588537533173,1.689373996175391,0,0,0.871,0,10
322,882661.437,65.24600000004284,0.049672393798828124,-0.55199658203125,0,0.05523967082562053,0.1667313034430183,1.6881522656989953,0,0,0.797,0,10
323,882726.684,65.24699999997392,0.02109197235107422,-0.5338978881835937,0,0.08595746566072072,0.15566591598537424,1.6853946454808444,0,0,0.725,0,10
324,882791.809,65.125,0.01327484130859375,-0.48153387451171875,0,0.11295770918907301,0.14067353771074298,1.6819039869768555,0,0,0.69,0,10
325,882856.903,65.09400000004098,-0.012328773498535157,-0.42456671142578123,0,0.13233086388621007,0.12493066785775411,1.6777326500645888,0,0,0.619,0,10
326,882922.21,65.30699999991339,0.0010217361450195312,-0.32183599853515626,0,0.14337879805133416,0.11346385467215137,1.674084911927921,0,0,0.548,0,10
327,882987.243,65.03300000005402,-0.06686347961425781,-0.2539074401855469,0,0.1428377459832159,0.09901252846563832,1.6710654923219708,0,0,0.511,0,10
328,883052.368,65.125,-0.007099227905273437,-0.12015894317626953,0,0.13466960508388248,0.08768534162019512,1.6699135750156544,0,0,0.441,0,10
329,883117.675,65.3070000000298,-0.02908911895751953,-0.11512969207763672,0,0.12430234932703615,0.08262388678941156,1.6705069869613323,0,0,0.405,0,10
330,883182.8,65.125,-0.057001510620117185,-0.0480278205871582,0,0.10447540902438056,0.08007570608149985,1.6719730635330077,0,0,0.338,0,10
331,883248.077,65.27700000000186,-0.08904795837402343,-0.053539756774902345,0,0.08326965861264947,0.08068657131969786,1.6740325520503612,0,0,0.282,0,10
332,883313.079,65.00199999997858,-0.11030582427978515,-0.02328433036804199,0,0.07120943348136864,0.08032005217677905,1.6757080681322758,0,0,0.26,0,10
333,883378.265,65.18599999998696,-0.09919740295410157,0.001059661865234375,0,0.06639232474586429,0.08782496796035466,1.6768774387311118,0,0,0.242,0,10
334,883443.511,65.24600000004284,-0.12294551086425781,0.024679386138916015,0,0.0589746754248884,0.0869523033343575,1.6751495627716375,0,0,0.242,0,10
335,883508.605,65.09399999992456,-0.14726191711425782,0.04309030532836914,0,0.05707226654021458,0.07525859734599549,1.670367360621173,0,0,0.242,0,10
336,883573.822,65.2170000000624,-0.16004696655273437,0.05364561462402344,0,0.05668829410477583,0.06480407512654945,1.664171441776593,0,0,0.242,0,10
337,883638.824,65.00199999997858,-0.21344599914550783,0.10383377838134765,0,0.03239331091701476,0.0586954227445693,1.6467181492566498,0,0,0.243,0,10
